[{"business_url":"http:\/\/www.sjreid.co.nz","yp_url":"https:\/\/yellow.co.nz\/y\/diesel-dirt?src=name","addrInfo":{"lat":-35.7530247,"lng":174.2076874,"street_number":"1136","locality":"Maungatapere","administrative_area_level_1":"Northland","country_code":"NZ","country":"New Zealand","postal_code":"0179","route":"1136 State Highway 14","formatted_address":"1136 State Highway 14, Maungatapere 0179, New Zealand"}},{"business_url":"http:\/\/www.delaval.co.nz","yp_url":"https:\/\/yellow.co.nz\/y\/delaval-saint?src=name","addrInfo":{"lat":-37.7493576,"lng":175.2416389,"street_number":"307","locality":"Hamilton","administrative_area_level_1":"Waikato","country_code":"NZ","country":"New Zealand","postal_code":"3200","route":"307 Sandwich Rd","formatted_address":"307 Sandwich Rd, St Andrews, Hamilton 3200, New Zealand"}},{"business_url":"http:\/\/www.farmermotorgroup.co.nz","yp_url":"https:\/\/yellow.co.nz\/y\/farmer-auto-village?src=name","addrInfo":{"lat":-37.6653938,"lng":176.196265,"street_number":"116","locality":"Tauranga","administrative_area_level_1":"Bay Of Plenty","country_code":"NZ","country":"New Zealand","postal_code":"3116","route":"116 Hewletts Rd","formatted_address":"116 Hewletts Rd, Mount Maunganui, Tauranga 3116, New Zealand"}},{"business_url":"http:\/\/www.farmermotorgroup.co.nz","yp_url":"https:\/\/yellow.co.nz\/y\/bay-nissanbay-prestigebay?src=name","addrInfo":{"lat":-37.6653938,"lng":176.196265,"street_number":"116","locality":"Tauranga","administrative_area_level_1":"Bay Of Plenty","country_code":"NZ","country":"New Zealand","postal_code":"3116","route":"116 Hewletts Rd","formatted_address":"116 Hewletts Rd, Mount Maunganui, Tauranga 3116, New Zealand"}},{"business_url":"http:\/\/www.coastline-tours.co.nz","yp_url":"https:\/\/yellow.co.nz\/y\/coast-line-tours-oamaru-dunedin?src=name","addrInfo":{"lat":-45.0800048,"lng":170.9185969,"street_number":"12","locality":"Oamaru","administrative_area_level_1":"Otago","country_code":"NZ","country":"New Zealand","postal_code":"9401","route":"12 Main St","formatted_address":"12 Main St, Weston, Oamaru 9401, New Zealand"}},{"business_url":"http:\/\/www.allflex.co.nz","yp_url":"https:\/\/yellow.co.nz\/y\/allflex-new-zealand?src=name","addrInfo":{"lat":-40.3162616,"lng":175.6300524,"street_number":"17","locality":"Palmerston North","administrative_area_level_1":"Manawatu-Wanganui","country_code":"NZ","country":"New Zealand","postal_code":"4470","route":"17 El Prado Dr","formatted_address":"17 El Prado Dr, Milson, Palmerston North 4470, New Zealand"}},{"business_url":"http:\/\/www.lely.com","yp_url":"https:\/\/yellow.co.nz\/y\/sj-bromley-engineering-feilding?src=name","addrInfo":{"lat":-40.2260356,"lng":175.569697,"street_number":"6","locality":"Feilding","administrative_area_level_1":"Manawatu-Wanganui","country_code":"NZ","country":"New Zealand","postal_code":"4702","route":"6 Weld St","formatted_address":"6 Weld St, Feilding 4702, New Zealand"}},{"business_url":"http:\/\/www.bromleys.co.nz\/","yp_url":"https:\/\/yellow.co.nz\/y\/bromley-dairy-pumps?src=name","addrInfo":{"lat":-40.2260356,"lng":175.569697,"street_number":"6","locality":"Feilding","administrative_area_level_1":"Manawatu-Wanganui","country_code":"NZ","country":"New Zealand","postal_code":"4702","route":"6 Weld St","formatted_address":"6 Weld St, Feilding 4702, New Zealand"}}]