[{"business_url":"http:\/\/www.jujnovich.co.nz","yp_url":"https:\/\/yellow.co.nz\/y\/jujnovich-holdings?src=name","addrInfo":{"lat":-35.1152065,"lng":173.2652542,"street_number":"37","locality":"Kaitaia","administrative_area_level_1":"Northland","country_code":"NZ","country":"New Zealand","postal_code":"0410","route":"37 Commerce St","formatted_address":"37 Commerce St, Kaitaia 0410, New Zealand"}},{"business_url":"http:\/\/www.onsiteaccess.co.nz","yp_url":"https:\/\/yellow.co.nz\/y\/onsite-access-stage?src=name","addrInfo":{"lat":-35.1064291,"lng":173.2608042,"street_number":"84A","locality":"Kaitaia","administrative_area_level_1":"Northland","country_code":"NZ","country":"New Zealand","postal_code":"0410","route":"84A Matthews Ave","formatted_address":"84A Matthews Ave, Kaitaia 0410, New Zealand"}},{"business_url":"http:\/\/www.cheerspartyhire.co.nz","yp_url":"https:\/\/yellow.co.nz\/y\/cheers-wedding-and?src=name","addrInfo":{"lat":-35.7547032,"lng":174.3126174,"street_number":"3","locality":"Whangarei","administrative_area_level_1":"Northland","country_code":"NZ","country":"New Zealand","postal_code":"0110","route":"3 Nell Pl","formatted_address":"3 Nell Pl, Raumanga, Whangarei 0110, New Zealand"}},{"business_url":"http:\/\/www.cowleyshire.co.nz","yp_url":"https:\/\/yellow.co.nz\/y\/cowleys-hire-centres-commerce?src=name","addrInfo":{"lat":-35.7310407,"lng":174.3257045,"street_number":"54","locality":"Whangarei","administrative_area_level_1":"Northland","country_code":"NZ","country":"New Zealand","postal_code":"0110","route":"54 Commerce St","formatted_address":"54 Commerce St, Whangarei, Whangarei 0110, New Zealand"}},{"business_url":"http:\/\/www.superloo.co.nz\/online\/portaloo_hire_tauranga.csn","yp_url":"https:\/\/yellow.co.nz\/y\/super-loo-sanitation-judea?src=name","addrInfo":{"lat":-37.699829,"lng":176.1482314,"street_number":"46","locality":"Tauranga","administrative_area_level_1":"Bay Of Plenty","country_code":"NZ","country":"New Zealand","postal_code":"3110","route":"46 Birch Ave","formatted_address":"46 Birch Ave, Judea, Tauranga 3110, New Zealand"}},{"business_url":"http:\/\/www.brandx.nz","yp_url":"https:\/\/yellow.co.nz\/y\/brandx-tamahere?src=name","addrInfo":{"lat":-37.8044657,"lng":175.3957758,"street_number":"452","locality":"Tamahere","administrative_area_level_1":"Waikato","country_code":"NZ","country":"New Zealand","postal_code":"3284","route":"452 Tauwhare Rd","formatted_address":"452 Tauwhare Rd, Tamahere 3284, New Zealand"}},{"business_url":"http:\/\/www.firstpartyhire.co.nz","yp_url":"https:\/\/yellow.co.nz\/y\/first-party-hire?src=name","addrInfo":{"lat":-36.9011045,"lng":174.8469307,"street_number":"63","locality":"Auckland","administrative_area_level_1":"Auckland","country_code":"NZ","country":"New Zealand","postal_code":"1060","route":"63 Ireland Rd","formatted_address":"63 Ireland Rd, Mount Wellington, Auckland 1060, New Zealand"}},{"business_url":"http:\/\/www.hirequipevents.co.nz\/events-types\/sanitation-and-waste","yp_url":"https:\/\/yellow.co.nz\/y\/hirepool-events-penrose?src=name","addrInfo":{"lat":-36.9125124,"lng":174.8214643,"street_number":"4","locality":"Auckland","administrative_area_level_1":"Auckland","country_code":"NZ","country":"New Zealand","postal_code":"1061","route":"4 Holloway Pl","formatted_address":"4 Holloway Pl, Penrose, Auckland 1061, New Zealand"}},{"business_url":"http:\/\/www.superloo.co.nz","yp_url":"https:\/\/yellow.co.nz\/y\/superloo-sanitation-turangi?src=name","addrInfo":{"lat":-37.699829,"lng":176.1482314,"street_number":"46","locality":"Tauranga","administrative_area_level_1":"Bay Of Plenty","country_code":"NZ","country":"New Zealand","postal_code":"3110","route":"46 Birch Ave","formatted_address":"46 Birch Ave, Judea, Tauranga 3110, New Zealand"}},{"business_url":"http:\/\/www.superloo.co.nz","yp_url":"https:\/\/yellow.co.nz\/y\/superloo-sanitation?src=name","addrInfo":{"lat":-36.9991679,"lng":174.8679902,"street_number":"115","locality":"Auckland","administrative_area_level_1":"Auckland","country_code":"NZ","country":"New Zealand","postal_code":"2104","route":"115 Plunket Ave","formatted_address":"115 Plunket Ave, Manukau, Auckland 2104, New Zealand"}},{"business_url":"http:\/\/www.rockup.co.nz","yp_url":"https:\/\/yellow.co.nz\/y\/rockup-wattie-road?src=name","addrInfo":{"lat":-37.0822985,"lng":175.0868537,"street_number":"35","locality":"Hunua","administrative_area_level_1":"Auckland","country_code":"NZ","country":"New Zealand","postal_code":"2583","route":"35 Wattie Rd","formatted_address":"3\/35 Wattie Rd, Hunua 2583, New Zealand"}},{"business_url":"http:\/\/www.tsh.co.nz","yp_url":"https:\/\/yellow.co.nz\/y\/tsh?src=name","addrInfo":{"lat":-39.0574322,"lng":174.083484,"street_number":"64","locality":"New Plymouth","administrative_area_level_1":"Taranaki","country_code":"NZ","country":"New Zealand","postal_code":"4310","route":"64 Eliot St","formatted_address":"64 Eliot St, New Plymouth 4310, New Zealand"}},{"business_url":"http:\/\/www.avenues.co.nz","yp_url":"https:\/\/yellow.co.nz\/y\/avenues-event-management-auckland?src=name","addrInfo":{"lat":-36.8483265,"lng":174.7665265,"street_number":"48","locality":"Auckland","administrative_area_level_1":"Auckland","country_code":"NZ","country":"New Zealand","postal_code":"1010","route":"48 High St","formatted_address":"5\/48 High St, Auckland, Auckland 1010, New Zealand"}},{"business_url":"http:\/\/www.partydirect.co.nz","yp_url":"https:\/\/yellow.co.nz\/y\/party-direct-ashfield-road?src=name","addrInfo":{"lat":-36.773553,"lng":174.7313166,"street_number":"15","locality":"Auckland","administrative_area_level_1":"Auckland","country_code":"NZ","country":"New Zealand","postal_code":"0627","route":"15 Ashfield Rd","formatted_address":"4\/15 Ashfield Rd, Wairau Valley, Auckland 0627, New Zealand"}},{"business_url":"http:\/\/www.taupohire.co.nz\/","yp_url":"https:\/\/yellow.co.nz\/y\/taupo-hire-taupo?src=name","addrInfo":{"lat":-38.6851654,"lng":176.1067769,"street_number":"108","locality":"Taupo","administrative_area_level_1":"Waikato","country_code":"NZ","country":"New Zealand","postal_code":"3330","route":"108 Miro St","formatted_address":"108 Miro St, Tauhara, Taupo 3330, New Zealand"}},{"business_url":"http:\/\/www.superloo.co.nz\/online\/portaloo_hire_auckland.csn","yp_url":"https:\/\/yellow.co.nz\/y\/super-loo-sanitation?src=name","addrInfo":{"lat":-36.9991679,"lng":174.8679902,"street_number":"115","locality":"Auckland","administrative_area_level_1":"Auckland","country_code":"NZ","country":"New Zealand","postal_code":"2104","route":"115 Plunket Ave","formatted_address":"115 Plunket Ave, Manukau, Auckland 2104, New Zealand"}},{"business_url":"http:\/\/www.orbitvideo.co.nz\/","yp_url":"https:\/\/yellow.co.nz\/y\/orbit-video-new?src=name","addrInfo":{"lat":-39.1081681,"lng":174.0634413,"street_number":"548","locality":"Hurworth","administrative_area_level_1":"Taranaki","country_code":"NZ","country":"New Zealand","postal_code":"4371","route":"548 Frankley Rd","formatted_address":"1\/548 Frankley Rd, Hurworth 4371, New Zealand"}},{"business_url":"http:\/\/www.flanshawroad.school.nz","yp_url":"https:\/\/yellow.co.nz\/y\/flanshaw-road-school?src=name","addrInfo":{"lat":-36.8610906,"lng":174.645069,"street_number":"51","locality":"Auckland","administrative_area_level_1":"Auckland","country_code":"NZ","country":"New Zealand","postal_code":"0610","route":"51 Flanshaw Rd","formatted_address":"51 Flanshaw Rd, Te Atatu South, Auckland 0610, New Zealand"}},{"business_url":"http:\/\/www.bbmc.co.nz","yp_url":"https:\/\/yellow.co.nz\/y\/browns-bay-marine?src=name","addrInfo":{"lat":-36.7133811,"lng":174.7488065,"street_number":"10","locality":"Auckland","administrative_area_level_1":"Auckland","country_code":"NZ","country":"New Zealand","postal_code":"0630","route":"10 Bay View Rd","formatted_address":"10 Bay View Rd, Browns Bay, Auckland 0630, New Zealand"}},{"business_url":"http:\/\/www.ellerslie.co.nz","yp_url":"https:\/\/yellow.co.nz\/y\/auckland-racing-club?src=name","addrInfo":{"lat":-36.8899392,"lng":174.8026889,"street_number":"80-100","locality":"Auckland","administrative_area_level_1":"Auckland","country_code":"NZ","country":"New Zealand","postal_code":"1051","route":"80-100 Ascot Ave","formatted_address":"80-100 Ascot Ave, Remuera, Auckland 1051, New Zealand"}},{"business_url":"http:\/\/homepages.slingshot.co.nz\/-bhbcc","yp_url":"https:\/\/yellow.co.nz\/y\/blockhouse-bay-community?src=name","addrInfo":{"lat":-36.9221553,"lng":174.7016593,"street_number":"524","locality":"Auckland","administrative_area_level_1":"Auckland","country_code":"NZ","country":"New Zealand","postal_code":"0600","route":"524 Blockhouse Bay Rd","formatted_address":"524 Blockhouse Bay Rd, Blockhouse Bay, Auckland 0600, New Zealand"}},{"business_url":"http:\/\/www.kumeuhire.co.nz","yp_url":"https:\/\/yellow.co.nz\/y\/kumeu-party-hire?src=name","addrInfo":{"lat":-36.7780357,"lng":174.5535912,"street_number":"4","locality":"Kumeu","administrative_area_level_1":"Auckland","country_code":"NZ","country":"New Zealand","postal_code":"0810","route":"4 Loft Pl","formatted_address":"4 Loft Pl, Kumeu 0810, New Zealand"}},{"business_url":"http:\/\/www.partydirect.co.nz","yp_url":"https:\/\/yellow.co.nz\/y\/party-direct-ashfield?src=name","addrInfo":{"lat":-36.773553,"lng":174.7313166,"street_number":"15","locality":"Auckland","administrative_area_level_1":"Auckland","country_code":"NZ","country":"New Zealand","postal_code":"0627","route":"15 Ashfield Rd","formatted_address":"4\/15 Ashfield Rd, Wairau Valley, Auckland 0627, New Zealand"}},{"business_url":"http:\/\/www.insphire.co.nz","yp_url":"https:\/\/yellow.co.nz\/y\/insphire?src=name","addrInfo":{"lat":-36.7424624,"lng":174.7225282,"street_number":"2","locality":"Auckland","administrative_area_level_1":"Auckland","country_code":"NZ","country":"New Zealand","postal_code":"0632","route":"2 Civil Pl","formatted_address":"2 Civil Pl, Rosedale, Auckland 0632, New Zealand"}},{"business_url":"http:\/\/www.mfrrefrigeration.co.nz","yp_url":"https:\/\/yellow.co.nz\/y\/u-chill-hire?src=name","addrInfo":{"lat":-38.0073831,"lng":175.33308,"street_number":"166","locality":"Te Awamutu","administrative_area_level_1":"Waikato","country_code":"NZ","country":"New Zealand","postal_code":"3800","route":"166 Cambridge Rd","formatted_address":"166 Cambridge Rd, Te Awamutu 3800, New Zealand"}},{"business_url":"http:\/\/www.hirequipevents.co.nz\/events-types\/sanitation-and-waste","yp_url":"https:\/\/yellow.co.nz\/y\/hirepool-events-portables-onehunga?src=name","addrInfo":{"lat":-36.9287434,"lng":174.8015375,"street_number":"71","locality":"Auckland","administrative_area_level_1":"Auckland","country_code":"NZ","country":"New Zealand","postal_code":"1061","route":"71 Captain Springs Rd","formatted_address":"71 Captain Springs Rd, Onehunga, Auckland 1061, New Zealand"}},{"business_url":"http:\/\/www.edwardsnz.co.nz","yp_url":"https:\/\/yellow.co.nz\/y\/edwards-sound-lighting-audio-visual?src=name","addrInfo":{"lat":-36.9100761,"lng":174.8062855,"street_number":"68","locality":"Auckland","administrative_area_level_1":"Auckland","country_code":"NZ","country":"New Zealand","postal_code":"1061","route":"68 Walls Rd","formatted_address":"68 Walls Rd, Penrose, Auckland 1061, New Zealand"}},{"business_url":"http:\/\/www.networkvisuals.co.nz","yp_url":"https:\/\/yellow.co.nz\/y\/network-visuals-quay?src=name","addrInfo":{"lat":-36.8545087,"lng":174.7336908,"street_number":"13","locality":"Auckland","administrative_area_level_1":"Auckland","country_code":"NZ","country":"New Zealand","postal_code":"1021","route":"13 Westmoreland St W","formatted_address":"13 Westmoreland St W, Grey Lynn, Auckland 1021, New Zealand"}},{"business_url":"http:\/\/www.royalweddings.co.nz","yp_url":"https:\/\/yellow.co.nz\/y\/royal-weddings?src=name","addrInfo":{"lat":-36.9875914,"lng":174.8676687,"street_number":"15","locality":"Auckland","administrative_area_level_1":"Auckland","country_code":"NZ","country":"New Zealand","postal_code":"2104","route":"15 Norman Spencer Dr","formatted_address":"15 Norman Spencer Dr, Papatoetoe, Auckland 2104, New Zealand"}},{"business_url":"http:\/\/www.stronglite.co.nz","yp_url":"https:\/\/yellow.co.nz\/y\/stronglite-staging-ngahinapouri?src=name","addrInfo":{"lat":-37.8732082,"lng":175.1714866,"street_number":"196","locality":"Ngahinapouri","administrative_area_level_1":"Waikato","country_code":"NZ","country":"New Zealand","postal_code":"3290","route":"196 Finlayson Rd","formatted_address":"2001\/196 Finlayson Rd, Ngahinapouri 3290, New Zealand"}},{"business_url":"http:\/\/www.superloo.co.nz","yp_url":"https:\/\/yellow.co.nz\/y\/super-loo-clean-onehunga?src=name","addrInfo":{"lat":-36.9303496,"lng":174.7866767,"street_number":"40","locality":"Auckland","administrative_area_level_1":"Auckland","country_code":"NZ","country":"New Zealand","postal_code":"1061","route":"40 Onehunga Mall","formatted_address":"40 Onehunga Mall, Onehunga, Auckland 1061, New Zealand"}},{"business_url":"http:\/\/www.showlight.co.nz","yp_url":"https:\/\/yellow.co.nz\/y\/show-light-power?src=name","addrInfo":{"lat":-36.8484079,"lng":174.6358851,"street_number":"40","locality":"Auckland","administrative_area_level_1":"Auckland","country_code":"NZ","country":"New Zealand","postal_code":"0610","route":"40 The Concourse","formatted_address":"40 The Concourse, Henderson, Auckland 0610, New Zealand"}},{"business_url":"http:\/\/www.sle.co.nz","yp_url":"https:\/\/yellow.co.nz\/y\/sle-productions?src=name","addrInfo":{"lat":-36.8530098,"lng":174.826299,"street_number":"91","locality":"Auckland","administrative_area_level_1":"Auckland","country_code":"NZ","country":"New Zealand","postal_code":"1071","route":"91 Rukutai St","formatted_address":"91 Rukutai St, Orakei, Auckland 1071, New Zealand"}},{"business_url":"http:\/\/www.carltonpartyhire.co.nz","yp_url":"https:\/\/yellow.co.nz\/y\/carlton-party-hire-frankton?src=name","addrInfo":{"lat":-37.7857867,"lng":175.2699349,"street_number":"6","locality":"Hamilton","administrative_area_level_1":"Waikato","country_code":"NZ","country":"New Zealand","postal_code":"3204","route":"6 King St","formatted_address":"6 King St, Frankton, Hamilton 3204, New Zealand"}},{"business_url":"http:\/\/www.maddisons.co.nz","yp_url":"https:\/\/yellow.co.nz\/y\/maddisons-party-hire-auckland?src=name","addrInfo":{"lat":-36.8460894,"lng":174.7711376,"street_number":"22","locality":"Auckland","administrative_area_level_1":"Auckland","country_code":"NZ","country":"New Zealand","postal_code":"1010","route":"22 Emily Pl","formatted_address":"22 Emily Pl, Auckland, Auckland 1010, New Zealand"}},{"business_url":"http:\/\/www.theproduction.co.nz","yp_url":"https:\/\/yellow.co.nz\/y\/production-co?src=name","addrInfo":{"lat":-36.8806305,"lng":174.6824364,"street_number":"30","locality":"Auckland","administrative_area_level_1":"Auckland","country_code":"NZ","country":"New Zealand","postal_code":"1026","route":"30 Copsey Pl","formatted_address":"1\/30 Copsey Pl, Avondale, Auckland 1026, New Zealand"}},{"business_url":"http:\/\/www.mfrrefrigeration.co.nz","yp_url":"https:\/\/yellow.co.nz\/y\/mfr-refrigeration-services?src=name","addrInfo":{"lat":-38.0073831,"lng":175.33308,"street_number":"166","locality":"Te Awamutu","administrative_area_level_1":"Waikato","country_code":"NZ","country":"New Zealand","postal_code":"3800","route":"166 Cambridge Rd","formatted_address":"166 Cambridge Rd, Te Awamutu 3800, New Zealand"}},{"business_url":"http:\/\/www.dynamicsav.co.nz","yp_url":"https:\/\/yellow.co.nz\/y\/dynamics-audio-visual?src=name","addrInfo":{"lat":-38.1522251,"lng":176.2612145,"street_number":"74","locality":"Rotorua","administrative_area_level_1":"Bay Of Plenty","country_code":"NZ","country":"New Zealand","postal_code":"3010","route":"74 White St","formatted_address":"74 White St, Fenton Park, Rotorua 3010, New Zealand"}},{"business_url":"http:\/\/www.outlet.co.nz","yp_url":"https:\/\/yellow.co.nz\/y\/outlet-productions?src=name","addrInfo":{"lat":-37.9531632,"lng":176.9961822,"street_number":"17","locality":"Whakatane","administrative_area_level_1":"Bay Of Plenty","country_code":"NZ","country":"New Zealand","postal_code":"3120","route":"17 Commerce St","formatted_address":"17 Commerce St, Whakatane 3120, New Zealand"}},{"business_url":"http:\/\/www.airtimerentals.co.nz\/","yp_url":"https:\/\/yellow.co.nz\/y\/airtime-plus-rentals-devon?src=name","addrInfo":{"lat":-37.7885538,"lng":175.2722739,"street_number":"25","locality":"Hamilton","administrative_area_level_1":"Waikato","country_code":"NZ","country":"New Zealand","postal_code":"3204","route":"25 Devon Rd","formatted_address":"25 Devon Rd, Frankton, Hamilton 3204, New Zealand"}},{"business_url":"http:\/\/avpeople.co.nz","yp_url":"https:\/\/yellow.co.nz\/y\/audio-visual-people?src=name","addrInfo":{"lat":-38.689096,"lng":176.1026853,"street_number":"53","locality":"Taupo","administrative_area_level_1":"Waikato","country_code":"NZ","country":"New Zealand","postal_code":"3330","route":"53 Matai St","formatted_address":"53 Matai St, Tauhara, Taupo 3330, New Zealand"}},{"business_url":"http:\/\/www.schupepetents.co.nz","yp_url":"https:\/\/yellow.co.nz\/y\/schupepe-stretch-tents-otahuhu?src=name","addrInfo":{"lat":-36.9487538,"lng":174.8317277,"street_number":"14","locality":"Auckland","administrative_area_level_1":"Auckland","country_code":"NZ","country":"New Zealand","postal_code":"2024","route":"14 Kahu St","formatted_address":"14 Kahu St, Otahuhu, Auckland 2024, New Zealand"}},{"business_url":"http:\/\/www.stagenz.co.nz","yp_url":"https:\/\/yellow.co.nz\/y\/stage-new-zealand?src=name","addrInfo":{"lat":-36.7802974,"lng":174.7443999,"street_number":"7","locality":"Auckland","administrative_area_level_1":"Auckland","country_code":"NZ","country":"New Zealand","postal_code":"0627","route":"7 Porana Rd","formatted_address":"7\/7 Porana Rd, Wairau Valley, Auckland 0627, New Zealand"}},{"business_url":"http:\/\/www.jewelcollections.co.nz","yp_url":"https:\/\/yellow.co.nz\/y\/jewel-collection-papatoetoe?src=name","addrInfo":{"lat":-36.9693966,"lng":174.8601558,"street_number":"159","locality":"Auckland","administrative_area_level_1":"Auckland","country_code":"NZ","country":"New Zealand","postal_code":"2025","route":"159 Great South Rd","formatted_address":"159 Great South Rd, Papatoetoe, Auckland 2025, New Zealand"}},{"business_url":"http:\/\/www.dobsons.co.nz","yp_url":"https:\/\/yellow.co.nz\/y\/dobsons-marquee-party?src=name","addrInfo":{"lat":-39.0425573,"lng":174.1282668,"street_number":"13","locality":"New Plymouth","administrative_area_level_1":"Taranaki","country_code":"NZ","country":"New Zealand","postal_code":"4312","route":"13 Oropuriri Rd","formatted_address":"13 Oropuriri Rd, Waiwhakaiho, New Plymouth 4312, New Zealand"}},{"business_url":"http:\/\/www.nzbacklinehire.com","yp_url":"https:\/\/yellow.co.nz\/y\/nz-backline-hire?src=name","addrInfo":{"lat":-36.8806272,"lng":174.6834904,"street_number":"25","locality":"Auckland","administrative_area_level_1":"Auckland","country_code":"NZ","country":"New Zealand","postal_code":"1026","route":"25 Copsey Pl","formatted_address":"25 Copsey Pl, Avondale, Auckland 1026, New Zealand"}},{"business_url":"http:\/\/www.franksmusicstudio.com","yp_url":"https:\/\/yellow.co.nz\/y\/franks-music-studio?src=name","addrInfo":{"lat":-36.8646225,"lng":174.6477124,"street_number":"243","locality":"Auckland","administrative_area_level_1":"Auckland","country_code":"NZ","country":"New Zealand","postal_code":"0610","route":"243 Te Atatu Rd","formatted_address":"243 Te Atatu Rd, Te Atatu South, Auckland 0610, New Zealand"}},{"business_url":"http:\/\/www.govettbrewster.com\/","yp_url":"https:\/\/yellow.co.nz\/y\/new-plymouth-district?src=name","addrInfo":{"lat":-39.0585349,"lng":174.0701352,"street_number":"42","locality":"New Plymouth","administrative_area_level_1":"Taranaki","country_code":"NZ","country":"New Zealand","postal_code":"4310","route":"42 Queen St","formatted_address":"42 Queen St, New Plymouth 4310, New Zealand"}},{"business_url":"http:\/\/www.hirepool.co.nz","yp_url":"https:\/\/yellow.co.nz\/y\/hirepool-holloway-2?src=name","addrInfo":{"lat":-36.9125124,"lng":174.8214643,"street_number":"4","locality":"Auckland","administrative_area_level_1":"Auckland","country_code":"NZ","country":"New Zealand","postal_code":"1061","route":"4 Holloway Pl","formatted_address":"4 Holloway Pl, Penrose, Auckland 1061, New Zealand"}},{"business_url":"http:\/\/www.hirepool.co.nz","yp_url":"https:\/\/yellow.co.nz\/y\/hirepool-vehicle-rentals-hirepool?src=name","addrInfo":{"lat":-36.9125124,"lng":174.8214643,"street_number":"4","locality":"Auckland","administrative_area_level_1":"Auckland","country_code":"NZ","country":"New Zealand","postal_code":"1061","route":"4 Holloway Pl","formatted_address":"4 Holloway Pl, Penrose, Auckland 1061, New Zealand"}}]