[{"business_url":"http:\/\/www.realkerikeri.co.nz","yp_url":"https:\/\/yellow.co.nz\/y\/real-property-kerikeri?src=name","addrInfo":{"lat":-35.2266702,"lng":173.9490708,"street_number":"92","locality":"Kerikeri","administrative_area_level_1":"Northland","country_code":"NZ","country":"New Zealand","postal_code":"0230","route":"92 Kerikeri Rd","formatted_address":"92 Kerikeri Rd, Kerikeri 0230, New Zealand"}},{"business_url":"http:\/\/www.theblueroom.tv","yp_url":"https:\/\/yellow.co.nz\/y\/blue-room-mangonui?src=name","addrInfo":{"lat":-34.9934789,"lng":173.5344981,"street_number":"60","locality":"Mangonui","administrative_area_level_1":"Northland","country_code":"NZ","country":"New Zealand","postal_code":"0420","route":"60 Waterfront Dr","formatted_address":"60 Waterfront Dr, Mangonui 0420, New Zealand"}},{"business_url":"http:\/\/www.uit.co.nz","yp_url":"https:\/\/yellow.co.nz\/y\/uit?src=name","addrInfo":{"lat":-35.7276447,"lng":174.3259773,"street_number":"9","locality":"Whangarei","administrative_area_level_1":"Northland","country_code":"NZ","country":"New Zealand","postal_code":"0110","route":"9 Reyburn St","formatted_address":"7\/9 Reyburn St, Whangarei, Whangarei 0110, New Zealand"}},{"business_url":"http:\/\/www.microcraft.co.nz","yp_url":"https:\/\/yellow.co.nz\/y\/microcraft-central?src=name","addrInfo":{"lat":-35.7336562,"lng":174.3066576,"street_number":"140","locality":"Whangarei","administrative_area_level_1":"Northland","country_code":"NZ","country":"New Zealand","postal_code":"0110","route":"140 Maunu Rd","formatted_address":"140 Maunu Rd, Woodhill, Whangarei 0110, New Zealand"}},{"business_url":"http:\/\/www.vipl.co.nz","yp_url":"https:\/\/yellow.co.nz\/y\/vip-northland-whangarei?src=name","addrInfo":{"lat":-35.7219505,"lng":174.3197925,"street_number":"113","locality":"Whangarei","administrative_area_level_1":"Northland","country_code":"NZ","country":"New Zealand","postal_code":"0110","route":"113 Bank St","formatted_address":"1\/113 Bank St, Whangarei, Whangarei 0110, New Zealand"}},{"business_url":"http:\/\/www.bigfishcreative.co.nz","yp_url":"https:\/\/yellow.co.nz\/y\/big-fish-creative?src=name","addrInfo":{"lat":-35.7181014,"lng":174.3229717,"street_number":"51A","locality":"Whangarei","administrative_area_level_1":"Northland","country_code":"NZ","country":"New Zealand","postal_code":"0112","route":"51A Norfolk St","formatted_address":"51A Norfolk St, Regent, Whangarei 0112, New Zealand"}},{"business_url":"http:\/\/www.janko.co.nz","yp_url":"https:\/\/yellow.co.nz\/y\/janko-computers?src=name","addrInfo":{"lat":-39.0554136,"lng":174.0826324,"street_number":"270","locality":"New Plymouth","administrative_area_level_1":"Taranaki","country_code":"NZ","country":"New Zealand","postal_code":"4310","route":"270 Devon St E","formatted_address":"270 Devon St E, New Plymouth 4310, New Zealand"}},{"business_url":"http:\/\/www.yosif.co.nz\/","yp_url":"https:\/\/yellow.co.nz\/y\/yosif-auckland?src=name","addrInfo":{"lat":-36.8504041,"lng":174.7601197,"street_number":"135","locality":"Auckland","administrative_area_level_1":"Auckland","country_code":"NZ","country":"New Zealand","postal_code":"1010","route":"135 Hobson St","formatted_address":"Imperial Gardens, 710\/135 Hobson St, Auckland, Auckland 1010, New Zealand"}},{"business_url":"http:\/\/www.speedster.co.nz","yp_url":"https:\/\/yellow.co.nz\/y\/speedster-new?src=name","addrInfo":{"lat":-39.060871,"lng":174.0638062,"street_number":"256","locality":"New Plymouth","administrative_area_level_1":"Taranaki","country_code":"NZ","country":"New Zealand","postal_code":"4310","route":"256 Devon St W","formatted_address":"256 Devon St W, New Plymouth 4310, New Zealand"}},{"business_url":"http:\/\/castleford.com.au","yp_url":"https:\/\/yellow.co.nz\/y\/castleford-media-auckland-central?src=name","addrInfo":{"lat":-36.8485769,"lng":174.7646859,"street_number":"19","locality":"Auckland","administrative_area_level_1":"Auckland","country_code":"NZ","country":"New Zealand","postal_code":"1010","route":"19 Victoria St W","formatted_address":"19 Victoria St W, Auckland, Auckland 1010, New Zealand"}},{"business_url":"http:\/\/www.reloadmedia.co.nz","yp_url":"https:\/\/yellow.co.nz\/y\/reload-media?src=name","addrInfo":{"lat":-36.8500523,"lng":174.7747963,"street_number":"158","locality":"Auckland","administrative_area_level_1":"Auckland","country_code":"NZ","country":"New Zealand","postal_code":"1010","route":"158 Beach Rd","formatted_address":"158 Beach Rd, Auckland, Auckland 1010, New Zealand"}},{"business_url":"http:\/\/www.emagic.co.nz","yp_url":"https:\/\/yellow.co.nz\/y\/emagic-kingsland?src=name","addrInfo":{"lat":-36.8516179,"lng":174.7822855,"street_number":"17B","locality":"Auckland","administrative_area_level_1":"Auckland","country_code":"NZ","country":"New Zealand","postal_code":"1052","route":"17B Farnham St","formatted_address":"17B Farnham St, Parnell, Auckland 1052, New Zealand"}},{"business_url":"http:\/\/www.phocal.co.nz","yp_url":"https:\/\/yellow.co.nz\/y\/phocal-communications-rotorua?src=name","addrInfo":{"lat":-38.1420371,"lng":176.2460939,"street_number":"12","locality":"Rotorua","administrative_area_level_1":"Bay Of Plenty","country_code":"NZ","country":"New Zealand","postal_code":"3010","route":"12 King St","formatted_address":"12 King St, Victoria, Rotorua 3010, New Zealand"}},{"business_url":"http:\/\/www.bellsandwhistles.co.nz","yp_url":"https:\/\/yellow.co.nz\/y\/write-ahead?src=name","addrInfo":{"lat":-37.6461946,"lng":176.1955533,"street_number":"104","locality":"Tauranga","administrative_area_level_1":"Bay Of Plenty","country_code":"NZ","country":"New Zealand","postal_code":"3116","route":"104 Muricata Ave","formatted_address":"104 Muricata Ave, Mount Maunganui, Tauranga 3116, New Zealand"}},{"business_url":"http:\/\/www.netcare.co.nz","yp_url":"https:\/\/yellow.co.nz\/y\/netcare?src=name","addrInfo":{"lat":-37.2518128,"lng":174.728454,"street_number":"15","locality":"Waiuku","administrative_area_level_1":"Auckland","country_code":"NZ","country":"New Zealand","postal_code":"2123","route":"15 Martyn St","formatted_address":"15 Martyn St, Waiuku 2123, New Zealand"}},{"business_url":"http:\/\/www.itco.co.nz","yp_url":"https:\/\/yellow.co.nz\/y\/itco?src=name","addrInfo":{"lat":-38.1333365,"lng":176.2926748,"street_number":"283","locality":"Rotorua","administrative_area_level_1":"Bay Of Plenty","country_code":"NZ","country":"New Zealand","postal_code":"3010","route":"283 Vaughan Rd","formatted_address":"283 Vaughan Rd, Owhata, Rotorua 3010, New Zealand"}},{"business_url":"http:\/\/www.computerwareplus.co.nz","yp_url":"https:\/\/yellow.co.nz\/y\/computerware-plus-mount?src=name","addrInfo":{"lat":-36.9252774,"lng":174.8363682,"street_number":"26","locality":"Auckland","administrative_area_level_1":"Auckland","country_code":"NZ","country":"New Zealand","postal_code":"1060","route":"26 Vestey Dr","formatted_address":"30\/26 Vestey Dr, Mount Wellington, Auckland 1060, New Zealand"}},{"business_url":"http:\/\/www.kleinstar.co.nz","yp_url":"https:\/\/yellow.co.nz\/y\/kleinstar-holdings?src=name","addrInfo":{"lat":-36.853412,"lng":174.7776138,"street_number":"14","locality":"Auckland","administrative_area_level_1":"Auckland","country_code":"NZ","country":"New Zealand","postal_code":"1052","route":"14 Heather St","formatted_address":"14 Heather St, Parnell, Auckland 1052, New Zealand"}},{"business_url":"http:\/\/www.wifiweb.co.nz","yp_url":"https:\/\/yellow.co.nz\/y\/wifiweb-websites-made?src=name","addrInfo":{"lat":-36.7182333,"lng":174.7192306,"street_number":"41","locality":"Auckland","administrative_area_level_1":"Auckland","country_code":"NZ","country":"New Zealand","postal_code":"0632","route":"41 Sonoma Cres","formatted_address":"41 Sonoma Cres, Oteha, Auckland 0632, New Zealand"}},{"business_url":"http:\/\/www.123online.co.nz","yp_url":"https:\/\/yellow.co.nz\/y\/u-turn-internet?src=name","addrInfo":{"lat":-36.8056176,"lng":174.7171775,"street_number":"17","locality":"Auckland","administrative_area_level_1":"Auckland","country_code":"NZ","country":"New Zealand","postal_code":"0626","route":"17 Vienna Pl","formatted_address":"17 Vienna Pl, Birkenhead, Auckland 0626, New Zealand"}},{"business_url":"http:\/\/www.kissit.co.nz","yp_url":"https:\/\/yellow.co.nz\/y\/kiss-it?src=name","addrInfo":{"lat":-37.6575351,"lng":176.1977546,"street_number":"23","locality":"Tauranga","administrative_area_level_1":"Bay Of Plenty","country_code":"NZ","country":"New Zealand","postal_code":"3116","route":"23 Tukorako Dr","formatted_address":"15\/23 Tukorako Dr, Mount Maunganui, Tauranga 3116, New Zealand"}},{"business_url":"http:\/\/www.cll.co.nz","yp_url":"https:\/\/yellow.co.nz\/y\/smartit-management?src=name","addrInfo":{"lat":-36.7473468,"lng":174.699357,"street_number":"31","locality":"Auckland","administrative_area_level_1":"Auckland","country_code":"NZ","country":"New Zealand","postal_code":"0632","route":"31 William Pickering Dr","formatted_address":"31 William Pickering Dr, Rosedale, Auckland 0632, New Zealand"}},{"business_url":"http:\/\/www.itassurance.co.nz","yp_url":"https:\/\/yellow.co.nz\/y\/sentinel-technologies?src=name","addrInfo":{"lat":-36.7423713,"lng":174.729178,"street_number":"59","locality":"Auckland","administrative_area_level_1":"Auckland","country_code":"NZ","country":"New Zealand","postal_code":"0632","route":"59 Apollo Dr","formatted_address":"3\/59 Apollo Dr, Rosedale, Auckland 0632, New Zealand"}},{"business_url":"http:\/\/www.itiq.co.nz","yp_url":"https:\/\/yellow.co.nz\/y\/it-iq?src=name","addrInfo":{"lat":-36.7722763,"lng":174.5461869,"street_number":"322","locality":"Kumeu","administrative_area_level_1":"Auckland","country_code":"NZ","country":"New Zealand","postal_code":"0810","route":"322 Main Rd","formatted_address":"322 Main Rd, Huapai, Kumeu 0810, New Zealand"}},{"business_url":"http:\/\/www.analogueltd.com","yp_url":"https:\/\/yellow.co.nz\/y\/analogue?src=name","addrInfo":{"lat":-36.8491761,"lng":174.750828,"street_number":"40","locality":"Auckland","administrative_area_level_1":"Auckland","country_code":"NZ","country":"New Zealand","postal_code":"1011","route":"40 Ireland St","formatted_address":"40 Ireland St, Freemans Bay, Auckland 1011, New Zealand"}},{"business_url":"http:\/\/www.integratorz.com","yp_url":"https:\/\/yellow.co.nz\/y\/integratorz?src=name","addrInfo":{"lat":-36.8817342,"lng":174.7634323,"street_number":"7","locality":"Auckland","administrative_area_level_1":"Auckland","country_code":"NZ","country":"New Zealand","postal_code":"1024","route":"7 Stokes Rd","formatted_address":"7 Stokes Rd, Mount Eden, Auckland 1024, New Zealand"}},{"business_url":"http:\/\/www.focusonfundraising.co.nz","yp_url":"https:\/\/yellow.co.nz\/y\/focus-on-fundraising?src=name","addrInfo":{"lat":-36.8623233,"lng":174.7601632,"street_number":"19","locality":"Auckland","administrative_area_level_1":"Auckland","country_code":"NZ","country":"New Zealand","postal_code":"1010","route":"19 St Benedicts St","formatted_address":"19 St Benedicts St, Eden Terrace, Auckland 1010, New Zealand"}},{"business_url":"http:\/\/www.positiveit.co.nz","yp_url":"https:\/\/yellow.co.nz\/y\/positive-it?src=name","addrInfo":{"lat":-36.9916866,"lng":174.9015286,"street_number":"31","locality":"Auckland","administrative_area_level_1":"Auckland","country_code":"NZ","country":"New Zealand","postal_code":"2105","route":"31 Goodwood Dr","formatted_address":"31 Goodwood Dr, Goodwood Heights, Auckland 2105, New Zealand"}},{"business_url":"http:\/\/www.unicorn.co.nz","yp_url":"https:\/\/yellow.co.nz\/y\/unicorn-consulting?src=name","addrInfo":{"lat":-37.8857333,"lng":176.2631372,"street_number":"27","locality":"Te Ranga","administrative_area_level_1":"Bay Of Plenty","country_code":"NZ","country":"New Zealand","postal_code":"3182","route":"27 Shaw Rd","formatted_address":"27 Shaw Rd, Te Ranga 3182, New Zealand"}},{"business_url":"http:\/\/www.thinkit.co.nz","yp_url":"https:\/\/yellow.co.nz\/y\/think-it?src=name","addrInfo":{"lat":-36.9252744,"lng":174.8034469,"street_number":"270","locality":"Auckland","administrative_area_level_1":"Auckland","country_code":"NZ","country":"New Zealand","postal_code":"1061","route":"270 Neilson St","formatted_address":"270 Neilson St, Onehunga, Auckland 1061, New Zealand"}},{"business_url":"http:\/\/www.atlantech.co.nz","yp_url":"https:\/\/yellow.co.nz\/y\/atlantech?src=name","addrInfo":{"lat":-36.8547899,"lng":174.7609104,"street_number":"78","locality":"Auckland","administrative_area_level_1":"Auckland","country_code":"NZ","country":"New Zealand","postal_code":"1010","route":"78 Greys Ave","formatted_address":"4\/78 Greys Ave, Auckland, Auckland 1010, New Zealand"}},{"business_url":"http:\/\/www.staplesrodway.com","yp_url":"https:\/\/yellow.co.nz\/y\/staples-rodway-taranaki-new?src=name","addrInfo":{"lat":-39.0601031,"lng":174.069719,"street_number":"113","locality":"New Plymouth","administrative_area_level_1":"Taranaki","country_code":"NZ","country":"New Zealand","postal_code":"4310","route":"113 Powderham St","formatted_address":"109\/113 Powderham St, New Plymouth 4310, New Zealand"}},{"business_url":"http:\/\/www.xympl.co.nz","yp_url":"https:\/\/yellow.co.nz\/y\/xympl?src=name","addrInfo":{"lat":-39.0830178,"lng":174.0447353,"street_number":"99","locality":"New Plymouth","administrative_area_level_1":"Taranaki","country_code":"NZ","country":"New Zealand","postal_code":"4310","route":"99 Poplar Grove","formatted_address":"99 Poplar Grove, Whalers Gate, New Plymouth 4310, New Zealand"}},{"business_url":"http:\/\/www.nzcs.co.nz","yp_url":"https:\/\/yellow.co.nz\/y\/new-zealand-computing?src=name","addrInfo":{"lat":-39.0564079,"lng":174.0669945,"street_number":"1","locality":"New Plymouth","administrative_area_level_1":"Taranaki","country_code":"NZ","country":"New Zealand","postal_code":"4310","route":"1 Dawson St","formatted_address":"1 Dawson St, New Plymouth 4310, New Zealand"}},{"business_url":"http:\/\/www.smx.co.nz","yp_url":"https:\/\/yellow.co.nz\/y\/smx?src=name","addrInfo":{"lat":-36.8485769,"lng":174.7646859,"street_number":"19","locality":"Auckland","administrative_area_level_1":"Auckland","country_code":"NZ","country":"New Zealand","postal_code":"1010","route":"19 Victoria St W","formatted_address":"19 Victoria St W, Auckland, Auckland 1010, New Zealand"}},{"business_url":"http:\/\/www.digito.co.nz","yp_url":"https:\/\/yellow.co.nz\/y\/digito-it-solutions-flat?src=name","addrInfo":{"lat":-36.961348,"lng":174.9212533,"street_number":"4","locality":"Auckland","administrative_area_level_1":"Auckland","country_code":"NZ","country":"New Zealand","postal_code":"2016","route":"4 Darion Dr","formatted_address":"4 Darion Dr, Flat Bush, Auckland 2016, New Zealand"}},{"business_url":"http:\/\/www.cpcs.co.nz","yp_url":"https:\/\/yellow.co.nz\/y\/complete-pc-solutions?src=name","addrInfo":{"lat":-36.9131987,"lng":174.8097375,"street_number":"4","locality":"Auckland","administrative_area_level_1":"Auckland","country_code":"NZ","country":"New Zealand","postal_code":"1061","route":"4 Fairfax Ave","formatted_address":"4 Fairfax Ave, Penrose, Auckland 1061, New Zealand"}},{"business_url":"http:\/\/www.oss.co.nz","yp_url":"https:\/\/yellow.co.nz\/y\/open-systems-specialists?src=name","addrInfo":{"lat":-36.8639018,"lng":174.7645175,"street_number":"162","locality":"Auckland","administrative_area_level_1":"Auckland","country_code":"NZ","country":"New Zealand","postal_code":"1010","route":"162 Grafton Rd","formatted_address":"162 Grafton Rd, Grafton, Auckland 1010, New Zealand"}},{"business_url":"http:\/\/www.optimalusability.com","yp_url":"https:\/\/yellow.co.nz\/y\/optimal-usability?src=name","addrInfo":{"lat":-36.8466646,"lng":174.7596382,"street_number":"21","locality":"Auckland","administrative_area_level_1":"Auckland","country_code":"NZ","country":"New Zealand","postal_code":"1010","route":"21 Graham St","formatted_address":"21 Graham St, Auckland, Auckland 1010, New Zealand"}},{"business_url":"http:\/\/slipstream.co.nz","yp_url":"https:\/\/yellow.co.nz\/y\/slipstream-media?src=name","addrInfo":{"lat":-36.9196846,"lng":174.6584149,"street_number":"64A","locality":"Auckland","administrative_area_level_1":"Auckland","country_code":"NZ","country":"New Zealand","postal_code":"0602","route":"64A Pleasant Rd","formatted_address":"64A Pleasant Rd, Glen Eden, Auckland 0602, New Zealand"}},{"business_url":"http:\/\/www.firestar.co.nz","yp_url":"https:\/\/yellow.co.nz\/y\/firestar-connect?src=name","addrInfo":{"lat":-36.9301691,"lng":174.8861402,"street_number":"45","locality":"Auckland","administrative_area_level_1":"Auckland","country_code":"NZ","country":"New Zealand","postal_code":"2013","route":"45 Stonedon Dr","formatted_address":"45 Stonedon Dr, East Tamaki, Auckland 2013, New Zealand"}},{"business_url":"http:\/\/www.budgetmobiles.co.nz","yp_url":"https:\/\/yellow.co.nz\/y\/budget-mobiles-tauranga?src=name","addrInfo":{"lat":-37.6862935,"lng":176.1678352,"street_number":"89","locality":"Tauranga","administrative_area_level_1":"Bay Of Plenty","country_code":"NZ","country":"New Zealand","postal_code":"3110","route":"89 Grey St","formatted_address":"89 Grey St, Tauranga, Tauranga 3110, New Zealand"}},{"business_url":"http:\/\/www.alexisit.co.nz\/services.html","yp_url":"https:\/\/yellow.co.nz\/y\/alexis-infotech-management-hamilton?src=name","addrInfo":{"lat":-37.7885756,"lng":175.2688019,"street_number":"34A-34D","locality":"Hamilton","administrative_area_level_1":"Waikato","country_code":"NZ","country":"New Zealand","postal_code":"3204","route":"34A-34D Somerset St","formatted_address":"34A-34D Somerset St, Frankton, Hamilton 3204, New Zealand"}},{"business_url":"http:\/\/www.e-bls.com","yp_url":"https:\/\/yellow.co.nz\/y\/e-blended-learning-solutions?src=name","addrInfo":{"lat":-39.0557193,"lng":174.0820784,"street_number":"250","locality":"New Plymouth","administrative_area_level_1":"Taranaki","country_code":"NZ","country":"New Zealand","postal_code":"4310","route":"250 Devon St E","formatted_address":"250 Devon St E, New Plymouth 4310, New Zealand"}},{"business_url":"http:\/\/www.theta.co.nz","yp_url":"https:\/\/yellow.co.nz\/y\/theta-systems?src=name","addrInfo":{"lat":-36.8572325,"lng":174.7585896,"street_number":"8-10","locality":"Auckland","administrative_area_level_1":"Auckland","country_code":"NZ","country":"New Zealand","postal_code":"1010","route":"8-10 Beresford Square","formatted_address":"8-10 Beresford Square, Auckland, Auckland 1010, New Zealand"}},{"business_url":"http:\/\/www.istari.co.nz","yp_url":"https:\/\/yellow.co.nz\/y\/istari-systems?src=name","addrInfo":{"lat":-36.8958504,"lng":174.7408988,"street_number":"26","locality":"Auckland","administrative_area_level_1":"Auckland","country_code":"NZ","country":"New Zealand","postal_code":"1041","route":"26 Invermay Ave","formatted_address":"26 Invermay Ave, Mount Roskill, Auckland 1041, New Zealand"}},{"business_url":"http:\/\/www.computersense.co.nz","yp_url":"https:\/\/yellow.co.nz\/y\/computer-sense?src=name","addrInfo":{"lat":-39.0772651,"lng":174.071149,"street_number":"6","locality":"New Plymouth","administrative_area_level_1":"Taranaki","country_code":"NZ","country":"New Zealand","postal_code":"4310","route":"6 Tothill St","formatted_address":"6 Tothill St, Frankleigh Park, New Plymouth 4310, New Zealand"}},{"business_url":"http:\/\/www.pchardware.co.nz","yp_url":"https:\/\/yellow.co.nz\/y\/pc-hardware?src=name","addrInfo":{"lat":-37.8066526,"lng":175.2642187,"street_number":"237B","locality":"Hamilton","administrative_area_level_1":"Waikato","country_code":"NZ","country":"New Zealand","postal_code":"3204","route":"237B Kahikatea Dr","formatted_address":"237B Kahikatea Dr, Frankton, Hamilton 3204, New Zealand"}},{"business_url":"http:\/\/www.icascade.co.nz","yp_url":"https:\/\/yellow.co.nz\/y\/cascade-computer-solutions?src=name","addrInfo":{"lat":-37.8020513,"lng":175.2981721,"street_number":"38A","locality":"Hamilton","administrative_area_level_1":"Waikato","country_code":"NZ","country":"New Zealand","postal_code":"3216","route":"38A Brookfield St","formatted_address":"38A Brookfield St, Hamilton East, Hamilton 3216, New Zealand"}},{"business_url":"http:\/\/www.distribly.com","yp_url":"https:\/\/yellow.co.nz\/y\/distribly?src=name","addrInfo":{"lat":-36.4090528,"lng":174.6545286,"street_number":"24","locality":"Warkworth","administrative_area_level_1":"Auckland","country_code":"NZ","country":"New Zealand","postal_code":"0910","route":"24 Glenmore Dr","formatted_address":"24 Glenmore Dr, Warkworth 0910, New Zealand"}},{"business_url":"http:\/\/adsimplicity.net","yp_url":"https:\/\/yellow.co.nz\/y\/ad-simplicity?src=name","addrInfo":{"lat":-36.8763726,"lng":174.7481288,"street_number":"43","locality":"Auckland","administrative_area_level_1":"Auckland","country_code":"NZ","country":"New Zealand","postal_code":"1024","route":"43 Marlborough St","formatted_address":"43 Marlborough St, Mount Eden, Auckland 1024, New Zealand"}},{"business_url":"http:\/\/www.silverlinemedia.tv","yp_url":"https:\/\/yellow.co.nz\/y\/silverlinemediatv?src=name","addrInfo":{"lat":-36.845462,"lng":174.7373192,"street_number":"160","locality":"Auckland","administrative_area_level_1":"Auckland","country_code":"NZ","country":"New Zealand","postal_code":"1011","route":"160 Jervois Rd","formatted_address":"160 Jervois Rd, Herne Bay, Auckland 1011, New Zealand"}},{"business_url":"http:\/\/www.selectit.co.nz","yp_url":"https:\/\/yellow.co.nz\/y\/select-it?src=name","addrInfo":{"lat":-36.8813027,"lng":174.7988963,"street_number":"415","locality":"Auckland","administrative_area_level_1":"Auckland","country_code":"NZ","country":"New Zealand","postal_code":"1050","route":"415 Remuera Rd","formatted_address":"415 Remuera Rd, Remuera, Auckland 1050, New Zealand"}},{"business_url":"http:\/\/www.crossware.co.nz","yp_url":"https:\/\/yellow.co.nz\/y\/crossware?src=name","addrInfo":{"lat":-36.8503003,"lng":174.7814166,"street_number":"125","locality":"Auckland","administrative_area_level_1":"Auckland","country_code":"NZ","country":"New Zealand","postal_code":"1010","route":"125 The Strand","formatted_address":"125 The Strand, Parnell, Auckland 1010, New Zealand"}},{"business_url":"http:\/\/www.m86security.com","yp_url":"https:\/\/yellow.co.nz\/y\/m86-security?src=name","addrInfo":{"lat":-36.8969966,"lng":174.802435,"street_number":"600","locality":"Auckland","administrative_area_level_1":"Auckland","country_code":"NZ","country":"New Zealand","postal_code":"1051","route":"600 Great South Rd","formatted_address":"600 Great South Rd, Ellerslie, Auckland 1051, New Zealand"}},{"business_url":"http:\/\/www.designertech.co.nz","yp_url":"https:\/\/yellow.co.nz\/y\/designer-technology?src=name","addrInfo":{"lat":-36.9017691,"lng":174.807087,"street_number":"666","locality":"Auckland","administrative_area_level_1":"Auckland","country_code":"NZ","country":"New Zealand","postal_code":"1061","route":"666 Great South Rd","formatted_address":"10\/666 Great South Rd, Penrose, Auckland 1061, New Zealand"}},{"business_url":"http:\/\/www.taurangacomputers.co.nz","yp_url":"https:\/\/yellow.co.nz\/y\/tauranga-computers?src=name","addrInfo":{"lat":-37.6974873,"lng":176.1578505,"street_number":"177","locality":"Tauranga","administrative_area_level_1":"Bay Of Plenty","country_code":"NZ","country":"New Zealand","postal_code":"3110","route":"177 Eleventh Ave","formatted_address":"177 Eleventh Ave, Tauranga, Tauranga 3110, New Zealand"}},{"business_url":"http:\/\/outloud.digital","yp_url":"https:\/\/yellow.co.nz\/y\/out-loud-digital?src=name","addrInfo":{"lat":-36.8457942,"lng":174.7715479,"street_number":"1","locality":"Auckland","administrative_area_level_1":"Auckland","country_code":"NZ","country":"New Zealand","postal_code":"1010","route":"1 Anzac Ave","formatted_address":"1 Anzac Ave, Auckland, Auckland 1010, New Zealand"}},{"business_url":"http:\/\/aardvarkworks.com\/","yp_url":"https:\/\/yellow.co.nz\/y\/aardvark-works?src=name","addrInfo":{"lat":-39.0677809,"lng":174.0577436,"street_number":"48","locality":"New Plymouth","administrative_area_level_1":"Taranaki","country_code":"NZ","country":"New Zealand","postal_code":"4310","route":"48 Dorset Ave","formatted_address":"48 Dorset Ave, Westown, New Plymouth 4310, New Zealand"}},{"business_url":"http:\/\/www.media24-7.nz\/","yp_url":"https:\/\/yellow.co.nz\/y\/media24-7?src=name","addrInfo":{"lat":-37.742167,"lng":176.1016989,"street_number":"58","locality":"Tauranga","administrative_area_level_1":"Bay Of Plenty","country_code":"NZ","country":"New Zealand","postal_code":"3171","route":"58 Taurikura Dr","formatted_address":"58 Taurikura Dr, Tauriko, Tauranga 3171, New Zealand"}},{"business_url":"http:\/\/www.onlineexpression.co.nz","yp_url":"https:\/\/yellow.co.nz\/y\/online-expression?src=name","addrInfo":{"lat":-36.8409027,"lng":174.6461874,"street_number":"71","locality":"Auckland","administrative_area_level_1":"Auckland","country_code":"NZ","country":"New Zealand","postal_code":"0610","route":"71 Neil Ave","formatted_address":"71 Neil Ave, Te Atatu Peninsula, Auckland 0610, New Zealand"}},{"business_url":"http:\/\/www.lochoresbodycorp.co.nz","yp_url":"https:\/\/yellow.co.nz\/y\/professional-lochores-real-estate?src=name","addrInfo":{"lat":-36.8118534,"lng":174.7216711,"street_number":"100","locality":"Auckland","administrative_area_level_1":"Auckland","country_code":"NZ","country":"New Zealand","postal_code":"0626","route":"100 Mokoia Rd","formatted_address":"100 Mokoia Rd, Birkenhead, Auckland 0626, New Zealand"}},{"business_url":"http:\/\/www.andsomeideas.com","yp_url":"https:\/\/yellow.co.nz\/y\/some?src=name","addrInfo":{"lat":-36.881859,"lng":174.7287567,"street_number":"19","locality":"Auckland","administrative_area_level_1":"Auckland","country_code":"NZ","country":"New Zealand","postal_code":"1025","route":"19 Lyon Ave","formatted_address":"19 Lyon Ave, Mount Albert, Auckland 1025, New Zealand"}},{"business_url":"http:\/\/www.tsbrealty.co.nz","yp_url":"https:\/\/yellow.co.nz\/y\/tsb-realty-licensed-reaa?src=name","addrInfo":{"lat":-39.0568121,"lng":174.0780562,"street_number":"120","locality":"New Plymouth","administrative_area_level_1":"Taranaki","country_code":"NZ","country":"New Zealand","postal_code":"4310","route":"120 Devon St E","formatted_address":"120 Devon St E, New Plymouth 4310, New Zealand"}}]