[{"business_url":"http:\/\/www.realkerikeri.co.nz","yp_url":"https:\/\/yellow.co.nz\/y\/real-property-kerikeri?src=name","addrInfo":{"lat":-35.2266702,"lng":173.9490708,"street_number":"92","locality":"Kerikeri","administrative_area_level_1":"Northland","country_code":"NZ","country":"New Zealand","postal_code":"0230","route":"92 Kerikeri Rd","formatted_address":"92 Kerikeri Rd, Kerikeri 0230, New Zealand"}},{"business_url":"http:\/\/www.theblueroom.tv","yp_url":"https:\/\/yellow.co.nz\/y\/blue-room-mangonui?src=name","addrInfo":{"lat":-34.9934789,"lng":173.5344981,"street_number":"60","locality":"Mangonui","administrative_area_level_1":"Northland","country_code":"NZ","country":"New Zealand","postal_code":"0420","route":"60 Waterfront Dr","formatted_address":"60 Waterfront Dr, Mangonui 0420, New Zealand"}},{"business_url":"http:\/\/www.uit.co.nz","yp_url":"https:\/\/yellow.co.nz\/y\/uit?src=name","addrInfo":{"lat":-35.7276447,"lng":174.3259773,"street_number":"9","locality":"Whangarei","administrative_area_level_1":"Northland","country_code":"NZ","country":"New Zealand","postal_code":"0110","route":"9 Reyburn St","formatted_address":"7\/9 Reyburn St, Whangarei, Whangarei 0110, New Zealand"}},{"business_url":"http:\/\/www.microcraft.co.nz","yp_url":"https:\/\/yellow.co.nz\/y\/microcraft-central?src=name","addrInfo":{"lat":-35.7336562,"lng":174.3066576,"street_number":"140","locality":"Whangarei","administrative_area_level_1":"Northland","country_code":"NZ","country":"New Zealand","postal_code":"0110","route":"140 Maunu Rd","formatted_address":"140 Maunu Rd, Woodhill, Whangarei 0110, New Zealand"}},{"business_url":"http:\/\/www.vipl.co.nz","yp_url":"https:\/\/yellow.co.nz\/y\/vip-northland-whangarei?src=name","addrInfo":{"lat":-35.7219505,"lng":174.3197925,"street_number":"113","locality":"Whangarei","administrative_area_level_1":"Northland","country_code":"NZ","country":"New Zealand","postal_code":"0110","route":"113 Bank St","formatted_address":"1\/113 Bank St, Whangarei, Whangarei 0110, New Zealand"}},{"business_url":"http:\/\/www.bigfishcreative.co.nz","yp_url":"https:\/\/yellow.co.nz\/y\/big-fish-creative?src=name","addrInfo":{"lat":-35.7181014,"lng":174.3229717,"street_number":"51A","locality":"Whangarei","administrative_area_level_1":"Northland","country_code":"NZ","country":"New Zealand","postal_code":"0112","route":"51A Norfolk St","formatted_address":"51A Norfolk St, Regent, Whangarei 0112, New Zealand"}}]