[{"business_url":"http:\/\/www.theclareinn.com","yp_url":"https:\/\/yellow.co.nz\/y\/clare-inn-irish?src=name","addrInfo":{"lat":-36.8771468,"lng":174.7509048,"street_number":"278","locality":"Auckland","administrative_area_level_1":"Auckland","country_code":"NZ","country":"New Zealand","postal_code":"1024","route":"278 Dominion Rd","formatted_address":"274\/278 Dominion Rd, Mount Eden, Auckland 1024, New Zealand"}},{"business_url":"http:\/\/www.shenanigansirishpub.co.nz","yp_url":"https:\/\/yellow.co.nz\/y\/shenanigans-irish-pub?src=name","addrInfo":{"lat":-37.7898544,"lng":175.2848706,"street_number":"127","locality":"Hamilton","administrative_area_level_1":"Waikato","country_code":"NZ","country":"New Zealand","postal_code":"3204","route":"127 Victoria St","formatted_address":"127 Victoria St, Hamilton 3204, New Zealand"}},{"business_url":"http:\/\/www.belgianbeercafetakapuna.co.nz","yp_url":"https:\/\/yellow.co.nz\/y\/florrie-mcgreals-irish?src=name","addrInfo":{"lat":-36.8624953,"lng":174.7601101,"street_number":"23","locality":"Auckland","administrative_area_level_1":"Auckland","country_code":"NZ","country":"New Zealand","postal_code":"1010","route":"23 St Benedicts St","formatted_address":"23 St Benedicts St, Eden Terrace, Auckland 1010, New Zealand"}},{"business_url":"http:\/\/circuit_nz@slingshot.co.nz","yp_url":"https:\/\/yellow.co.nz\/y\/live-circuit-entertainment-westown?src=name","addrInfo":{"lat":-39.0815928,"lng":174.0511076,"street_number":"224","locality":"New Plymouth","administrative_area_level_1":"Taranaki","country_code":"NZ","country":"New Zealand","postal_code":"4310","route":"224 Tukapa St","formatted_address":"224 Tukapa St, Westown, New Plymouth 4310, New Zealand"}},{"business_url":"http:\/\/www.hennessys.co.nz\/irish-bar.htm","yp_url":"https:\/\/yellow.co.nz\/y\/hennessys-irish-bar?src=name","addrInfo":{"lat":-38.1365523,"lng":176.2515181,"street_number":"1210","locality":"Rotorua","administrative_area_level_1":"Bay Of Plenty","country_code":"NZ","country":"New Zealand","postal_code":"3010","route":"1210 Tutanekai St","formatted_address":"1210 Tutanekai St, Rotorua 3010, New Zealand"}},{"business_url":"http:\/\/www.waxys.co.nz","yp_url":"https:\/\/yellow.co.nz\/y\/waxy-osheas-irish?src=name","addrInfo":{"lat":-46.4101752,"lng":168.3470448,"street_number":"90","locality":"Invercargill","administrative_area_level_1":"Southland","country_code":"NZ","country":"New Zealand","postal_code":"9810","route":"90 Dee St","formatted_address":"90 Dee St, Invercargill, Invercargill 9810, New Zealand"}},{"business_url":"http:\/\/thecraic.co.nz","yp_url":"https:\/\/yellow.co.nz\/y\/craic-irish-dunedin-central?src=name","addrInfo":{"lat":-45.8749581,"lng":170.5038124,"street_number":"24","locality":"Dunedin","administrative_area_level_1":"Otago","country_code":"NZ","country":"New Zealand","postal_code":"9016","route":"24 The Octagon","formatted_address":"24 The Octagon, Dunedin, Dunedin 9016, New Zealand"}},{"business_url":"http:\/\/www.simplythebestentertainment.co.nz","yp_url":"https:\/\/yellow.co.nz\/y\/dj-bizzar-darkmoon?src=name","addrInfo":{"lat":-43.5567635,"lng":172.641403,"street_number":"12","locality":"Christchurch","administrative_area_level_1":"Canterbury","country_code":"NZ","country":"New Zealand","postal_code":"8023","route":"12 Millar St","formatted_address":"3\/12 Millar St, Sydenham, Christchurch 8023, New Zealand"}},{"business_url":"http:\/\/www.pogmahones.co.nz","yp_url":"https:\/\/yellow.co.nz\/y\/pog-mahones-irish?src=name","addrInfo":{"lat":-45.0324124,"lng":168.6597781,"street_number":"14","locality":"Queenstown","administrative_area_level_1":"Otago","country_code":"NZ","country":"New Zealand","postal_code":"9300","route":"14 Rees St","formatted_address":"14 Rees St, Queenstown 9300, New Zealand"}}]