[{"business_url":"http:\/\/www.carterstyres.co.nz","yp_url":"https:\/\/yellow.co.nz\/y\/carters-tyres-highbrook-drive-6?src=name","addrInfo":{"lat":-35.1119324,"lng":173.2647895,"street_number":"28","locality":"Kaitaia","administrative_area_level_1":"Northland","country_code":"NZ","country":"New Zealand","postal_code":"0410","route":"28 Matthews Ave","formatted_address":"28 Matthews Ave, Kaitaia 0410, New Zealand"}},{"business_url":"http:\/\/www.gobeyond.co.nz","yp_url":"https:\/\/yellow.co.nz\/y\/base-bay-of?src=name","addrInfo":{"lat":-35.2856097,"lng":174.0952822,"street_number":"18","locality":"Paihia","administrative_area_level_1":"Northland","country_code":"NZ","country":"New Zealand","postal_code":"0200","route":"18 Kings Rd","formatted_address":"18 Kings Rd, Paihia 0200, New Zealand"}},{"business_url":"http:\/\/www.gatewaymotel.co.nz","yp_url":"https:\/\/yellow.co.nz\/y\/bay-of-islands-gateway-motel?src=name","addrInfo":{"lat":-35.2782927,"lng":174.0825399,"street_number":"2","locality":"Paihia","administrative_area_level_1":"Northland","country_code":"NZ","country":"New Zealand","postal_code":"0200","route":"2 Black Bridge Rd","formatted_address":"2 Black Bridge Rd, Paihia 0200, New Zealand"}},{"business_url":"http:\/\/www.waiora-valley.co.nz","yp_url":"https:\/\/yellow.co.nz\/y\/waiora-apartments?src=name","addrInfo":{"lat":-35.2812497,"lng":174.0812998,"street_number":"52","locality":"Paihia","administrative_area_level_1":"Northland","country_code":"NZ","country":"New Zealand","postal_code":"0204","route":"52 Black Bridge Rd","formatted_address":"52 Black Bridge Rd, Paihia 0204, New Zealand"}},{"business_url":"http:\/\/www.boicomputers.co.nz","yp_url":"https:\/\/yellow.co.nz\/y\/bay-of-islands-computers?src=name","addrInfo":{"lat":-35.2098767,"lng":173.9188047,"street_number":"12","locality":"Waipapa","administrative_area_level_1":"Northland","country_code":"NZ","country":"New Zealand","postal_code":"0295","route":"12 Klinac Ln","formatted_address":"12 Klinac Ln, Waipapa 0295, New Zealand"}},{"business_url":"http:\/\/www.bayvets.co.nz\/our-clinics\/kaikohe","yp_url":"https:\/\/yellow.co.nz\/y\/bay-of-marino-place-2?src=name","addrInfo":{"lat":-35.4087985,"lng":173.8002469,"street_number":"4","locality":"Kaikohe","administrative_area_level_1":"Northland","country_code":"NZ","country":"New Zealand","postal_code":"0405","route":"4 Marino Pl","formatted_address":"4 Marino Pl, Kaikohe 0405, New Zealand"}},{"business_url":"http:\/\/www.bayvets.co.nz\/","yp_url":"https:\/\/yellow.co.nz\/y\/bay-of-kerikeri-road-3?src=name","addrInfo":{"lat":-35.2301004,"lng":173.9463732,"street_number":"48","locality":"Kerikeri","administrative_area_level_1":"Northland","country_code":"NZ","country":"New Zealand","postal_code":"0230","route":"48 Kerikeri Rd","formatted_address":"48 Kerikeri Rd, Kerikeri 0230, New Zealand"}},{"business_url":"http:\/\/www.scenichotelgroup.co.nz\/bayofislands","yp_url":"https:\/\/yellow.co.nz\/y\/scenic-hotel-bay?src=name","addrInfo":{"lat":-35.2873413,"lng":174.095874,"street_number":"58","locality":"Paihia","administrative_area_level_1":"Northland","country_code":"NZ","country":"New Zealand","postal_code":"0200","route":"58 Seaview Rd","formatted_address":"58 Seaview Rd, Paihia 0200, New Zealand"}},{"business_url":"http:\/\/www.waterviewlodge.com","yp_url":"https:\/\/yellow.co.nz\/y\/waterview-lodge-bay?src=name","addrInfo":{"lat":-35.3143692,"lng":174.1166243,"street_number":"14","locality":"Opua","administrative_area_level_1":"Northland","country_code":"NZ","country":"New Zealand","postal_code":"0200","route":"14 Franklin St","formatted_address":"14 Franklin St, Opua 0200, New Zealand"}},{"business_url":"http:\/\/www.propertyservice.co.nz","yp_url":"https:\/\/yellow.co.nz\/y\/bay-of-islands-property?src=name","addrInfo":{"lat":-35.2393929,"lng":173.9559517,"street_number":"53C","locality":"Kerikeri","administrative_area_level_1":"Northland","country_code":"NZ","country":"New Zealand","postal_code":"0230","route":"53C Shepherd Rd","formatted_address":"53C Shepherd Rd, Kerikeri 0230, New Zealand"}},{"business_url":"http:\/\/spapoolboi.co.nz\/","yp_url":"https:\/\/yellow.co.nz\/y\/poolside-spa-pool?src=name","addrInfo":{"lat":-35.2286583,"lng":173.9500945,"street_number":"13","locality":"Kerikeri","administrative_area_level_1":"Northland","country_code":"NZ","country":"New Zealand","postal_code":"0230","route":"13 Cobham Rd","formatted_address":"13 Cobham Rd, Kerikeri 0230, New Zealand"}},{"business_url":"http:\/\/www.boiresort.co.nz","yp_url":"https:\/\/yellow.co.nz\/y\/bay-of-islands-resort?src=name","addrInfo":{"lat":-35.2925996,"lng":174.0965037,"street_number":"6","locality":"Paihia","administrative_area_level_1":"Northland","country_code":"NZ","country":"New Zealand","postal_code":"0200","route":"6 Tohitapu Rd","formatted_address":"6 Tohitapu Rd, Paihia 0200, New Zealand"}},{"business_url":"http:\/\/www.divenorth.co.nz","yp_url":"https:\/\/yellow.co.nz\/y\/dive-north-bay?src=name","addrInfo":{"lat":-35.2471745,"lng":173.9283547,"street_number":"1512","locality":"Kerikeri","administrative_area_level_1":"Northland","country_code":"NZ","country":"New Zealand","postal_code":"0293","route":"1512 State Highway 10","formatted_address":"1512 State Highway 10, Kerikeri 0293, New Zealand"}},{"business_url":"http:\/\/www.bayofislandsholidaypark.co.nz","yp_url":"https:\/\/yellow.co.nz\/y\/bay-of-islands-holiday?src=name","addrInfo":{"lat":-35.2903104,"lng":174.0196881,"street_number":"678","locality":"Haruru","administrative_area_level_1":"Northland","country_code":"NZ","country":"New Zealand","postal_code":"0204","route":"678 Black Bridge Rd","formatted_address":"678 Black Bridge Rd, Haruru 0204, New Zealand"}},{"business_url":"http:\/\/www.beachsideholiday.co.nz","yp_url":"https:\/\/yellow.co.nz\/y\/beachside-holiday-park?src=name","addrInfo":{"lat":-35.2905174,"lng":174.0192048,"street_number":"1290","locality":"Haruru","administrative_area_level_1":"Northland","country_code":"NZ","country":"New Zealand","postal_code":"0204","route":"1290 SH 11","formatted_address":"1290 SH 11, Haruru 0204, New Zealand"}},{"business_url":"http:\/\/www.nepshiddentreasures.co.nz","yp_url":"https:\/\/yellow.co.nz\/y\/hidden-treasures-kaikohe?src=name","addrInfo":{"lat":-35.4082256,"lng":173.7991981,"street_number":"115","locality":"Kaikohe","administrative_area_level_1":"Northland","country_code":"NZ","country":"New Zealand","postal_code":"0405","route":"115 Broadway","formatted_address":"115 Broadway, Kaikohe 0405, New Zealand"}},{"business_url":"http:\/\/www.greatescape.co.nz","yp_url":"https:\/\/yellow.co.nz\/y\/great-escape-yacht?src=name","addrInfo":{"lat":-35.3121395,"lng":174.1169049,"street_number":"4","locality":"Opua","administrative_area_level_1":"Northland","country_code":"NZ","country":"New Zealand","postal_code":"0200","route":"4 Richardson St","formatted_address":"4 Richardson St, Opua 0200, New Zealand"}},{"business_url":"http:\/\/www.austria.motel.net.nz\/","yp_url":"https:\/\/yellow.co.nz\/y\/austria-motel-paihia?src=name","addrInfo":{"lat":-35.2812531,"lng":174.0894484,"street_number":"36","locality":"Paihia","administrative_area_level_1":"Northland","country_code":"NZ","country":"New Zealand","postal_code":"0200","route":"36 Selwyn Rd","formatted_address":"36 Selwyn Rd, Paihia 0200, New Zealand"}},{"business_url":"http:\/\/www.avalonresort.co.nz","yp_url":"https:\/\/yellow.co.nz\/y\/avalon-resort-cottages-kerikeri?src=name","addrInfo":{"lat":-35.2300152,"lng":173.9391119,"street_number":"340","locality":"Kerikeri","administrative_area_level_1":"Northland","country_code":"NZ","country":"New Zealand","postal_code":"0230","route":"340 Kerikeri Rd","formatted_address":"340 Kerikeri Rd, Kerikeri 0230, New Zealand"}},{"business_url":"http:\/\/www.tucker.co.nz","yp_url":"https:\/\/yellow.co.nz\/y\/r-tucker-thompson?src=name","addrInfo":{"lat":-35.281683,"lng":174.0922845,"street_number":"81","locality":"Paihia","administrative_area_level_1":"Northland","country_code":"NZ","country":"New Zealand","postal_code":"0200","route":"81 Marsden Rd","formatted_address":"81 Marsden Rd, Paihia 0200, New Zealand"}},{"business_url":"http:\/\/www.coastalchalet.co.nz","yp_url":"https:\/\/yellow.co.nz\/y\/coastal-chalet-suites?src=name","addrInfo":{"lat":-35.0524409,"lng":173.7791421,"street_number":"348","locality":"Kaeo","administrative_area_level_1":"Northland","country_code":"NZ","country":"New Zealand","postal_code":"0478","route":"348 Wainui Rd","formatted_address":"0471\/348 Wainui Rd, Kaeo 0478, New Zealand"}},{"business_url":"http:\/\/www.grandcrucharters.co.nz","yp_url":"https:\/\/yellow.co.nz\/y\/grand-cru-charters?src=name","addrInfo":{"lat":-35.2817668,"lng":174.0884438,"street_number":"12","locality":"Paihia","administrative_area_level_1":"Northland","country_code":"NZ","country":"New Zealand","postal_code":"0200","route":"12 Bayview Rd","formatted_address":"12 Bayview Rd, Paihia 0200, New Zealand"}},{"business_url":"http:\/\/www.carterstyres.co.nz","yp_url":"https:\/\/yellow.co.nz\/y\/carters-tyres-highbrook-drive-3?src=name","addrInfo":{"lat":-35.2331875,"lng":173.9527104,"street_number":"13","locality":"Kerikeri","administrative_area_level_1":"Northland","country_code":"NZ","country":"New Zealand","postal_code":"0230","route":"13 Mill Ln","formatted_address":"13 Mill Ln, Kerikeri 0230, New Zealand"}},{"business_url":"http:\/\/www.poolwarehouse.co.nz","yp_url":"https:\/\/yellow.co.nz\/y\/pool-warehouse?src=name","addrInfo":{"lat":-35.2273041,"lng":173.9492554,"street_number":"81","locality":"Kerikeri","administrative_area_level_1":"Northland","country_code":"NZ","country":"New Zealand","postal_code":"0230","route":"81 Kerikeri Rd","formatted_address":"81 Kerikeri Rd, Kerikeri 0230, New Zealand"}}]