[{"business_url":"http:\/\/www.jujnovich.co.nz","yp_url":"https:\/\/yellow.co.nz\/y\/jujnovich-holdings?src=name","addrInfo":{"lat":-35.1152065,"lng":173.2652542,"street_number":"37","locality":"Kaitaia","administrative_area_level_1":"Northland","country_code":"NZ","country":"New Zealand","postal_code":"0410","route":"37 Commerce St","formatted_address":"37 Commerce St, Kaitaia 0410, New Zealand"}},{"business_url":"http:\/\/www.finders.net.nz","yp_url":"https:\/\/yellow.co.nz\/y\/finders-gallery-boutique-kaitaia?src=name","addrInfo":{"lat":-35.1145163,"lng":173.264623,"street_number":"71","locality":"Kaitaia","administrative_area_level_1":"Northland","country_code":"NZ","country":"New Zealand","postal_code":"0410","route":"71 Commerce St","formatted_address":"71 Commerce St, Kaitaia 0410, New Zealand"}},{"business_url":"http:\/\/www.showcasejewellerskerikeri.co.nz\/","yp_url":"https:\/\/yellow.co.nz\/y\/keoghans-showcase-kerikeri?src=name","addrInfo":{"lat":-35.22796,"lng":173.9481845,"street_number":"66","locality":"Kerikeri","administrative_area_level_1":"Northland","country_code":"NZ","country":"New Zealand","postal_code":"0230","route":"66 Kerikeri Rd","formatted_address":"66 Kerikeri Rd, Kerikeri 0230, New Zealand"}},{"business_url":"http:\/\/www.contempoartspace.com","yp_url":"https:\/\/yellow.co.nz\/y\/contempo-art-space-kohukohu?src=name","addrInfo":{"lat":-35.3634221,"lng":173.5417429,"street_number":"19","locality":"Kohukohu","administrative_area_level_1":"Northland","country_code":"NZ","country":"New Zealand","postal_code":"0491","route":"19 Yarborough St","formatted_address":"19 Yarborough St, Kohukohu 0491, New Zealand"}},{"business_url":"http:\/\/www.kaanzamaan.co.nz","yp_url":"https:\/\/yellow.co.nz\/y\/kaan-zamaan-art?src=name","addrInfo":{"lat":-35.2360865,"lng":173.9418488,"street_number":"373","locality":"Kerikeri","administrative_area_level_1":"Northland","country_code":"NZ","country":"New Zealand","postal_code":"0230","route":"373 Kerikeri Rd","formatted_address":"373 Kerikeri Rd, Kerikeri 0230, New Zealand"}},{"business_url":"http:\/\/www.fishersjewellers.co.nz","yp_url":"https:\/\/yellow.co.nz\/y\/fishers-on-cameron-whangarei?src=name","addrInfo":{"lat":-35.724855,"lng":174.3199021,"street_number":"6","locality":"Whangarei","administrative_area_level_1":"Northland","country_code":"NZ","country":"New Zealand","postal_code":"0110","route":"6 Cameron St","formatted_address":"6 Cameron St, Whangarei, Whangarei 0110, New Zealand"}},{"business_url":"http:\/\/www.galleryhelenabay.co.nz","yp_url":"https:\/\/yellow.co.nz\/y\/gallery-helena-bay?src=name","addrInfo":{"lat":-35.4564775,"lng":174.3273361,"street_number":"1392","locality":"Helena Bay","administrative_area_level_1":"Northland","country_code":"NZ","country":"New Zealand","postal_code":"0184","route":"1392 Old Russel Rd","formatted_address":"4\/1392 Old Russel Rd, Helena Bay 0184, New Zealand"}},{"business_url":"http:\/\/www.intecinteriors.co.nz","yp_url":"https:\/\/yellow.co.nz\/y\/intec-interiors?src=name","addrInfo":{"lat":-35.7258781,"lng":174.3207352,"street_number":"67","locality":"Whangarei","administrative_area_level_1":"Northland","country_code":"NZ","country":"New Zealand","postal_code":"0110","route":"67 Cameron St","formatted_address":"67 Cameron St, Whangarei, Whangarei 0110, New Zealand"}}]