[{"business_url":"http:\/\/www.showcasejewellerskerikeri.co.nz\/","yp_url":"https:\/\/yellow.co.nz\/y\/keoghans-showcase-kerikeri?src=name","addrInfo":{"lat":-35.22796,"lng":173.9481845,"street_number":"66","locality":"Kerikeri","administrative_area_level_1":"Northland","country_code":"NZ","country":"New Zealand","postal_code":"0230","route":"66 Kerikeri Rd","formatted_address":"66 Kerikeri Rd, Kerikeri 0230, New Zealand"}},{"business_url":"http:\/\/www.mansorsjewellers.com","yp_url":"https:\/\/yellow.co.nz\/y\/rolex-official-service?src=name","addrInfo":{"lat":-36.8477089,"lng":174.7655525,"street_number":"163","locality":"Auckland","administrative_area_level_1":"Auckland","country_code":"NZ","country":"New Zealand","postal_code":"1010","route":"163 Queen St","formatted_address":"163 Queen St, Auckland, Auckland 1010, New Zealand"}},{"business_url":"http:\/\/www.mansorsjewellers.com","yp_url":"https:\/\/yellow.co.nz\/y\/mansors-jewellers-auckland?src=name","addrInfo":{"lat":-36.8477089,"lng":174.7655525,"street_number":"163","locality":"Auckland","administrative_area_level_1":"Auckland","country_code":"NZ","country":"New Zealand","postal_code":"1010","route":"163 Queen St","formatted_address":"163 Queen St, Auckland, Auckland 1010, New Zealand"}},{"business_url":"http:\/\/www.cambridgejewellers.co.nz\/","yp_url":"https:\/\/yellow.co.nz\/y\/cambridge-jewellers?src=name","addrInfo":{"lat":-37.8943081,"lng":175.4689786,"street_number":"61","locality":"Cambridge","administrative_area_level_1":"Waikato","country_code":"NZ","country":"New Zealand","postal_code":"3434","route":"61 Victoria St","formatted_address":"61 Victoria St, Cambridge 3434, New Zealand"}},{"business_url":"http:\/\/www.reneebridal.co.nz","yp_url":"https:\/\/yellow.co.nz\/y\/renee-bridal-fashion?src=name","addrInfo":{"lat":-36.898431,"lng":174.8233887,"street_number":"283","locality":"Auckland","administrative_area_level_1":"Auckland","country_code":"NZ","country":"New Zealand","postal_code":"1060","route":"283 Ellerslie - Panmure Hwy","formatted_address":"283 Ellerslie - Panmure Hwy, Mount Wellington, Auckland 1060, New Zealand"}},{"business_url":"http:\/\/www.bopweddingguide.co.nz","yp_url":"https:\/\/yellow.co.nz\/y\/bay-bridal-devonport-road?src=name","addrInfo":{"lat":-37.6864537,"lng":176.1691194,"street_number":"77","locality":"Tauranga","administrative_area_level_1":"Bay Of Plenty","country_code":"NZ","country":"New Zealand","postal_code":"3110","route":"77 Devonport Rd","formatted_address":"77 Devonport Rd, Tauranga, Tauranga 3110, New Zealand"}},{"business_url":"http:\/\/www.glitterjewellers.co.nz","yp_url":"https:\/\/yellow.co.nz\/y\/glitter-jewellers?src=name","addrInfo":{"lat":-37.0226449,"lng":174.8980274,"street_number":"216","locality":"Auckland","administrative_area_level_1":"Auckland","country_code":"NZ","country":"New Zealand","postal_code":"2102","route":"216 Great South Rd","formatted_address":"2\/216 Great South Rd, Manurewa, Auckland 2102, New Zealand"}},{"business_url":"http:\/\/www.thebeadhold.co.nz","yp_url":"https:\/\/yellow.co.nz\/y\/bead-hold-stratford?src=name","addrInfo":{"lat":-39.3385968,"lng":174.2844521,"street_number":"222","locality":"Stratford","administrative_area_level_1":"Taranaki","country_code":"NZ","country":"New Zealand","postal_code":"4332","route":"222 Broadway","formatted_address":"222 Broadway, Stratford 4332, New Zealand"}},{"business_url":"http:\/\/www.nairns.co.nz","yp_url":"https:\/\/yellow.co.nz\/y\/nairns-swiss-auckland?src=name","addrInfo":{"lat":-36.8451326,"lng":174.7667323,"street_number":"34","locality":"Auckland","administrative_area_level_1":"Auckland","country_code":"NZ","country":"New Zealand","postal_code":"1010","route":"34 Queen St","formatted_address":"34 Queen St, Auckland, Auckland 1010, New Zealand"}},{"business_url":"http:\/\/www.glasslab.co.nz","yp_url":"https:\/\/yellow.co.nz\/y\/glasslab-services?src=name","addrInfo":{"lat":-37.792456,"lng":175.293517,"street_number":"394","locality":"Hamilton","administrative_area_level_1":"Waikato","country_code":"NZ","country":"New Zealand","postal_code":"3216","route":"394 Grey St","formatted_address":"4\/394 Grey St, Hamilton East, Hamilton 3216, New Zealand"}},{"business_url":"http:\/\/www.jewelcollections.co.nz","yp_url":"https:\/\/yellow.co.nz\/y\/jewel-collection-papatoetoe?src=name","addrInfo":{"lat":-36.9693966,"lng":174.8601558,"street_number":"159","locality":"Auckland","administrative_area_level_1":"Auckland","country_code":"NZ","country":"New Zealand","postal_code":"2025","route":"159 Great South Rd","formatted_address":"159 Great South Rd, Papatoetoe, Auckland 2025, New Zealand"}},{"business_url":"http:\/\/www.jewelleryservices.co.nz","yp_url":"https:\/\/yellow.co.nz\/y\/laurie-mayo-jewellery?src=name","addrInfo":{"lat":-36.7447429,"lng":174.6970369,"street_number":"38","locality":"Auckland","administrative_area_level_1":"Auckland","country_code":"NZ","country":"New Zealand","postal_code":"0632","route":"38 William Pickering Dr","formatted_address":"j\/38 William Pickering Dr, Rosedale, Auckland 0632, New Zealand"}},{"business_url":"http:\/\/www.birkenheadshoerepairs.co.nz","yp_url":"https:\/\/yellow.co.nz\/y\/shoe-shop-birkenhead?src=name","addrInfo":{"lat":-36.8123417,"lng":174.7259564,"street_number":"8","locality":"Auckland","administrative_area_level_1":"Auckland","country_code":"NZ","country":"New Zealand","postal_code":"0626","route":"8 Mokoia Rd","formatted_address":"8 Mokoia Rd, Birkenhead, Auckland 0626, New Zealand"}}]