[{"business_url":"http:\/\/www.kidicorp.co.nz\/education-and-care-centres\/centres\/abc-kaitaia.aspx","yp_url":"https:\/\/yellow.co.nz\/y\/abc-kaitaia-kaitaia?src=name&c=493","addrInfo":{"lat":-35.1158011,"lng":173.2589314,"street_number":"32","locality":"Kaitaia","administrative_area_level_1":"Northland","country_code":"NZ","country":"New Zealand","postal_code":"0410","route":"32 Dominion Rd","formatted_address":"32 Dominion Rd, Kaitaia 0410, New Zealand"}},{"business_url":"http:\/\/www.springbank.school.nz\/preschool\/","yp_url":"https:\/\/yellow.co.nz\/y\/springbank-preschool?src=name&c=493","addrInfo":{"lat":-35.241726,"lng":173.9158397,"street_number":"72","locality":"Kerikeri","administrative_area_level_1":"Northland","country_code":"NZ","country":"New Zealand","postal_code":"0293","route":"72 Waimate N Rd","formatted_address":"72 Waimate N Rd, Kerikeri 0293, New Zealand"}},{"business_url":"http:\/\/www.nurture.co.nz","yp_url":"https:\/\/yellow.co.nz\/y\/nurture-by-nature-early?src=name&c=493","addrInfo":{"lat":-35.1942648,"lng":173.9460196,"street_number":"324","locality":"Kerikeri","administrative_area_level_1":"Northland","country_code":"NZ","country":"New Zealand","postal_code":"0294","route":"324 Kapiro Rd","formatted_address":"324 Kapiro Rd, Kerikeri 0294, New Zealand"}},{"business_url":"http:\/\/www.ourplacekerikeri.co.nz","yp_url":"https:\/\/yellow.co.nz\/y\/our-place-early?src=name&c=493","addrInfo":{"lat":-35.2082356,"lng":173.9265829,"street_number":"331C","locality":"Waipapa","administrative_area_level_1":"Northland","country_code":"NZ","country":"New Zealand","postal_code":"0295","route":"331C Waipapa Rd","formatted_address":"331C Waipapa Rd, Waipapa 0295, New Zealand"}},{"business_url":"http:\/\/www.kidicorp.co.nz\/education-and-care-centres\/centres\/abc-kaikohe.aspx","yp_url":"https:\/\/yellow.co.nz\/y\/abc-kaikohe-kaikohe?src=name&c=493","addrInfo":{"lat":-35.4059724,"lng":173.7965244,"street_number":"15","locality":"Kaikohe","administrative_area_level_1":"Northland","country_code":"NZ","country":"New Zealand","postal_code":"0405","route":"15 Park Rd","formatted_address":"15 Park Rd, Kaikohe 0405, New Zealand"}},{"business_url":"http:\/\/www.sylvanlanark.co.nz","yp_url":"https:\/\/yellow.co.nz\/y\/lanark-house-early?src=name&c=493","addrInfo":{"lat":-35.2299342,"lng":173.9565475,"street_number":"9","locality":"Kerikeri","administrative_area_level_1":"Northland","country_code":"NZ","country":"New Zealand","postal_code":"0230","route":"9 Lanark Rd","formatted_address":"9 Lanark Rd, Kerikeri 0230, New Zealand"}},{"business_url":"http:\/\/www.sylvanlanark.co.nz","yp_url":"https:\/\/yellow.co.nz\/y\/sylvan-house-early?src=name&c=493","addrInfo":{"lat":-35.2295022,"lng":173.9552747,"street_number":"19","locality":"Kerikeri","administrative_area_level_1":"Northland","country_code":"NZ","country":"New Zealand","postal_code":"0230","route":"19 Hone Heke Rd","formatted_address":"19 Hone Heke Rd, Kerikeri 0230, New Zealand"}}]