[{"business_url":"http:\/\/www.oldbayjoinery.co.nz","yp_url":"https:\/\/yellow.co.nz\/y\/old-bay-joinery?src=name","addrInfo":{"lat":-35.270683,"lng":174.078605,"street_number":"95","locality":"Ohaeawai","administrative_area_level_1":"Northland","country_code":"NZ","country":"New Zealand","postal_code":"0472","route":"95 Te Ahu Ahu Rd","formatted_address":"Bay of Islands Maori Canoe Tours 95 Te Ahu Ahu Rd, Ohaeawai 0472, New Zealand"}},{"business_url":"http:\/\/www.pecks.co.nz","yp_url":"https:\/\/yellow.co.nz\/y\/pecks-plumbing-plus?src=name","addrInfo":{"lat":-36.9883296,"lng":174.8737756,"street_number":"28D","locality":"Auckland","administrative_area_level_1":"Auckland","country_code":"NZ","country":"New Zealand","postal_code":"2104","route":"28D Lambie Dr","formatted_address":"28D Lambie Dr, Papatoetoe, Auckland 2104, New Zealand"}},{"business_url":"http:\/\/www.toplinebenches.co.nz","yp_url":"https:\/\/yellow.co.nz\/y\/topline-bench-tops?src=name","addrInfo":{"lat":-36.93368,"lng":174.9002838,"street_number":"3","locality":"Auckland","administrative_area_level_1":"Auckland","country_code":"NZ","country":"New Zealand","postal_code":"2013","route":"3 Parkwood Pl","formatted_address":"3 Parkwood Pl, East Tamaki, Auckland 2013, New Zealand"}},{"business_url":"http:\/\/www.nulook.co.nz","yp_url":"https:\/\/yellow.co.nz\/y\/hulme-aluminium-joinery-ta?src=name","addrInfo":{"lat":-36.8864199,"lng":174.6263658,"street_number":"16","locality":"Auckland","administrative_area_level_1":"Auckland","country_code":"NZ","country":"New Zealand","postal_code":"0612","route":"16 Keeling Rd","formatted_address":"16 Keeling Rd, Henderson, Auckland 0612, New Zealand"}},{"business_url":"http:\/\/www.branthomes.co.nz","yp_url":"https:\/\/yellow.co.nz\/y\/brant-homes?src=name","addrInfo":{"lat":-37.0756344,"lng":174.9254456,"street_number":"11","locality":"Karaka","administrative_area_level_1":"Auckland","country_code":"NZ","country":"New Zealand","postal_code":"2580","route":"11 Hinau Rd","formatted_address":"11 Hinau Rd, Karaka 2580, New Zealand"}},{"business_url":"http:\/\/www.glasskote.co.nz","yp_url":"https:\/\/yellow.co.nz\/y\/glasskote-porana-road?src=name","addrInfo":{"lat":-36.7820108,"lng":174.7414096,"street_number":"37","locality":"Auckland","administrative_area_level_1":"Auckland","country_code":"NZ","country":"New Zealand","postal_code":"0627","route":"37 Porana Rd","formatted_address":"37 Porana Rd, Wairau Valley, Auckland 0627, New Zealand"}},{"business_url":"http:\/\/www.fisherwindows.co.nz","yp_url":"https:\/\/yellow.co.nz\/y\/fisher-taranaki-windows?src=name","addrInfo":{"lat":-39.0565458,"lng":174.1029293,"street_number":"50","locality":"New Plymouth","administrative_area_level_1":"Taranaki","country_code":"NZ","country":"New Zealand","postal_code":"4312","route":"50 Rimu St","formatted_address":"50 Rimu St, Strandon, New Plymouth 4312, New Zealand"}},{"business_url":"http:\/\/www.fisherwindows.co.nz","yp_url":"https:\/\/yellow.co.nz\/y\/window-warehouse-rotorua?src=name","addrInfo":{"lat":-38.1296375,"lng":176.2321861,"street_number":"3","locality":"Rotorua","administrative_area_level_1":"Bay Of Plenty","country_code":"NZ","country":"New Zealand","postal_code":"3015","route":"3 Tallyho St","formatted_address":"3 Tallyho St, Mangakakahi, Rotorua 3015, New Zealand"}},{"business_url":"http:\/\/www.leebros.co.nz","yp_url":"https:\/\/yellow.co.nz\/y\/lee-brors-joinery?src=name","addrInfo":{"lat":-38.1311633,"lng":176.2277072,"street_number":"120","locality":"Rotorua","administrative_area_level_1":"Bay Of Plenty","country_code":"NZ","country":"New Zealand","postal_code":"3015","route":"120 View Rd","formatted_address":"120 View Rd, Mangakakahi, Rotorua 3015, New Zealand"}},{"business_url":"http:\/\/www.hostess.co.nz","yp_url":"https:\/\/yellow.co.nz\/y\/hostess-joinery-sunshine?src=name","addrInfo":{"lat":-37.7587166,"lng":175.2448476,"street_number":"17","locality":"Hamilton","administrative_area_level_1":"Waikato","country_code":"NZ","country":"New Zealand","postal_code":"3200","route":"17 Sunshine Ave","formatted_address":"17 Sunshine Ave, Te Rapa, Hamilton 3200, New Zealand"}},{"business_url":"http:\/\/www.tarzandesign.co.nz","yp_url":"https:\/\/yellow.co.nz\/y\/tarzan-design?src=name","addrInfo":{"lat":-36.9017675,"lng":174.6237989,"street_number":"22","locality":"Auckland","administrative_area_level_1":"Auckland","country_code":"NZ","country":"New Zealand","postal_code":"0612","route":"22 Applewood Dr","formatted_address":"22 Applewood Dr, Henderson, Auckland 0612, New Zealand"}},{"business_url":"http:\/\/www.superiorkitchens.co.nz\/","yp_url":"https:\/\/yellow.co.nz\/y\/superior-kitchens-lady-ruby?src=name","addrInfo":{"lat":-36.9486879,"lng":174.8957603,"street_number":"20","locality":"Auckland","administrative_area_level_1":"Auckland","country_code":"NZ","country":"New Zealand","postal_code":"2013","route":"20 Lady Ruby Dr","formatted_address":"20 Lady Ruby Dr, East Tamaki, Auckland 2013, New Zealand"}},{"business_url":"http:\/\/www.proglaze.co.nz","yp_url":"https:\/\/yellow.co.nz\/y\/proglaze-new-zealand?src=name","addrInfo":{"lat":-39.0772841,"lng":174.0917286,"street_number":"15","locality":"New Plymouth","administrative_area_level_1":"Taranaki","country_code":"NZ","country":"New Zealand","postal_code":"4310","route":"15 Junction St","formatted_address":"15 Junction St, Welbourn, New Plymouth 4310, New Zealand"}},{"business_url":"http:\/\/www.mkprojects.co.nz","yp_url":"https:\/\/yellow.co.nz\/y\/mk-projects?src=name","addrInfo":{"lat":-36.9131987,"lng":174.8097375,"street_number":"4","locality":"Auckland","administrative_area_level_1":"Auckland","country_code":"NZ","country":"New Zealand","postal_code":"1061","route":"4 Fairfax Ave","formatted_address":"4 Fairfax Ave, Penrose, Auckland 1061, New Zealand"}},{"business_url":"http:\/\/www.sbtsolutions.co.nz\/","yp_url":"https:\/\/yellow.co.nz\/y\/superior-benchtop-solutions?src=name","addrInfo":{"lat":-36.7494483,"lng":174.7339996,"street_number":"28","locality":"Auckland","administrative_area_level_1":"Auckland","country_code":"NZ","country":"New Zealand","postal_code":"0632","route":"28 Parkway Dr","formatted_address":"3\/28 Parkway Dr, Rosedale, Auckland 0632, New Zealand"}},{"business_url":"http:\/\/www.ikitchen.co.nz","yp_url":"https:\/\/yellow.co.nz\/y\/ikitchen?src=name","addrInfo":{"lat":-36.7494849,"lng":174.7068728,"street_number":"5","locality":"Auckland","administrative_area_level_1":"Auckland","country_code":"NZ","country":"New Zealand","postal_code":"0632","route":"5 Volkner Pl","formatted_address":"5 Volkner Pl, Rosedale, Auckland 0632, New Zealand"}},{"business_url":"http:\/\/www.refitrenovations.co.nz","yp_url":"https:\/\/yellow.co.nz\/y\/refit-renovations?src=name","addrInfo":{"lat":-36.9263381,"lng":174.6584542,"street_number":"44","locality":"Auckland","administrative_area_level_1":"Auckland","country_code":"NZ","country":"New Zealand","postal_code":"0604","route":"44 Highland Ave","formatted_address":"44 Highland Ave, Titirangi, Auckland 0604, New Zealand"}},{"business_url":"http:\/\/www.designature.co.nz\/","yp_url":"https:\/\/yellow.co.nz\/y\/designature?src=name","addrInfo":{"lat":-36.7923905,"lng":174.7783747,"street_number":"19","locality":"Auckland","administrative_area_level_1":"Auckland","country_code":"NZ","country":"New Zealand","postal_code":"0622","route":"19 William St","formatted_address":"19 William St, Takapuna, Auckland 0622, New Zealand"}}]