[{"business_url":"http:\/\/www.flooringxtra.co.nz\/store\/pierces+flooring+xtra","yp_url":"https:\/\/yellow.co.nz\/y\/pierces-flooring-xtra?src=name","addrInfo":{"lat":-35.7285707,"lng":174.3236911,"street_number":"32","locality":"Whangarei","administrative_area_level_1":"Northland","country_code":"NZ","country":"New Zealand","postal_code":"0110","route":"32 Albert St","formatted_address":"32 Albert St, Whangarei, Whangarei 0110, New Zealand"}},{"business_url":"http:\/\/www.kitchenbenchtops.co.nz","yp_url":"https:\/\/yellow.co.nz\/y\/northland-laminates?src=name","addrInfo":{"lat":-35.741843,"lng":174.3313222,"street_number":"50","locality":"Whangarei","administrative_area_level_1":"Northland","country_code":"NZ","country":"New Zealand","postal_code":"0110","route":"50 Kioreroa Rd","formatted_address":"50 Kioreroa Rd, Port Whangarei, Whangarei 0110, New Zealand"}},{"business_url":"http:\/\/www.abetterservice.co.nz","yp_url":"https:\/\/yellow.co.nz\/y\/a-better-service?src=name","addrInfo":{"lat":-36.9001868,"lng":174.6996392,"street_number":"9","locality":"Auckland","administrative_area_level_1":"Auckland","country_code":"NZ","country":"New Zealand","postal_code":"0600","route":"9 Chalmers St","formatted_address":"9 Chalmers St, Avondale, Auckland 0600, New Zealand"}},{"business_url":"http:\/\/www.nightowlprinting.co.nz","yp_url":"https:\/\/yellow.co.nz\/y\/night-owl-printing?src=name","addrInfo":{"lat":-36.8176744,"lng":174.6392203,"street_number":"8","locality":"Auckland","administrative_area_level_1":"Auckland","country_code":"NZ","country":"New Zealand","postal_code":"0618","route":"8 Cesari Pl","formatted_address":"8 Cesari Pl, West Harbour, Auckland 0618, New Zealand"}},{"business_url":"http:\/\/www.faxads.biz","yp_url":"https:\/\/yellow.co.nz\/y\/faxads?src=name","addrInfo":{"lat":-36.8918926,"lng":174.7317492,"street_number":"3A","locality":"Auckland","administrative_area_level_1":"Auckland","country_code":"NZ","country":"New Zealand","postal_code":"1025","route":"3A Watea Rd","formatted_address":"3A Watea Rd, Sandringham, Auckland 1025, New Zealand"}},{"business_url":"http:\/\/www.creativekitchenstaupo.co.nz","yp_url":"https:\/\/yellow.co.nz\/y\/creative-kitchens-laminates-miro?src=name","addrInfo":{"lat":-38.6894594,"lng":176.1052033,"street_number":"35","locality":"Taupo","administrative_area_level_1":"Waikato","country_code":"NZ","country":"New Zealand","postal_code":"3330","route":"35 Miro St","formatted_address":"4\/35 Miro St, Tauhara, Taupo 3330, New Zealand"}},{"business_url":"http:\/\/www.unitedprinting.co.nz","yp_url":"https:\/\/yellow.co.nz\/y\/united-printing?src=name","addrInfo":{"lat":-37.0027218,"lng":174.8775011,"street_number":"8","locality":"Auckland","administrative_area_level_1":"Auckland","country_code":"NZ","country":"New Zealand","postal_code":"2104","route":"8 Earl Richardson Ave","formatted_address":"8 Earl Richardson Ave, Wiri, Auckland 2104, New Zealand"}},{"business_url":"http:\/\/www.tassprint.co.nz","yp_url":"https:\/\/yellow.co.nz\/y\/tass-print-te-atatu?src=name","addrInfo":{"lat":-36.8432532,"lng":174.6516179,"street_number":"534","locality":"Auckland","administrative_area_level_1":"Auckland","country_code":"NZ","country":"New Zealand","postal_code":"0610","route":"534 Te Atatu Rd","formatted_address":"534 Te Atatu Rd, Te Atatu Peninsula, Auckland 0610, New Zealand"}},{"business_url":"http:\/\/www.artechprint.co.nz","yp_url":"https:\/\/yellow.co.nz\/y\/artech-print-710-gt-2?src=name","addrInfo":{"lat":-36.9913682,"lng":174.8865328,"street_number":"710","locality":"Auckland","administrative_area_level_1":"Auckland","country_code":"NZ","country":"New Zealand","postal_code":"2104","route":"710 Great South Rd","formatted_address":"710 Great South Rd, Manukau, Auckland 2104, New Zealand"}},{"business_url":"http:\/\/www.theglassman.co.nz","yp_url":"https:\/\/yellow.co.nz\/y\/glass-man-spotswood?src=name","addrInfo":{"lat":-39.0759601,"lng":174.0320091,"street_number":"18","locality":"New Plymouth","administrative_area_level_1":"Taranaki","country_code":"NZ","country":"New Zealand","postal_code":"4310","route":"18 Manadon St","formatted_address":"18 Manadon St, Spotswood, New Plymouth 4310, New Zealand"}},{"business_url":"http:\/\/www.floorboards.co.nz","yp_url":"https:\/\/yellow.co.nz\/y\/floorboards?src=name","addrInfo":{"lat":-37.737244,"lng":175.2251008,"street_number":"49","locality":"Hamilton","administrative_area_level_1":"Waikato","country_code":"NZ","country":"New Zealand","postal_code":"3200","route":"49 Maui St","formatted_address":"49 Maui St, Pukete, Hamilton 3200, New Zealand"}},{"business_url":"http:\/\/www.unimark.co.nz","yp_url":"https:\/\/yellow.co.nz\/y\/unimark-labels-nz-avondale?src=name","addrInfo":{"lat":-36.8779805,"lng":174.6751818,"street_number":"483","locality":"Auckland","administrative_area_level_1":"Auckland","country_code":"NZ","country":"New Zealand","postal_code":"1026","route":"483 Rosebank Rd","formatted_address":"483 Rosebank Rd, Avondale, Auckland 1026, New Zealand"}},{"business_url":"http:\/\/www.aopl.co.nz\/","yp_url":"https:\/\/yellow.co.nz\/y\/auckland-office-products?src=name","addrInfo":{"lat":-36.8828936,"lng":174.6413123,"street_number":"286","locality":"Auckland","administrative_area_level_1":"Auckland","country_code":"NZ","country":"New Zealand","postal_code":"0612","route":"286 Great North Rd","formatted_address":"286 Great North Rd, Henderson, Auckland 0612, New Zealand"}},{"business_url":"http:\/\/www.copyexpresso.co.nz","yp_url":"https:\/\/yellow.co.nz\/y\/copy-expresso?src=name","addrInfo":{"lat":-36.7828571,"lng":175.0094208,"street_number":"120","locality":"Auckland","administrative_area_level_1":"Auckland","country_code":"NZ","country":"New Zealand","postal_code":"1081","route":"120 Oceanview Rd","formatted_address":"3\/120 Oceanview Rd, Oneroa, Auckland 1081, New Zealand"}},{"business_url":"http:\/\/www.copyman.co.nz","yp_url":"https:\/\/yellow.co.nz\/y\/copyman?src=name","addrInfo":{"lat":-37.7269853,"lng":176.1350283,"street_number":"143","locality":"Tauranga","administrative_area_level_1":"Bay Of Plenty","country_code":"NZ","country":"New Zealand","postal_code":"3112","route":"143 Greerton Rd","formatted_address":"3\/143 Greerton Rd, Greerton, Tauranga 3112, New Zealand"}},{"business_url":"http:\/\/www.hamiltonprint.co.nz","yp_url":"https:\/\/yellow.co.nz\/y\/graphic-studio?src=name","addrInfo":{"lat":-37.7820429,"lng":175.2755758,"street_number":"19","locality":"Hamilton","administrative_area_level_1":"Waikato","country_code":"NZ","country":"New Zealand","postal_code":"3204","route":"19 Harwood St","formatted_address":"19 Harwood St, Hamilton 3204, New Zealand"}},{"business_url":"http:\/\/www.pictureframing.co.nz","yp_url":"https:\/\/yellow.co.nz\/y\/picture-framing-company?src=name","addrInfo":{"lat":-36.773063,"lng":174.549925,"street_number":"250A","locality":"Kumeu","administrative_area_level_1":"Auckland","country_code":"NZ","country":"New Zealand","postal_code":"0810","route":"250A Main Rd","formatted_address":"4\/250A Main Rd, Kumeu 0810, New Zealand"}},{"business_url":"http:\/\/www.butterflyprint.co.nz","yp_url":"https:\/\/yellow.co.nz\/y\/butterfly-print-and-graphics?src=name","addrInfo":{"lat":-37.7586355,"lng":175.2462109,"street_number":"557B","locality":"Hamilton","administrative_area_level_1":"Waikato","country_code":"NZ","country":"New Zealand","postal_code":"3200","route":"557B Te Rapa Rd","formatted_address":"557B Te Rapa Rd, Te Rapa, Hamilton 3200, New Zealand"}},{"business_url":"http:\/\/www.cmyk.co.nz","yp_url":"https:\/\/yellow.co.nz\/y\/delta-copy-services?src=name","addrInfo":{"lat":-37.7828583,"lng":175.2746689,"street_number":"102","locality":"Hamilton","administrative_area_level_1":"Waikato","country_code":"NZ","country":"New Zealand","postal_code":"3204","route":"102 Rostrevor St","formatted_address":"102 Rostrevor St, Hamilton 3204, New Zealand"}},{"business_url":"http:\/\/www.sharlenessecretarialservices.com\/","yp_url":"https:\/\/yellow.co.nz\/y\/assists-secretarial-services?src=name","addrInfo":{"lat":-36.8573567,"lng":174.8522311,"street_number":"97","locality":"Auckland","administrative_area_level_1":"Auckland","country_code":"NZ","country":"New Zealand","postal_code":"1071","route":"97 Long Dr","formatted_address":"97 Long Dr, St Heliers, Auckland 1071, New Zealand"}},{"business_url":"http:\/\/hazelwoodcopy.co.nz","yp_url":"https:\/\/yellow.co.nz\/y\/hazelwood-design-copy?src=name","addrInfo":{"lat":-37.7923294,"lng":175.2927478,"street_number":"423","locality":"Hamilton","administrative_area_level_1":"Waikato","country_code":"NZ","country":"New Zealand","postal_code":"3216","route":"423 Grey St","formatted_address":"423 Grey St, Hamilton East, Hamilton 3216, New Zealand"}},{"business_url":"http:\/\/www.unimax.co.nz","yp_url":"https:\/\/yellow.co.nz\/y\/unimark-labels-nz-mount?src=name","addrInfo":{"lat":-36.8779805,"lng":174.6751818,"street_number":"483","locality":"Auckland","administrative_area_level_1":"Auckland","country_code":"NZ","country":"New Zealand","postal_code":"1026","route":"483 Rosebank Rd","formatted_address":"483 Rosebank Rd, Avondale, Auckland 1026, New Zealand"}},{"business_url":"http:\/\/www.atomicsigns.co.nz","yp_url":"https:\/\/yellow.co.nz\/y\/atomic-signs?src=name","addrInfo":{"lat":-36.9913852,"lng":174.8634437,"street_number":"49","locality":"Auckland","administrative_area_level_1":"Auckland","country_code":"NZ","country":"New Zealand","postal_code":"2104","route":"49 Plunket Ave","formatted_address":"49 Plunket Ave, Papatoetoe, Auckland 2104, New Zealand"}},{"business_url":"http:\/\/www.flooringxtra.co.nz","yp_url":"https:\/\/yellow.co.nz\/y\/flooring-xtra-glenmore-drive-7?src=name","addrInfo":{"lat":-36.4085197,"lng":174.6553089,"street_number":"21","locality":"Warkworth","administrative_area_level_1":"Auckland","country_code":"NZ","country":"New Zealand","postal_code":"0910","route":"21 Glenmore Dr","formatted_address":"21 Glenmore Dr, Warkworth 0910, New Zealand"}},{"business_url":"http:\/\/www.actionplanmedia.co.nz","yp_url":"https:\/\/yellow.co.nz\/y\/action-plan-media-avrerill?src=name","addrInfo":{"lat":-36.8813331,"lng":174.7972962,"street_number":"5","locality":"Auckland","administrative_area_level_1":"Auckland","country_code":"NZ","country":"New Zealand","postal_code":"1050","route":"5 Clonbern Rd","formatted_address":"2\/5 Clonbern Rd, Remuera, Auckland 1050, New Zealand"}},{"business_url":"http:\/\/www.forteflooring.co.nz\/","yp_url":"https:\/\/yellow.co.nz\/y\/forte-flooring-keith?src=name","addrInfo":{"lat":-37.1851857,"lng":174.9049739,"street_number":"3","locality":"Pukekohe","administrative_area_level_1":"Auckland","country_code":"NZ","country":"New Zealand","postal_code":"2120","route":"3 Keith Pl","formatted_address":"3 Keith Pl, Pukekohe 2120, New Zealand"}},{"business_url":"http:\/\/www.flooringxtra.co.nz","yp_url":"https:\/\/yellow.co.nz\/y\/flooring-xtra-silverdale-hibiscus?src=name","addrInfo":{"lat":-36.6173244,"lng":174.6769037,"street_number":"19","locality":"Silverdale","administrative_area_level_1":"Auckland","country_code":"NZ","country":"New Zealand","postal_code":"0932","route":"19 Silverdale St","formatted_address":"19 Silverdale St, Silverdale 0932, New Zealand"}},{"business_url":"http:\/\/www.imagoprint.co.nz\/","yp_url":"https:\/\/yellow.co.nz\/y\/imago-print-st-georges-3?src=name","addrInfo":{"lat":-36.8510533,"lng":174.781839,"street_number":"114","locality":"Auckland","administrative_area_level_1":"Auckland","country_code":"NZ","country":"New Zealand","postal_code":"1052","route":"114 St Georges Bay Rd","formatted_address":"1\/114 St Georges Bay Rd, Parnell, Auckland 1052, New Zealand"}},{"business_url":"http:\/\/www.peninsuladesign.co.nz","yp_url":"https:\/\/yellow.co.nz\/y\/peninsula-copy-whangaparaoa?src=name","addrInfo":{"lat":-36.6348281,"lng":174.7435946,"street_number":"676","locality":"Whangaparaoa","administrative_area_level_1":"Auckland","country_code":"NZ","country":"New Zealand","postal_code":"0932","route":"676 Whangaparaoa Rd","formatted_address":"676 Whangaparaoa Rd, Stanmore Bay, Whangaparaoa 0932, New Zealand"}},{"business_url":"http:\/\/www.eco-floors.co.nz\/","yp_url":"https:\/\/yellow.co.nz\/y\/eco-floors-enterprise-lincoln?src=name","addrInfo":{"lat":-36.9207432,"lng":174.6355963,"street_number":"149B","locality":"Auckland","administrative_area_level_1":"Auckland","country_code":"NZ","country":"New Zealand","postal_code":"0602","route":"149B Glengarry Rd","formatted_address":"149B Glengarry Rd, Glen Eden, Auckland 0602, New Zealand"}},{"business_url":"http:\/\/www.realestatesigns.co.nz","yp_url":"https:\/\/yellow.co.nz\/y\/real-estate-signs?src=name","addrInfo":{"lat":-36.9032021,"lng":174.6577201,"street_number":"4105","locality":"Auckland","administrative_area_level_1":"Auckland","country_code":"NZ","country":"New Zealand","postal_code":"0602","route":"4105 Great North Rd","formatted_address":"4105 Great North Rd, Glen Eden, Auckland 0602, New Zealand"}},{"business_url":"http:\/\/www.alpineprinters.co.nz","yp_url":"https:\/\/yellow.co.nz\/y\/alpine-printers?src=name","addrInfo":{"lat":-37.2151203,"lng":174.9069188,"street_number":"96","locality":"Pukekohe","administrative_area_level_1":"Auckland","country_code":"NZ","country":"New Zealand","postal_code":"2120","route":"96 John St","formatted_address":"96 John St, Pukekohe 2120, New Zealand"}}]