[{"business_url":"http:\/\/www.honeymoonvalley.co.nz","yp_url":"https:\/\/yellow.co.nz\/y\/sm-lilly-son?src=name","addrInfo":{"lat":-35.1284831,"lng":173.4939319,"street_number":"2","locality":"Peria","administrative_area_level_1":"Northland","country_code":"NZ","country":"New Zealand","postal_code":"0482","route":"2 Dutton Rd","formatted_address":"0500\/2 Dutton Rd, Peria 0482, New Zealand"}},{"business_url":"http:\/\/www.wasteworks.co.nz","yp_url":"https:\/\/yellow.co.nz\/y\/northland-waste-waipapa-road-5?src=name","addrInfo":{"lat":-35.7510908,"lng":174.3149797,"street_number":"19","locality":"Whangarei","administrative_area_level_1":"Northland","country_code":"NZ","country":"New Zealand","postal_code":"0110","route":"19 Rewa Rewa Rd","formatted_address":"19 Rewa Rewa Rd, Raumanga, Whangarei 0110, New Zealand"}},{"business_url":"http:\/\/www.northlandcleaningsupplies.co.nz\/","yp_url":"https:\/\/yellow.co.nz\/y\/northland-cleaning-supplies-great?src=name","addrInfo":{"lat":-35.7282327,"lng":174.3294247,"street_number":"35","locality":"Whangarei","administrative_area_level_1":"Northland","country_code":"NZ","country":"New Zealand","postal_code":"0110","route":"35 Herekino St","formatted_address":"35 Herekino St, Whangarei, Whangarei 0110, New Zealand"}},{"business_url":"http:\/\/www.hiredirect.co.nz","yp_url":"https:\/\/yellow.co.nz\/y\/hire-direct-machinery?src=name","addrInfo":{"lat":-35.6721864,"lng":174.3011063,"street_number":"36","locality":"Whangarei","administrative_area_level_1":"Northland","country_code":"NZ","country":"New Zealand","postal_code":"0112","route":"36 Winger Cres","formatted_address":"36 Winger Cres, Kamo, Whangarei 0112, New Zealand"}},{"business_url":"http:\/\/www.honeymoonvalley.co.nz","yp_url":"https:\/\/yellow.co.nz\/y\/lilly-sm-son?src=name","addrInfo":{"lat":-35.1284831,"lng":173.4939319,"street_number":"2","locality":"Peria","administrative_area_level_1":"Northland","country_code":"NZ","country":"New Zealand","postal_code":"0482","route":"2 Dutton Rd","formatted_address":"2 Dutton Rd, Peria 0482, New Zealand"}},{"business_url":"http:\/\/www.wdc.govt.nz","yp_url":"https:\/\/yellow.co.nz\/y\/whangarei-district-council?src=name","addrInfo":{"lat":-35.7240758,"lng":174.3181607,"street_number":"7","locality":"Whangarei","administrative_area_level_1":"Northland","country_code":"NZ","country":"New Zealand","postal_code":"0110","route":"7 Rust Ave","formatted_address":"7 Rust Ave, Whangarei, Whangarei 0110, New Zealand"}},{"business_url":"http:\/\/mikepottersiteworks.net.nz","yp_url":"https:\/\/yellow.co.nz\/y\/mike-potter-siteworks-hukerenui?src=name","addrInfo":{"lat":-35.5284497,"lng":174.2092551,"street_number":"1373","locality":"Hukerenui","administrative_area_level_1":"Northland","country_code":"NZ","country":"New Zealand","postal_code":"0182","route":"1373 Hukerenui Rd","formatted_address":"2\/1373 Hukerenui Rd, Hukerenui 0182, New Zealand"}},{"business_url":"http:\/\/www.rintoulcivil.co.nz","yp_url":"https:\/\/yellow.co.nz\/y\/rintoul-civil?src=name","addrInfo":{"lat":-35.243043,"lng":173.937156,"street_number":"457","locality":"Kerikeri","administrative_area_level_1":"Northland","country_code":"NZ","country":"New Zealand","postal_code":"0293","route":"457 Kerikeri Rd","formatted_address":"3\/457 Kerikeri Rd, Kerikeri 0293, New Zealand"}},{"business_url":"http:\/\/www.whangareilawnmowingservice.com","yp_url":"https:\/\/yellow.co.nz\/y\/whangarei-lawnmowing-service?src=name","addrInfo":{"lat":-35.7505489,"lng":174.3653181,"street_number":"4","locality":"Whangarei","administrative_area_level_1":"Northland","country_code":"NZ","country":"New Zealand","postal_code":"0110","route":"4 Glover Pl","formatted_address":"4 Glover Pl, Onerahi, Whangarei 0110, New Zealand"}},{"business_url":"http:\/\/www.acerental.co.nz","yp_url":"https:\/\/yellow.co.nz\/y\/ace-rental-waipapa-road?src=name","addrInfo":{"lat":-35.9288433,"lng":173.8877431,"street_number":"112","locality":"Dargaville","administrative_area_level_1":"Northland","country_code":"NZ","country":"New Zealand","postal_code":"0372","route":"112 Jervois St","formatted_address":"112 Jervois St, Dargaville 0372, New Zealand"}},{"business_url":"http:\/\/www.robinsonasphalts.co.nz","yp_url":"https:\/\/yellow.co.nz\/y\/robinson-asphalts?src=name","addrInfo":{"lat":-35.6724863,"lng":174.3014894,"street_number":"32","locality":"Whangarei","administrative_area_level_1":"Northland","country_code":"NZ","country":"New Zealand","postal_code":"0112","route":"32 Winger Cres","formatted_address":"32 Winger Cres, Kamo, Whangarei 0112, New Zealand"}},{"business_url":"http:\/\/www.cableprice.co.nz","yp_url":"https:\/\/yellow.co.nz\/y\/cableprice-nz-port?src=name","addrInfo":{"lat":-35.7483861,"lng":174.313384,"street_number":"43","locality":"Whangarei","administrative_area_level_1":"Northland","country_code":"NZ","country":"New Zealand","postal_code":"0110","route":"43 Southend Ave","formatted_address":"43 Southend Ave, Raumanga, Whangarei 0110, New Zealand"}},{"business_url":"http:\/\/www.abequipment.co.nz","yp_url":"https:\/\/yellow.co.nz\/y\/ab-equipment-raumanga?src=name","addrInfo":{"lat":-35.7453732,"lng":174.3234449,"street_number":"131","locality":"Whangarei","administrative_area_level_1":"Northland","country_code":"NZ","country":"New Zealand","postal_code":"0110","route":"131 Kioreroa Rd","formatted_address":"131 Kioreroa Rd, Port Whangarei, Whangarei 0110, New Zealand"}},{"business_url":"http:\/\/www.acerental.co.nz","yp_url":"https:\/\/yellow.co.nz\/y\/ace-rental?src=name","addrInfo":{"lat":-35.2087127,"lng":173.9305108,"street_number":"291","locality":"Waipapa","administrative_area_level_1":"Northland","country_code":"NZ","country":"New Zealand","postal_code":"0295","route":"291 Waipapa Rd","formatted_address":"291 Waipapa Rd, Waipapa 0295, New Zealand"}},{"business_url":"http:\/\/www.autocare.co.nz","yp_url":"https:\/\/yellow.co.nz\/y\/autocare-service-centre-dent?src=name","addrInfo":{"lat":-35.7263835,"lng":174.3274515,"street_number":"116","locality":"Whangarei","administrative_area_level_1":"Northland","country_code":"NZ","country":"New Zealand","postal_code":"0110","route":"116 Lower Dent St","formatted_address":"116 Lower Dent St, Whangarei, Whangarei 0110, New Zealand"}},{"business_url":"http:\/\/www.cowleyshire.co.nz","yp_url":"https:\/\/yellow.co.nz\/y\/cowleys-hire-centres-commerce?src=name","addrInfo":{"lat":-35.7310407,"lng":174.3257045,"street_number":"54","locality":"Whangarei","administrative_area_level_1":"Northland","country_code":"NZ","country":"New Zealand","postal_code":"0110","route":"54 Commerce St","formatted_address":"54 Commerce St, Whangarei, Whangarei 0110, New Zealand"}}]