[{"business_url":"http:\/\/www.waipapalandscapesupplies.com","yp_url":"https:\/\/yellow.co.nz\/y\/waipapa-landscape-waipapa?src=name","addrInfo":{"lat":-35.2133501,"lng":173.9191704,"street_number":"17","locality":"Waipapa","administrative_area_level_1":"Northland","country_code":"NZ","country":"New Zealand","postal_code":"0295","route":"17 Pataka Ln","formatted_address":"17 Pataka Ln, Waipapa 0295, New Zealand"}},{"business_url":"http:\/\/www.greenfingers-whangarei.co.nz","yp_url":"https:\/\/yellow.co.nz\/y\/greenfingers-growing-mixes-kamo?src=name","addrInfo":{"lat":-35.6768068,"lng":174.2984353,"street_number":"500","locality":"Whangarei","administrative_area_level_1":"Northland","country_code":"NZ","country":"New Zealand","postal_code":"0112","route":"500 Kamo Rd","formatted_address":"500 Kamo Rd, Kamo, Whangarei 0112, New Zealand"}},{"business_url":"http:\/\/www.tallpoppiesnz.co.nz","yp_url":"https:\/\/yellow.co.nz\/y\/tall-poppies-landscape?src=name","addrInfo":{"lat":-38.0044529,"lng":175.3270763,"street_number":"424","locality":"Te Awamutu","administrative_area_level_1":"Waikato","country_code":"NZ","country":"New Zealand","postal_code":"3800","route":"424 Ohaupo Rd","formatted_address":"424 Ohaupo Rd, Te Awamutu 3800, New Zealand"}},{"business_url":"http:\/\/www.taurangatopsoil.co.nz","yp_url":"https:\/\/yellow.co.nz\/y\/tauranga-topsoil-supplies-pyes?src=name","addrInfo":{"lat":-37.7457604,"lng":176.1004337,"street_number":"232","locality":"Tauranga","administrative_area_level_1":"Bay Of Plenty","country_code":"NZ","country":"New Zealand","postal_code":"3171","route":"232 Taurikura Dr","formatted_address":"232 Taurikura Dr, Tauriko, Tauranga 3171, New Zealand"}},{"business_url":"http:\/\/www.cowleylandscapesupplies.co.nz","yp_url":"https:\/\/yellow.co.nz\/y\/cowley-landscape-supplies-spotswood?src=name","addrInfo":{"lat":-39.0758982,"lng":174.0324481,"street_number":"16","locality":"New Plymouth","administrative_area_level_1":"Taranaki","country_code":"NZ","country":"New Zealand","postal_code":"4310","route":"16 Manadon St","formatted_address":"16 Manadon St, Spotswood, New Plymouth 4310, New Zealand"}},{"business_url":"http:\/\/www.daltons.co.nz","yp_url":"https:\/\/yellow.co.nz\/y\/daltons-garden-landscape?src=name","addrInfo":{"lat":-37.6552432,"lng":176.192599,"street_number":"57","locality":"Tauranga","administrative_area_level_1":"Bay Of Plenty","country_code":"NZ","country":"New Zealand","postal_code":"3116","route":"57 Hull Rd","formatted_address":"57 Hull Rd, Mount Maunganui, Tauranga 3116, New Zealand"}},{"business_url":"http:\/\/www.itm.co.nz\/","yp_url":"https:\/\/yellow.co.nz\/y\/itm-tarndale-grove-2?src=name","addrInfo":{"lat":-36.7453355,"lng":174.7009047,"street_number":"38","locality":"Auckland","administrative_area_level_1":"Auckland","country_code":"NZ","country":"New Zealand","postal_code":"0632","route":"38 Tarndale Grove","formatted_address":"38 Tarndale Grove, Rosedale, Auckland 0632, New Zealand"}},{"business_url":"http:\/\/gardngro.co.nz","yp_url":"https:\/\/yellow.co.nz\/y\/gardn-gro?src=name","addrInfo":{"lat":-37.0757408,"lng":174.9688839,"street_number":"76","locality":"Papakura","administrative_area_level_1":"Auckland","country_code":"NZ","country":"New Zealand","postal_code":"2110","route":"76 Hunua Rd","formatted_address":"76 Hunua Rd, Papakura, Papakura 2110, New Zealand"}},{"business_url":"http:\/\/www.barkdistributors.co.nz","yp_url":"https:\/\/yellow.co.nz\/y\/bark-soil-growing-media?src=name","addrInfo":{"lat":-36.8041656,"lng":174.615355,"street_number":"3","locality":"Auckland","administrative_area_level_1":"Auckland","country_code":"NZ","country":"New Zealand","postal_code":"0618","route":"3 Spedding Rd","formatted_address":"3 Spedding Rd, Whenuapai, Auckland 0618, New Zealand"}},{"business_url":"http:\/\/www.cosio.co.nz","yp_url":"https:\/\/yellow.co.nz\/y\/cosio-industries-lansford?src=name","addrInfo":{"lat":-36.9060242,"lng":174.6982899,"street_number":"27-33","locality":"Auckland","administrative_area_level_1":"Auckland","country_code":"NZ","country":"New Zealand","postal_code":"0600","route":"27-33 Lansford Cres","formatted_address":"27-33 Lansford Cres, Avondale, Auckland 0600, New Zealand"}}]