[{"business_url":"http:\/\/www.northtec.ac.nz","yp_url":"https:\/\/yellow.co.nz\/y\/northtec-international-office?src=name&c=1064","addrInfo":{"lat":-35.7405336,"lng":174.304154,"street_number":"55","locality":"Whangarei","administrative_area_level_1":"Northland","country_code":"NZ","country":"New Zealand","postal_code":"0110","route":"55 Raumanga Valley Rd","formatted_address":"55 Raumanga Valley Rd, Raumanga, Whangarei 0110, New Zealand"}},{"business_url":"http:\/\/www.languages.ac.nz","yp_url":"https:\/\/yellow.co.nz\/y\/languages-international-auckland?src=name&c=1064","addrInfo":{"lat":-36.8494793,"lng":174.768921,"street_number":"27","locality":"Auckland","administrative_area_level_1":"Auckland","country_code":"NZ","country":"New Zealand","postal_code":"1010","route":"27 Princes St","formatted_address":"27 Princes St, Auckland, Auckland 1010, New Zealand"}},{"business_url":"http:\/\/www.edmas.co.nz","yp_url":"https:\/\/yellow.co.nz\/y\/dr-lauran-massey?src=name&c=1064","addrInfo":{"lat":-36.8733696,"lng":174.7392025,"street_number":"575","locality":"Auckland","administrative_area_level_1":"Auckland","country_code":"NZ","country":"New Zealand","postal_code":"1021","route":"575 New N Rd","formatted_address":"6\/575 New N Rd, Kingsland, Auckland 1021, New Zealand"}},{"business_url":"http:\/\/www.bopels.school.nz","yp_url":"https:\/\/yellow.co.nz\/y\/bay-of-plenty-english-language?src=name&c=1064","addrInfo":{"lat":-37.6857855,"lng":176.1668446,"street_number":"127","locality":"Tauranga","administrative_area_level_1":"Bay Of Plenty","country_code":"NZ","country":"New Zealand","postal_code":"3110","route":"127 Durham St","formatted_address":"127 Durham St, Tauranga, Tauranga 3110, New Zealand"}},{"business_url":"http:\/\/www.nsls.ac.nz","yp_url":"https:\/\/yellow.co.nz\/y\/north-shore-language?src=name&c=1064","addrInfo":{"lat":-36.7737494,"lng":174.7413594,"street_number":"122","locality":"Auckland","administrative_area_level_1":"Auckland","country_code":"NZ","country":"New Zealand","postal_code":"0627","route":"122 Wairau Rd","formatted_address":"122 Wairau Rd, Wairau Valley, Auckland 0627, New Zealand"}},{"business_url":"http:\/\/www.activity.co.nz","yp_url":"https:\/\/yellow.co.nz\/y\/coromandel-outdoor-language?src=name&c=1064","addrInfo":{"lat":-36.842941,"lng":175.6992838,"street_number":"21","locality":"Whitianga","administrative_area_level_1":"Waikato","country_code":"NZ","country":"New Zealand","postal_code":"3510","route":"21 Robinson Rd","formatted_address":"21 Robinson Rd, Whitianga 3510, New Zealand"}},{"business_url":"http:\/\/www.baylearning.co.nz","yp_url":"https:\/\/yellow.co.nz\/y\/bay-learning-academy?src=name&c=1064","addrInfo":{"lat":-37.6738625,"lng":176.2259651,"street_number":"22","locality":"Tauranga","administrative_area_level_1":"Bay Of Plenty","country_code":"NZ","country":"New Zealand","postal_code":"3116","route":"22 Taupo Ave","formatted_address":"2\/22 Taupo Ave, Mount Maunganui, Tauranga 3116, New Zealand"}},{"business_url":"http:\/\/www.bridgeenglish.co.nz","yp_url":"https:\/\/yellow.co.nz\/y\/bridge-international-college?src=name&c=1064","addrInfo":{"lat":-36.8462563,"lng":174.7658476,"street_number":"115","locality":"Auckland","administrative_area_level_1":"Auckland","country_code":"NZ","country":"New Zealand","postal_code":"1010","route":"115 Queen St","formatted_address":"7\/115 Queen St, Auckland, Auckland 1010, New Zealand"}},{"business_url":"http:\/\/www.euroasia.co.nz","yp_url":"https:\/\/yellow.co.nz\/y\/euroasia-language-academy?src=name&c=1064","addrInfo":{"lat":-36.862739,"lng":174.7791212,"street_number":"10","locality":"Auckland","administrative_area_level_1":"Auckland","country_code":"NZ","country":"New Zealand","postal_code":"1052","route":"10 Titoki St","formatted_address":"10 Titoki St, Parnell, Auckland 1052, New Zealand"}},{"business_url":"http:\/\/www.english.co.nz","yp_url":"https:\/\/yellow.co.nz\/y\/auckland-english-academy?src=name&c=1064","addrInfo":{"lat":-36.8496606,"lng":174.7654267,"street_number":"238","locality":"Auckland","administrative_area_level_1":"Auckland","country_code":"NZ","country":"New Zealand","postal_code":"1010","route":"238 Queen St","formatted_address":"238 Queen St, Auckland, Auckland 1010, New Zealand"}},{"business_url":"http:\/\/www.novanz.com","yp_url":"https:\/\/yellow.co.nz\/y\/buckswood-st-nova?src=name&c=1064","addrInfo":{"lat":-36.7891089,"lng":174.7691379,"street_number":"7","locality":"Auckland","administrative_area_level_1":"Auckland","country_code":"NZ","country":"New Zealand","postal_code":"0622","route":"7 Auburn St","formatted_address":"7 Auburn St, Takapuna, Auckland 0622, New Zealand"}},{"business_url":"http:\/\/www.tloec.co.nz","yp_url":"https:\/\/yellow.co.nz\/y\/taupo-language-outdoor-education-centre?src=name&c=1064","addrInfo":{"lat":-38.6901694,"lng":176.0755101,"street_number":"111","locality":"Taupo","administrative_area_level_1":"Waikato","country_code":"NZ","country":"New Zealand","postal_code":"3330","route":"111 Tuwharetoa St","formatted_address":"111 Tuwharetoa St, Taupo 3330, New Zealand"}},{"business_url":"http:\/\/www.dominion.school.nz","yp_url":"https:\/\/yellow.co.nz\/y\/dominion-english-school?src=name&c=1064","addrInfo":{"lat":-36.8474952,"lng":174.7655396,"street_number":"155","locality":"Auckland","administrative_area_level_1":"Auckland","country_code":"NZ","country":"New Zealand","postal_code":"1010","route":"155 Queen St","formatted_address":"8, 155 Queen St, Auckland, Auckland 1010, New Zealand"}},{"business_url":"http:\/\/www.e-v-a.co.nz","yp_url":"https:\/\/yellow.co.nz\/y\/evakona-education-whitianga?src=name&c=1064","addrInfo":{"lat":-36.8413472,"lng":175.6988665,"street_number":"18","locality":"Whitianga","administrative_area_level_1":"Waikato","country_code":"NZ","country":"New Zealand","postal_code":"3510","route":"18 South Hwy","formatted_address":"18 South Hwy, Whitianga 3510, New Zealand"}},{"business_url":"http:\/\/www.aec.ac.nz","yp_url":"https:\/\/yellow.co.nz\/y\/auckland-edinburgh-college?src=name&c=1064","addrInfo":{"lat":-36.99178,"lng":174.8785718,"street_number":"20","locality":"Auckland","administrative_area_level_1":"Auckland","country_code":"NZ","country":"New Zealand","postal_code":"2104","route":"20 Amersham Way","formatted_address":"20 Amersham Way, Manukau, Auckland 2104, New Zealand"}},{"business_url":"http:\/\/www.study-english.com","yp_url":"https:\/\/yellow.co.nz\/y\/mount-maunganui-language?src=name&c=1064","addrInfo":{"lat":-37.6440439,"lng":176.1861379,"street_number":"17","locality":"Tauranga","administrative_area_level_1":"Bay Of Plenty","country_code":"NZ","country":"New Zealand","postal_code":"3116","route":"17 Totara St","formatted_address":"17 Totara St, Mount Maunganui, Tauranga 3116, New Zealand"}},{"business_url":"http:\/\/www.rela.co.nz","yp_url":"https:\/\/yellow.co.nz\/y\/rotorua-english-language?src=name&c=1064","addrInfo":{"lat":-38.1371577,"lng":176.2423765,"street_number":"1460","locality":"Rotorua","administrative_area_level_1":"Bay Of Plenty","country_code":"NZ","country":"New Zealand","postal_code":"3010","route":"1460 Pukuatua St","formatted_address":"1460 Pukuatua St, Rotorua 3010, New Zealand"}},{"business_url":"http:\/\/www.worldwideschoolofenglish.com","yp_url":"https:\/\/yellow.co.nz\/y\/worldwide-school-of?src=name&c=1064","addrInfo":{"lat":-36.8499348,"lng":174.7649255,"street_number":"233","locality":"Auckland","administrative_area_level_1":"Auckland","country_code":"NZ","country":"New Zealand","postal_code":"1010","route":"233 Queen St","formatted_address":"233 Queen St, Auckland, Auckland 1010, New Zealand"}},{"business_url":"http:\/\/www.lsi.edu","yp_url":"https:\/\/yellow.co.nz\/y\/language-studies-international?src=name&c=1064","addrInfo":{"lat":-36.856262,"lng":174.7609808,"street_number":"10-12","locality":"Auckland","administrative_area_level_1":"Auckland","country_code":"NZ","country":"New Zealand","postal_code":"1010","route":"10-12 Scotia Pl","formatted_address":"10-12 Scotia Pl, Auckland, Auckland 1010, New Zealand"}},{"business_url":"http:\/\/www.whitireia.ac.nz","yp_url":"https:\/\/yellow.co.nz\/y\/whitireia-polytechnic-auckland?src=name&c=1064","addrInfo":{"lat":-36.855361,"lng":174.7631039,"street_number":"450","locality":"Auckland","administrative_area_level_1":"Auckland","country_code":"NZ","country":"New Zealand","postal_code":"1010","route":"450 Queen St","formatted_address":"450 Queen St, Auckland, Auckland 1010, New Zealand"}}]