[{"business_url":"http:\/\/sites.google.com\/site\/denisejohnstoncounsellor\/","yp_url":"https:\/\/yellow.co.nz\/y\/denise-johnston-b-couns?src=name","addrInfo":{"lat":-39.049934,"lng":174.0949677,"street_number":"17","locality":"New Plymouth","administrative_area_level_1":"Taranaki","country_code":"NZ","country":"New Zealand","postal_code":"4312","route":"17 Nobs Line","formatted_address":"17 Nobs Line, Strandon, New Plymouth 4312, New Zealand"}},{"business_url":"http:\/\/www.maxlloyd.co.nz","yp_url":"https:\/\/yellow.co.nz\/y\/max-lloyd?src=name","addrInfo":{"lat":-36.8542761,"lng":174.7480298,"street_number":"21","locality":"Auckland","administrative_area_level_1":"Auckland","country_code":"NZ","country":"New Zealand","postal_code":"1011","route":"21 Anglesea St","formatted_address":"21 Anglesea St, Freemans Bay, Auckland 1011, New Zealand"}},{"business_url":"http:\/\/www.visionwest.org.nz\/counselling-centre.html","yp_url":"https:\/\/yellow.co.nz\/y\/visionwest-counselling-centre?src=name","addrInfo":{"lat":-36.9174151,"lng":174.6489495,"street_number":"93","locality":"Auckland","administrative_area_level_1":"Auckland","country_code":"NZ","country":"New Zealand","postal_code":"0602","route":"93 Glendale Rd","formatted_address":"93 Glendale Rd, Glen Eden, Auckland 0602, New Zealand"}},{"business_url":"http:\/\/www.pathwayscounselling.co.nz","yp_url":"https:\/\/yellow.co.nz\/y\/pathways-counselling?src=name","addrInfo":{"lat":-38.6877122,"lng":176.0709912,"street_number":"30","locality":"Taupo","administrative_area_level_1":"Waikato","country_code":"NZ","country":"New Zealand","postal_code":"3330","route":"30 Heuheu St","formatted_address":"30 Heuheu St, Taupo 3330, New Zealand"}},{"business_url":"http:\/\/www.petersgate.org.nz","yp_url":"https:\/\/yellow.co.nz\/y\/petersgate-counselling-centre?src=name","addrInfo":{"lat":-43.5311213,"lng":172.56837,"street_number":"29","locality":"Christchurch","administrative_area_level_1":"Canterbury","country_code":"NZ","country":"New Zealand","postal_code":"8042","route":"29 Yaldhurst Rd","formatted_address":"29 Yaldhurst Rd, Sockburn, Christchurch 8042, New Zealand"}},{"business_url":"http:\/\/www.gildamorganti.co.nz","yp_url":"https:\/\/yellow.co.nz\/y\/gilda-morganti-counsellor?src=name","addrInfo":{"lat":-39.4899783,"lng":176.9170256,"street_number":"50","locality":"Napier","administrative_area_level_1":"Hawke's Bay","country_code":"NZ","country":"New Zealand","postal_code":"4110","route":"50 Tennyson St","formatted_address":"50 Tennyson St, Napier South, Napier 4110, New Zealand"}},{"business_url":"http:\/\/www.aspectscounselling.nz","yp_url":"https:\/\/yellow.co.nz\/y\/aspects-counselling?src=name","addrInfo":{"lat":-45.8907325,"lng":170.4771634,"street_number":"48","locality":"Dunedin","administrative_area_level_1":"Otago","country_code":"NZ","country":"New Zealand","postal_code":"9011","route":"48 Bridger St","formatted_address":"48 Bridger St, Maryhill, Dunedin 9011, New Zealand"}},{"business_url":"http:\/\/www.emergecounselling.co.nz","yp_url":"https:\/\/yellow.co.nz\/y\/camilla-cathro-emerge?src=name","addrInfo":{"lat":-45.8709334,"lng":170.5034815,"street_number":"40","locality":"Dunedin","administrative_area_level_1":"Otago","country_code":"NZ","country":"New Zealand","postal_code":"9016","route":"40 Filleul St","formatted_address":"40 Filleul St, Dunedin, Dunedin 9016, New Zealand"}},{"business_url":"http:\/\/www.maryproctercounselling.co.nz","yp_url":"https:\/\/yellow.co.nz\/y\/mary-procter-counselling?src=name","addrInfo":{"lat":-40.3506656,"lng":175.6198629,"street_number":"235","locality":"Palmerston North","administrative_area_level_1":"Manawatu-Wanganui","country_code":"NZ","country":"New Zealand","postal_code":"4414","route":"235 Broadway Ave","formatted_address":"235 Broadway Ave, Palmerston North, Palmerston North 4414, New Zealand"}},{"business_url":"http:\/\/www.naturaltherapypages.co.nz\/therapist\/383","yp_url":"https:\/\/yellow.co.nz\/y\/mary-pattie-mnzac?src=name","addrInfo":{"lat":-40.3432648,"lng":175.6075476,"street_number":"37","locality":"Palmerston North","administrative_area_level_1":"Manawatu-Wanganui","country_code":"NZ","country":"New Zealand","postal_code":"4410","route":"37 North St","formatted_address":"37 North St, Palmerston North, Palmerston North 4410, New Zealand"}}]