[{"business_url":"http:\/\/www.hubands.co.nz","yp_url":"https:\/\/yellow.co.nz\/y\/hubands-heat-pumps?src=name","addrInfo":{"lat":-35.7409925,"lng":174.3335077,"street_number":"15","locality":"Whangarei","administrative_area_level_1":"Northland","country_code":"NZ","country":"New Zealand","postal_code":"0110","route":"15 Kioreroa Rd","formatted_address":"15 Kioreroa Rd, Port Whangarei, Whangarei 0110, New Zealand"}},{"business_url":"http:\/\/www.stihlshop.co.nz\/Mt_Maunganui_153.aspx","yp_url":"https:\/\/yellow.co.nz\/y\/stihl-shop-mt-mount?src=name","addrInfo":{"lat":-37.6667629,"lng":176.208357,"street_number":"15","locality":"Tauranga","administrative_area_level_1":"Bay Of Plenty","country_code":"NZ","country":"New Zealand","postal_code":"3116","route":"15 Macdonald St","formatted_address":"15 Macdonald St, Mount Maunganui, Tauranga 3116, New Zealand"}},{"business_url":"http:\/\/www.autolodge.co.nz","yp_url":"https:\/\/yellow.co.nz\/y\/auto-lodge-motor?src=name","addrInfo":{"lat":-39.0528909,"lng":174.089142,"street_number":"393","locality":"New Plymouth","administrative_area_level_1":"Taranaki","country_code":"NZ","country":"New Zealand","postal_code":"4312","route":"393 Devon St E","formatted_address":"393 Devon St E, Strandon, New Plymouth 4312, New Zealand"}},{"business_url":"http:\/\/www.flbone.co.nz","yp_url":"https:\/\/yellow.co.nz\/y\/fl-bone-hardware-newmarket?src=name","addrInfo":{"lat":-36.870068,"lng":174.7761893,"street_number":"14","locality":"Auckland","administrative_area_level_1":"Auckland","country_code":"NZ","country":"New Zealand","postal_code":"1023","route":"14 Morrow St","formatted_address":"14 Morrow St, Newmarket, Auckland 1023, New Zealand"}},{"business_url":"http:\/\/www.swansontransport.co.nz","yp_url":"https:\/\/yellow.co.nz\/y\/swanson-transport-swanson-3?src=name","addrInfo":{"lat":-36.8663388,"lng":174.5872545,"street_number":"646","locality":"Auckland","administrative_area_level_1":"Auckland","country_code":"NZ","country":"New Zealand","postal_code":"0612","route":"646 Swanson Rd","formatted_address":"646 Swanson Rd, Swanson, Auckland 0612, New Zealand"}},{"business_url":"http:\/\/www.ikes.co.nz","yp_url":"https:\/\/yellow.co.nz\/y\/ikes-emporium?src=name","addrInfo":{"lat":-36.7136601,"lng":174.7477617,"street_number":"92","locality":"Auckland","administrative_area_level_1":"Auckland","country_code":"NZ","country":"New Zealand","postal_code":"0630","route":"92 Clyde Rd","formatted_address":"92 Clyde Rd, Browns Bay, Auckland 0630, New Zealand"}},{"business_url":"http:\/\/www.rubbertrack.co.nz","yp_url":"https:\/\/yellow.co.nz\/y\/rubber-track-wiri?src=name","addrInfo":{"lat":-37.0022396,"lng":174.8745965,"street_number":"3","locality":"Auckland","administrative_area_level_1":"Auckland","country_code":"NZ","country":"New Zealand","postal_code":"2104","route":"3 Joval Pl","formatted_address":"3 Joval Pl, Wiri, Auckland 2104, New Zealand"}},{"business_url":"http:\/\/www.vikingltd.co.nz","yp_url":"https:\/\/yellow.co.nz\/y\/viking-ironcraft-1978-te?src=name","addrInfo":{"lat":-36.8774752,"lng":174.6514513,"street_number":"151","locality":"Auckland","administrative_area_level_1":"Auckland","country_code":"NZ","country":"New Zealand","postal_code":"0610","route":"151 McLeod Rd","formatted_address":"151 McLeod Rd, Te Atatu South, Auckland 0610, New Zealand"}},{"business_url":"http:\/\/www.masterframe.co.nz","yp_url":"https:\/\/yellow.co.nz\/y\/masterframe-nz-1998?src=name","addrInfo":{"lat":-36.8925557,"lng":174.8266292,"street_number":"143","locality":"Auckland","administrative_area_level_1":"Auckland","country_code":"NZ","country":"New Zealand","postal_code":"1051","route":"143 Marua Rd","formatted_address":"143 Marua Rd, Mount Wellington, Auckland 1051, New Zealand"}},{"business_url":"http:\/\/www.southwaikatocycles.co.nz","yp_url":"https:\/\/yellow.co.nz\/y\/south-waikato-cycles?src=name","addrInfo":{"lat":-38.2188608,"lng":175.872369,"street_number":"231","locality":"Tokoroa","administrative_area_level_1":"Waikato","country_code":"NZ","country":"New Zealand","postal_code":"3420","route":"231 Rosebery St","formatted_address":"231 Rosebery St, Tokoroa 3420, New Zealand"}},{"business_url":"http:\/\/www.walliscycles.co.nz","yp_url":"https:\/\/yellow.co.nz\/y\/wallis-cycles?src=name","addrInfo":{"lat":-36.8971084,"lng":174.8082984,"street_number":"2","locality":"Auckland","administrative_area_level_1":"Auckland","country_code":"NZ","country":"New Zealand","postal_code":"1051","route":"2 Robert St","formatted_address":"4\/2 Robert St, Ellerslie, Auckland 1051, New Zealand"}},{"business_url":"http:\/\/www.fantech.co.nz","yp_url":"https:\/\/yellow.co.nz\/y\/fantech-nz-lovell-court?src=name","addrInfo":{"lat":-36.7443642,"lng":174.6950794,"street_number":"7","locality":"Auckland","administrative_area_level_1":"Auckland","country_code":"NZ","country":"New Zealand","postal_code":"0632","route":"7 Lovell Ct","formatted_address":"7 Lovell Ct, Rosedale, Auckland 0632, New Zealand"}},{"business_url":"http:\/\/www.mountgolf.co.nz","yp_url":"https:\/\/yellow.co.nz\/y\/mount-maunganui-golf?src=name","addrInfo":{"lat":-37.6627755,"lng":176.2130153,"street_number":"15","locality":"Tauranga","administrative_area_level_1":"Bay Of Plenty","country_code":"NZ","country":"New Zealand","postal_code":"3116","route":"15 Fairway Ave","formatted_address":"15 Fairway Ave, Mount Maunganui, Tauranga 3116, New Zealand"}},{"business_url":"http:\/\/www.4seasons.co.nz","yp_url":"https:\/\/yellow.co.nz\/y\/4-seasons-new?src=name","addrInfo":{"lat":-39.051734,"lng":174.095268,"street_number":"460","locality":"New Plymouth","administrative_area_level_1":"Taranaki","country_code":"NZ","country":"New Zealand","postal_code":"4312","route":"460 Devon St E","formatted_address":"460 Devon St E, Strandon, New Plymouth 4312, New Zealand"}},{"business_url":"http:\/\/waterfords.co.nz\/","yp_url":"https:\/\/yellow.co.nz\/y\/waterford-paint-accessories-mount?src=name","addrInfo":{"lat":-36.9050477,"lng":174.72924,"street_number":"80","locality":"Auckland","administrative_area_level_1":"Auckland","country_code":"NZ","country":"New Zealand","postal_code":"1041","route":"80 Stoddard Rd","formatted_address":"80 Stoddard Rd, Mount Roskill, Auckland 1041, New Zealand"}},{"business_url":"http:\/\/www.ruapehudc.govt.nz","yp_url":"https:\/\/yellow.co.nz\/y\/ruapehu-district-council-taumarunui?src=name","addrInfo":{"lat":-38.8854911,"lng":175.2635008,"street_number":"59","locality":"Taumarunui","administrative_area_level_1":"Manawatu-Wanganui","country_code":"NZ","country":"New Zealand","postal_code":"3920","route":"59 Huia St","formatted_address":"59 Huia St, Taumarunui 3920, New Zealand"}},{"business_url":"http:\/\/www.kiwiantennas.co.nz","yp_url":"https:\/\/yellow.co.nz\/y\/kiwi-antennas?src=name","addrInfo":{"lat":-36.8637666,"lng":174.6303633,"street_number":"8","locality":"Auckland","administrative_area_level_1":"Auckland","country_code":"NZ","country":"New Zealand","postal_code":"0610","route":"8 Moselle Ave","formatted_address":"11\/8 Moselle Ave, Henderson, Auckland 0610, New Zealand"}},{"business_url":"http:\/\/www.avantiplus.co.nz\/mtmaunganui","yp_url":"https:\/\/yellow.co.nz\/y\/avantiplus-mt-maunganui-mount?src=name","addrInfo":{"lat":-37.6462456,"lng":176.1868296,"street_number":"37","locality":"Tauranga","administrative_area_level_1":"Bay Of Plenty","country_code":"NZ","country":"New Zealand","postal_code":"3116","route":"37 Totara St","formatted_address":"37 Totara St, Mount Maunganui, Tauranga 3116, New Zealand"}},{"business_url":"http:\/\/www.taurangamobilemechanic.co.nz","yp_url":"https:\/\/yellow.co.nz\/y\/mobile-automotive-2006-tauriko?src=name","addrInfo":{"lat":-37.7153451,"lng":176.1163304,"street_number":"20","locality":"Tauranga","administrative_area_level_1":"Bay Of Plenty","country_code":"NZ","country":"New Zealand","postal_code":"3110","route":"20 Westview Pl","formatted_address":"20 Westview Pl, Tauriko, Tauranga 3110, New Zealand"}},{"business_url":"http:\/\/www.diprosemiller.co.nz","yp_url":"https:\/\/yellow.co.nz\/y\/diprose-miller?src=name","addrInfo":{"lat":-37.5468208,"lng":175.7157161,"street_number":"61","locality":"Te Aroha","administrative_area_level_1":"Waikato","country_code":"NZ","country":"New Zealand","postal_code":"3320","route":"61 Whitaker St","formatted_address":"53\/61 Whitaker St, Te Aroha 3320, New Zealand"}},{"business_url":"http:\/\/bayfairandpapamoavets.co.nz","yp_url":"https:\/\/yellow.co.nz\/y\/papamoa-vets-papamoa?src=name","addrInfo":{"lat":-37.6983817,"lng":176.2843562,"street_number":"3","locality":"Papamoa","administrative_area_level_1":"Bay Of Plenty","country_code":"NZ","country":"New Zealand","postal_code":"3118","route":"3 Percy Rd","formatted_address":"3 Percy Rd, Papamoa Beach, Papamoa 3118, New Zealand"}},{"business_url":"http:\/\/www.sharpeye.co.nz","yp_url":"https:\/\/yellow.co.nz\/y\/sharpeye-porana?src=name","addrInfo":{"lat":-36.7823276,"lng":174.7434795,"street_number":"22","locality":"Auckland","administrative_area_level_1":"Auckland","country_code":"NZ","country":"New Zealand","postal_code":"0627","route":"22 Porana Rd","formatted_address":"22 Porana Rd, Wairau Valley, Auckland 0627, New Zealand"}},{"business_url":"http:\/\/www.duncanscanvas.co.nz\/","yp_url":"https:\/\/yellow.co.nz\/y\/duncans-canvas-hamilton?src=name","addrInfo":{"lat":-37.7601138,"lng":175.2491369,"street_number":"530","locality":"Hamilton","administrative_area_level_1":"Waikato","country_code":"NZ","country":"New Zealand","postal_code":"3200","route":"530 Te Rapa Rd","formatted_address":"530 Te Rapa Rd, Te Rapa, Hamilton 3200, New Zealand"}},{"business_url":"http:\/\/www.taurangarentalcar.co.nz\/","yp_url":"https:\/\/yellow.co.nz\/y\/pacific-auto-rentals?src=name","addrInfo":{"lat":-37.6661242,"lng":176.1965937,"street_number":"107","locality":"Tauranga","administrative_area_level_1":"Bay Of Plenty","country_code":"NZ","country":"New Zealand","postal_code":"3116","route":"107 Hewletts Rd","formatted_address":"107 Hewletts Rd, Mount Maunganui, Tauranga 3116, New Zealand"}},{"business_url":"http:\/\/bayfairandpapamoavets.co.nz\/","yp_url":"https:\/\/yellow.co.nz\/y\/bayfair-vets-farm?src=name","addrInfo":{"lat":-37.6735863,"lng":176.2254137,"street_number":"61","locality":"Tauranga","administrative_area_level_1":"Bay Of Plenty","country_code":"NZ","country":"New Zealand","postal_code":"3116","route":"61 Farm St","formatted_address":"61 Farm St, Mount Maunganui, Tauranga 3116, New Zealand"}},{"business_url":"http:\/\/www.zealandiertours.com","yp_url":"https:\/\/yellow.co.nz\/y\/zealandier-tours-lasiandra?src=name","addrInfo":{"lat":-37.6831269,"lng":176.2360479,"street_number":"12","locality":"Tauranga","administrative_area_level_1":"Bay Of Plenty","country_code":"NZ","country":"New Zealand","postal_code":"3116","route":"12 Lasiandra Pl","formatted_address":"12 Lasiandra Pl, Mount Maunganui, Tauranga 3116, New Zealand"}},{"business_url":"http:\/\/www.marque-magnetics.co.nz","yp_url":"https:\/\/yellow.co.nz\/y\/marque-magnetics?src=name","addrInfo":{"lat":-36.8909333,"lng":174.6588583,"street_number":"11","locality":"Auckland","administrative_area_level_1":"Auckland","country_code":"NZ","country":"New Zealand","postal_code":"0602","route":"11 Culperry Rd","formatted_address":"11 Culperry Rd, Glendene, Auckland 0602, New Zealand"}},{"business_url":"http:\/\/www.marque-magnetics.co.nz","yp_url":"https:\/\/yellow.co.nz\/y\/marque-magnetics-glendene?src=name","addrInfo":{"lat":-36.8909333,"lng":174.6588583,"street_number":"11","locality":"Auckland","administrative_area_level_1":"Auckland","country_code":"NZ","country":"New Zealand","postal_code":"0602","route":"11 Culperry Rd","formatted_address":"11 Culperry Rd, Glendene, Auckland 0602, New Zealand"}},{"business_url":"http:\/\/www.rockup.co.nz","yp_url":"https:\/\/yellow.co.nz\/y\/rockup-wattie?src=name","addrInfo":{"lat":-37.0822985,"lng":175.0868537,"street_number":"35","locality":"Hunua","administrative_area_level_1":"Auckland","country_code":"NZ","country":"New Zealand","postal_code":"2583","route":"35 Wattie Rd","formatted_address":"3\/35 Wattie Rd, Hunua 2583, New Zealand"}},{"business_url":"http:\/\/www.heathcotes.co.nz","yp_url":"https:\/\/yellow.co.nz\/y\/heathcote-appliances-100-matamata?src=name","addrInfo":{"lat":-37.8099442,"lng":175.7728687,"street_number":"67","locality":"Matamata","administrative_area_level_1":"Waikato","country_code":"NZ","country":"New Zealand","postal_code":"3400","route":"67 Arawa St","formatted_address":"67 Arawa St, Matamata 3400, New Zealand"}},{"business_url":"http:\/\/www.heathcotes.co.nz","yp_url":"https:\/\/yellow.co.nz\/y\/heathcote-appliances-100?src=name","addrInfo":{"lat":-37.6580026,"lng":175.5277193,"street_number":"183","locality":"Morrinsville","administrative_area_level_1":"Waikato","country_code":"NZ","country":"New Zealand","postal_code":"3300","route":"183 Thames St","formatted_address":"183 Thames St, Morrinsville 3300, New Zealand"}},{"business_url":"http:\/\/www.heathcotes.co.nz","yp_url":"https:\/\/yellow.co.nz\/y\/heathcote-appliances-100-te?src=name","addrInfo":{"lat":-38.0096773,"lng":175.3254559,"street_number":"30","locality":"Te Awamutu","administrative_area_level_1":"Waikato","country_code":"NZ","country":"New Zealand","postal_code":"3800","route":"30 Alexandra St","formatted_address":"30 Alexandra St, Te Awamutu 3800, New Zealand"}}]