[{"business_url":"http:\/\/www.nzso.co.nz","yp_url":"https:\/\/yellow.co.nz\/y\/new-zealand-symphony?src=name&c=10474","addrInfo":{"lat":-36.8490725,"lng":174.7660616,"street_number":"61","locality":"Auckland","administrative_area_level_1":"Auckland","country_code":"NZ","country":"New Zealand","postal_code":"1010","route":"61 High St","formatted_address":"61 High St, Auckland, Auckland 1010, New Zealand"}},{"business_url":"http:\/\/www.heartstrings.co.nz","yp_url":"https:\/\/yellow.co.nz\/y\/heartstrings-music-duo?src=name&c=10474","addrInfo":{"lat":-36.928442,"lng":174.6585592,"street_number":"16","locality":"Auckland","administrative_area_level_1":"Auckland","country_code":"NZ","country":"New Zealand","postal_code":"0604","route":"16 Highland Ave","formatted_address":"16 Highland Ave, Titirangi, Auckland 0604, New Zealand"}},{"business_url":"http:\/\/www.aco.co.nz","yp_url":"https:\/\/yellow.co.nz\/y\/auckland-chamber-orchestra?src=name&c=10474","addrInfo":{"lat":-36.8521754,"lng":174.7395068,"street_number":"85","locality":"Auckland","administrative_area_level_1":"Auckland","country_code":"NZ","country":"New Zealand","postal_code":"1011","route":"85 Summer St","formatted_address":"85 Summer St, Ponsonby, Auckland 1011, New Zealand"}},{"business_url":"http:\/\/www.jazzbandsnz.co.nz","yp_url":"https:\/\/yellow.co.nz\/y\/ben-wilcock-music?src=name&c=10474","addrInfo":{"lat":-41.1849723,"lng":174.9817114,"street_number":"11","locality":"Lower Hutt","administrative_area_level_1":"Wellington","country_code":"NZ","country":"New Zealand","postal_code":"5019","route":"11 Korau Grove","formatted_address":"11 Korau Grove, Stokes Valley, Lower Hutt 5019, New Zealand"}},{"business_url":"http:\/\/southernsinfonia.org","yp_url":"https:\/\/yellow.co.nz\/y\/sourn-sinfonia-dunedin?src=name&c=10474","addrInfo":{"lat":-45.8742657,"lng":170.5017021,"street_number":"110","locality":"Dunedin","administrative_area_level_1":"Otago","country_code":"NZ","country":"New Zealand","postal_code":"9016","route":"110 Moray Pl","formatted_address":"110 Moray Pl, Dunedin, Dunedin 9016, New Zealand"}}]