[{"business_url":"http:\/\/www.vitalconnections.co.nz","yp_url":"https:\/\/yellow.co.nz\/y\/vital-connections-chiropractic-whangarei?src=name","addrInfo":{"lat":-35.7399172,"lng":174.2822916,"street_number":"425","locality":"Whangarei","administrative_area_level_1":"Northland","country_code":"NZ","country":"New Zealand","postal_code":"0110","route":"425 Maunu Rd","formatted_address":"425 Maunu Rd, Maunu, Whangarei 0110, New Zealand"}},{"business_url":"http:\/\/www.vitalconnections.co.nz","yp_url":"https:\/\/yellow.co.nz\/y\/vital-connections-chiropractic-dargaville?src=name","addrInfo":{"lat":-35.9414322,"lng":173.8697888,"street_number":"86","locality":"Dargaville","administrative_area_level_1":"Northland","country_code":"NZ","country":"New Zealand","postal_code":"0310","route":"86 Victoria St","formatted_address":"86 Victoria St, Dargaville 0310, New Zealand"}},{"business_url":"http:\/\/www.keriroad.co.nz","yp_url":"https:\/\/yellow.co.nz\/y\/kerikeri-road-chiropractic-kerikeri?src=name","addrInfo":{"lat":-35.2369883,"lng":173.9402196,"street_number":"394","locality":"Kerikeri","administrative_area_level_1":"Northland","country_code":"NZ","country":"New Zealand","postal_code":"0230","route":"394 Kerikeri Rd","formatted_address":"394 Kerikeri Rd, Kerikeri 0230, New Zealand"}},{"business_url":"http:\/\/www.northlandchiropractic.co.nz","yp_url":"https:\/\/yellow.co.nz\/y\/berry-dr-geoff-kerikeri?src=name","addrInfo":{"lat":-35.2149407,"lng":173.9457959,"street_number":"8","locality":"Kerikeri","administrative_area_level_1":"Northland","country_code":"NZ","country":"New Zealand","postal_code":"0295","route":"8 Karaka Dr","formatted_address":"8 Karaka Dr, Kerikeri 0295, New Zealand"}},{"business_url":"http:\/\/www.vitalconnections.co.nz","yp_url":"https:\/\/yellow.co.nz\/y\/vital-connections-dargaville?src=name","addrInfo":{"lat":-35.9414322,"lng":173.8697888,"street_number":"86","locality":"Dargaville","administrative_area_level_1":"Northland","country_code":"NZ","country":"New Zealand","postal_code":"0310","route":"86 Victoria St","formatted_address":"86 Victoria St, Dargaville 0310, New Zealand"}},{"business_url":"http:\/\/www.waikatochiropractic.co.nz","yp_url":"https:\/\/yellow.co.nz\/y\/waikato-chiropractic-clinic?src=name","addrInfo":{"lat":-37.8936674,"lng":175.4701321,"street_number":"31","locality":"Cambridge","administrative_area_level_1":"Waikato","country_code":"NZ","country":"New Zealand","postal_code":"3434","route":"31 Empire St","formatted_address":"31 Empire St, Cambridge 3434, New Zealand"}},{"business_url":"http:\/\/sinclairchiropractic.co.nz","yp_url":"https:\/\/yellow.co.nz\/y\/albany-bays-sinclair-chiropractic?src=name","addrInfo":{"lat":-36.7102623,"lng":174.7269863,"street_number":"10","locality":"Auckland","administrative_area_level_1":"Auckland","country_code":"NZ","country":"New Zealand","postal_code":"0632","route":"10 Oteha Valley Rd","formatted_address":"10 Oteha Valley Rd, Northcross, Auckland 0632, New Zealand"}},{"business_url":"http:\/\/www.angleseachiropractic.co.nz","yp_url":"https:\/\/yellow.co.nz\/y\/anglesea-chiropractic-clinic?src=name","addrInfo":{"lat":-37.7951272,"lng":175.2863623,"street_number":"53","locality":"Hamilton","administrative_area_level_1":"Waikato","country_code":"NZ","country":"New Zealand","postal_code":"3204","route":"53 Anglesea St","formatted_address":"53 Anglesea St, Hamilton 3204, New Zealand"}},{"business_url":"http:\/\/www.newplymouthchiropractic.co.nz","yp_url":"https:\/\/yellow.co.nz\/y\/new-plymouth-chiropractic?src=name","addrInfo":{"lat":-39.0617774,"lng":174.0619841,"street_number":"297","locality":"New Plymouth","administrative_area_level_1":"Taranaki","country_code":"NZ","country":"New Zealand","postal_code":"4310","route":"297 Devon St W","formatted_address":"297 Devon St W, New Plymouth 4310, New Zealand"}},{"business_url":"http:\/\/www.chiropracticforlife.co.nz","yp_url":"https:\/\/yellow.co.nz\/y\/chiropractic-for-life?src=name","addrInfo":{"lat":-36.7471267,"lng":174.739548,"street_number":"326","locality":"Auckland","administrative_area_level_1":"Auckland","country_code":"NZ","country":"New Zealand","postal_code":"0632","route":"326 Sunset Rd","formatted_address":"326 Sunset Rd, Sunnynook, Auckland 0632, New Zealand"}},{"business_url":"http:\/\/www.aituz.com","yp_url":"https:\/\/yellow.co.nz\/y\/aituz-chiropractic?src=name","addrInfo":{"lat":-37.7715739,"lng":175.2927321,"street_number":"274","locality":"Hamilton","administrative_area_level_1":"Waikato","country_code":"NZ","country":"New Zealand","postal_code":"3214","route":"274 Peachgrove Rd","formatted_address":"4\/274 Peachgrove Rd, Fairfield, Hamilton 3214, New Zealand"}},{"business_url":"http:\/\/www.citychiro.co.nz","yp_url":"https:\/\/yellow.co.nz\/y\/city-chiropractic-auckland?src=name","addrInfo":{"lat":-36.8493458,"lng":174.7654121,"street_number":"220","locality":"Auckland","administrative_area_level_1":"Auckland","country_code":"NZ","country":"New Zealand","postal_code":"1010","route":"220 Queen St","formatted_address":"2\/220 Queen St, Auckland, Auckland 1010, New Zealand"}},{"business_url":"http:\/\/www.chiroworks.co.nz","yp_url":"https:\/\/yellow.co.nz\/y\/chiroworks?src=name","addrInfo":{"lat":-36.8988412,"lng":174.6151527,"street_number":"11","locality":"Auckland","administrative_area_level_1":"Auckland","country_code":"NZ","country":"New Zealand","postal_code":"0612","route":"11 Parrs Cross Rd","formatted_address":"11 Parrs Cross Rd, Henderson, Auckland 0612, New Zealand"}},{"business_url":"http:\/\/www.gregmileschiropractor.co.nz\/new-plymouth-chiropractor\/","yp_url":"https:\/\/yellow.co.nz\/y\/gmc-chiropractors-eliot?src=name","addrInfo":{"lat":-39.05836,"lng":174.0845769,"street_number":"77","locality":"New Plymouth","administrative_area_level_1":"Taranaki","country_code":"NZ","country":"New Zealand","postal_code":"4310","route":"77 Eliot St","formatted_address":"77 Eliot St, New Plymouth 4310, New Zealand"}},{"business_url":"http:\/\/www.baychiros.co.nz","yp_url":"https:\/\/yellow.co.nz\/y\/bay-chiropractic-centre-second?src=name","addrInfo":{"lat":-36.8708642,"lng":174.7430356,"street_number":"19","locality":"Auckland","administrative_area_level_1":"Auckland","country_code":"NZ","country":"New Zealand","postal_code":"1021","route":"19 Second Ave","formatted_address":"19 Second Ave, Kingsland, Auckland 1021, New Zealand"}},{"business_url":"http:\/\/www.naturalgrace.co.nz","yp_url":"https:\/\/yellow.co.nz\/y\/natural-grace-chiropractic?src=name","addrInfo":{"lat":-36.8536141,"lng":174.7457754,"street_number":"179A","locality":"Auckland","administrative_area_level_1":"Auckland","country_code":"NZ","country":"New Zealand","postal_code":"1011","route":"179A Ponsonby Rd","formatted_address":"179A Ponsonby Rd, Ponsonby, Auckland 1011, New Zealand"}},{"business_url":"http:\/\/www.tfchiro.co.nz","yp_url":"https:\/\/yellow.co.nz\/y\/thompson-family-chiropractic?src=name","addrInfo":{"lat":-36.9727286,"lng":174.8565568,"street_number":"104","locality":"Auckland","administrative_area_level_1":"Auckland","country_code":"NZ","country":"New Zealand","postal_code":"2025","route":"104 Kolmar Rd","formatted_address":"104 Kolmar Rd, Papatoetoe, Auckland 2025, New Zealand"}},{"business_url":"http:\/\/sinclairchiropractic.co.nz","yp_url":"https:\/\/yellow.co.nz\/y\/albany-bays-sinclair-browns?src=name","addrInfo":{"lat":-36.7228589,"lng":174.7049072,"street_number":"270","locality":"Auckland","administrative_area_level_1":"Auckland","country_code":"NZ","country":"New Zealand","postal_code":"0632","route":"270 Oteha Valley Rd","formatted_address":"10\/270 Oteha Valley Rd, Albany, Auckland 0632, New Zealand"}},{"business_url":"http:\/\/www.taurangachiropractic.co.nz","yp_url":"https:\/\/yellow.co.nz\/y\/tauranga-chiropractic?src=name","addrInfo":{"lat":-37.7069682,"lng":176.1561406,"street_number":"95","locality":"Tauranga","administrative_area_level_1":"Bay Of Plenty","country_code":"NZ","country":"New Zealand","postal_code":"3112","route":"95 Sixteenth Ave","formatted_address":"95 Sixteenth Ave, Tauranga South, Tauranga 3112, New Zealand"}},{"business_url":"http:\/\/www.precisionchiro.co.nz","yp_url":"https:\/\/yellow.co.nz\/y\/precision-chiropractic-tauranga?src=name","addrInfo":{"lat":-37.6987431,"lng":176.1595432,"street_number":"132","locality":"Tauranga","administrative_area_level_1":"Bay Of Plenty","country_code":"NZ","country":"New Zealand","postal_code":"3110","route":"132 Eleventh Ave","formatted_address":"132 Eleventh Ave, Tauranga, Tauranga 3110, New Zealand"}},{"business_url":"http:\/\/www.chiropractortauranga.co.nz","yp_url":"https:\/\/yellow.co.nz\/y\/mccarthy-family-tauranga?src=name","addrInfo":{"lat":-37.692159,"lng":176.1675139,"street_number":"232","locality":"Tauranga","administrative_area_level_1":"Bay Of Plenty","country_code":"NZ","country":"New Zealand","postal_code":"3110","route":"232 Devonport Rd","formatted_address":"232 Devonport Rd, Tauranga, Tauranga 3110, New Zealand"}},{"business_url":"http:\/\/www.papakurachiropractic.co.nz","yp_url":"https:\/\/yellow.co.nz\/y\/papakura-chiropractic-centre?src=name","addrInfo":{"lat":-37.060283,"lng":174.93989,"street_number":"34","locality":"Papakura","administrative_area_level_1":"Auckland","country_code":"NZ","country":"New Zealand","postal_code":"2110","route":"34 Coles Cres","formatted_address":"34 Coles Cres, Papakura, Papakura 2110, New Zealand"}},{"business_url":"http:\/\/www.discoverchiropractic.co.nz","yp_url":"https:\/\/yellow.co.nz\/y\/dynamic-family-chiropractic?src=name","addrInfo":{"lat":-36.8802593,"lng":174.8165181,"street_number":"649","locality":"Auckland","administrative_area_level_1":"Auckland","country_code":"NZ","country":"New Zealand","postal_code":"1050","route":"649 Remuera Rd","formatted_address":"649 Remuera Rd, Remuera, Auckland 1050, New Zealand"}},{"business_url":"http:\/\/www.drchad.co.nz","yp_url":"https:\/\/yellow.co.nz\/y\/dr-chad-chiropractor?src=name","addrInfo":{"lat":-37.7656296,"lng":175.2553402,"street_number":"318","locality":"Hamilton","administrative_area_level_1":"Waikato","country_code":"NZ","country":"New Zealand","postal_code":"3200","route":"318 Te Rapa Rd","formatted_address":"318 Te Rapa Rd, Beerescourt, Hamilton 3200, New Zealand"}},{"business_url":"http:\/\/www.backcare.co.nz","yp_url":"https:\/\/yellow.co.nz\/y\/oleg-pain-relief?src=name","addrInfo":{"lat":-36.847517,"lng":174.7744872,"street_number":"68","locality":"Auckland","administrative_area_level_1":"Auckland","country_code":"NZ","country":"New Zealand","postal_code":"1010","route":"68 Beach Rd","formatted_address":"68 Beach Rd, Auckland, Auckland 1010, New Zealand"}},{"business_url":"http:\/\/citychiro.co.nz","yp_url":"https:\/\/yellow.co.nz\/y\/city-chiropractic?src=name","addrInfo":{"lat":-36.8493458,"lng":174.7654121,"street_number":"220","locality":"Auckland","administrative_area_level_1":"Auckland","country_code":"NZ","country":"New Zealand","postal_code":"1010","route":"220 Queen St","formatted_address":"2\/220 Queen St, Auckland, Auckland 1010, New Zealand"}},{"business_url":"http:\/\/www.mtedenchiro.co.nz","yp_url":"https:\/\/yellow.co.nz\/y\/mt-eden-chiropractic?src=name","addrInfo":{"lat":-36.8772753,"lng":174.7615258,"street_number":"318","locality":"Auckland","administrative_area_level_1":"Auckland","country_code":"NZ","country":"New Zealand","postal_code":"1024","route":"318 Mount Eden Rd","formatted_address":"318 Mount Eden Rd, Mount Eden, Auckland 1024, New Zealand"}},{"business_url":"http:\/\/www.birkenheadchiropractic.co.nz","yp_url":"https:\/\/yellow.co.nz\/y\/birkenhead-chiropractic-northcote?src=name","addrInfo":{"lat":-36.8105877,"lng":174.7353828,"street_number":"138","locality":"Auckland","administrative_area_level_1":"Auckland","country_code":"NZ","country":"New Zealand","postal_code":"0627","route":"138 Onewa Rd","formatted_address":"138 Onewa Rd, Northcote, Auckland 0627, New Zealand"}},{"business_url":"http:\/\/www.focuschiropractic.co.nz","yp_url":"https:\/\/yellow.co.nz\/y\/focus-chiropractic-clinic?src=name","addrInfo":{"lat":-36.7742161,"lng":174.7614022,"street_number":"61","locality":"Auckland","administrative_area_level_1":"Auckland","country_code":"NZ","country":"New Zealand","postal_code":"0620","route":"61 Shakespeare Rd","formatted_address":"61 Shakespeare Rd, Milford, Auckland 0620, New Zealand"}},{"business_url":"http:\/\/hamiltonchiropractor.co.nz","yp_url":"https:\/\/yellow.co.nz\/y\/hillcrest-spinal-centre?src=name","addrInfo":{"lat":-37.8001703,"lng":175.3171581,"street_number":"174","locality":"Hamilton","administrative_area_level_1":"Waikato","country_code":"NZ","country":"New Zealand","postal_code":"3216","route":"174 Cambridge Rd","formatted_address":"174 Cambridge Rd, Hillcrest, Hamilton 3216, New Zealand"}},{"business_url":"http:\/\/www.aucklandchiropractors.co.nz\/","yp_url":"https:\/\/yellow.co.nz\/y\/takapuna-chiropractors-acupuncturist?src=name","addrInfo":{"lat":-36.7884337,"lng":174.7713787,"street_number":"507-513","locality":"Auckland","administrative_area_level_1":"Auckland","country_code":"NZ","country":"New Zealand","postal_code":"0622","route":"507-513 Lake Rd","formatted_address":"4\/507-513 Lake Rd, Takapuna, Auckland 0622, New Zealand"}},{"business_url":"http:\/\/citychiro.co.nz","yp_url":"https:\/\/yellow.co.nz\/y\/laurie-dr-nick-auckland?src=name","addrInfo":{"lat":-36.8493141,"lng":174.7654967,"street_number":"214-218","locality":"Auckland","administrative_area_level_1":"Auckland","country_code":"NZ","country":"New Zealand","postal_code":"1010","route":"214-218 Queen St","formatted_address":"2\/214-218 Queen St, Auckland, Auckland 1010, New Zealand"}},{"business_url":"http:\/\/www.queenstreetchiro.co.nz\/afterhours.html","yp_url":"https:\/\/yellow.co.nz\/y\/queen-st-chiropractors?src=name","addrInfo":{"lat":-36.8456216,"lng":174.7661584,"street_number":"87","locality":"Auckland","administrative_area_level_1":"Auckland","country_code":"NZ","country":"New Zealand","postal_code":"1010","route":"87 Queen St","formatted_address":"605\/87 Queen St, Auckland, Auckland 1010, New Zealand"}},{"business_url":"http:\/\/www.aucklandchiropractors.co.nz\/","yp_url":"https:\/\/yellow.co.nz\/y\/parnell-chiropractors?src=name","addrInfo":{"lat":-36.855736,"lng":174.7805137,"street_number":"237-245","locality":"Auckland","administrative_area_level_1":"Auckland","country_code":"NZ","country":"New Zealand","postal_code":"1052","route":"237-245 Parnell Rd","formatted_address":"2\/237-245 Parnell Rd, Parnell, Auckland 1052, New Zealand"}},{"business_url":"http:\/\/www.apollospinecare.co.nz","yp_url":"https:\/\/yellow.co.nz\/y\/apollo-spine-care?src=name","addrInfo":{"lat":-36.7425859,"lng":174.7296673,"street_number":"4","locality":"Auckland","administrative_area_level_1":"Auckland","country_code":"NZ","country":"New Zealand","postal_code":"0632","route":"4 Antares Pl","formatted_address":"h\/4 Antares Pl, Rosedale, Auckland 0632, New Zealand"}},{"business_url":"http:\/\/www.apchiro.co.nz","yp_url":"https:\/\/yellow.co.nz\/y\/action-potential-chiropractic?src=name","addrInfo":{"lat":-37.6965158,"lng":176.1625385,"street_number":"6A","locality":"Tauranga","administrative_area_level_1":"Bay Of Plenty","country_code":"NZ","country":"New Zealand","postal_code":"3110","route":"6A Norris St","formatted_address":"6A Norris St, Tauranga, Tauranga 3110, New Zealand"}},{"business_url":"http:\/\/mtchiro.co.nz\/","yp_url":"https:\/\/yellow.co.nz\/y\/te-puke-chiropractic?src=name","addrInfo":{"lat":-37.7853462,"lng":176.3300779,"street_number":"28","locality":"Te Puke","administrative_area_level_1":"Bay Of Plenty","country_code":"NZ","country":"New Zealand","postal_code":"3119","route":"28 Jellicoe St","formatted_address":"28 Jellicoe St, Te Puke 3119, New Zealand"}},{"business_url":"http:\/\/www.familychiro.co.nz","yp_url":"https:\/\/yellow.co.nz\/y\/phillips-family-chiropractic-beerescourt?src=name","addrInfo":{"lat":-37.7630873,"lng":175.2557144,"street_number":"28","locality":"Hamilton","administrative_area_level_1":"Waikato","country_code":"NZ","country":"New Zealand","postal_code":"3200","route":"28 Vardon Rd","formatted_address":"28 Vardon Rd, St Andrews, Hamilton 3200, New Zealand"}}]