[{"business_url":"http:\/\/www.cantabria.co.nz\/","yp_url":"https:\/\/yellow.co.nz\/y\/cantabria-home-hospital-springfield?src=name","addrInfo":{"lat":-38.1566712,"lng":176.239996,"street_number":"369","locality":"Rotorua","administrative_area_level_1":"Bay Of Plenty","country_code":"NZ","country":"New Zealand","postal_code":"3015","route":"369 Old Taupo Rd","formatted_address":"369 Old Taupo Rd, Springfield, Rotorua 3015, New Zealand"}},{"business_url":"http:\/\/www.centralmedhealth.co.nz\/","yp_url":"https:\/\/yellow.co.nz\/y\/centralmed?src=name","addrInfo":{"lat":-37.7038952,"lng":176.1582922,"street_number":"434","locality":"Tauranga","administrative_area_level_1":"Bay Of Plenty","country_code":"NZ","country":"New Zealand","postal_code":"3112","route":"434 Devonport Rd","formatted_address":"434 Devonport Rd, Tauranga South, Tauranga 3112, New Zealand"}},{"business_url":"http:\/\/www.waitematadhb.govt.nz","yp_url":"https:\/\/yellow.co.nz\/y\/waitemata-district-health?src=name","addrInfo":{"lat":-36.781103,"lng":174.7570023,"street_number":"124","locality":"Auckland","administrative_area_level_1":"Auckland","country_code":"NZ","country":"New Zealand","postal_code":"0620","route":"124 Shakespeare Rd","formatted_address":"124 Shakespeare Rd, Takapuna, Auckland 0620, New Zealand"}},{"business_url":"http:\/\/www.rotoruamedical.co.nz\/central-health\/","yp_url":"https:\/\/yellow.co.nz\/y\/central-health-doctors?src=name","addrInfo":{"lat":-38.1355099,"lng":176.2483679,"street_number":"1181","locality":"Rotorua","administrative_area_level_1":"Bay Of Plenty","country_code":"NZ","country":"New Zealand","postal_code":"3010","route":"1181 Amohia St","formatted_address":"1181 Amohia St, Rotorua 3010, New Zealand"}},{"business_url":"http:\/\/www.medcall.co.nz","yp_url":"https:\/\/yellow.co.nz\/y\/medcall-newmarket-3?src=name","addrInfo":{"lat":-36.8674303,"lng":174.778521,"street_number":"128","locality":"Auckland","administrative_area_level_1":"Auckland","country_code":"NZ","country":"New Zealand","postal_code":"1023","route":"128 Broadway","formatted_address":"5\/128 Broadway, Newmarket, Auckland 1023, New Zealand"}},{"business_url":"http:\/\/www.drstress.co.nz","yp_url":"https:\/\/yellow.co.nz\/y\/mcewan-dr-john?src=name","addrInfo":{"lat":-36.8887409,"lng":174.7844222,"street_number":"130","locality":"Auckland","administrative_area_level_1":"Auckland","country_code":"NZ","country":"New Zealand","postal_code":"1051","route":"130 Wheturangi Rd","formatted_address":"130 Wheturangi Rd, Greenlane, Auckland 1051, New Zealand"}},{"business_url":"http:\/\/www.torbayresthome.co.nz","yp_url":"https:\/\/yellow.co.nz\/y\/torbay-rest-home-torbay?src=name","addrInfo":{"lat":-36.6950683,"lng":174.7384907,"street_number":"102","locality":"Auckland","administrative_area_level_1":"Auckland","country_code":"NZ","country":"New Zealand","postal_code":"0630","route":"102 Glenvar Rd","formatted_address":"102 Glenvar Rd, Torbay, Auckland 0630, New Zealand"}},{"business_url":"http:\/\/www.caughey-preston.org.nz\/","yp_url":"https:\/\/yellow.co.nz\/y\/caughey-preston-trust?src=name","addrInfo":{"lat":-36.8785556,"lng":174.8122177,"street_number":"17","locality":"Auckland","administrative_area_level_1":"Auckland","country_code":"NZ","country":"New Zealand","postal_code":"1050","route":"17 Upland Rd","formatted_address":"17 Upland Rd, Remuera, Auckland 1050, New Zealand"}},{"business_url":"http:\/\/www.tolbecs.co.nz","yp_url":"https:\/\/yellow.co.nz\/y\/tolbecs-ear-centre?src=name","addrInfo":{"lat":-37.7982553,"lng":175.3029412,"street_number":"74","locality":"Hamilton","administrative_area_level_1":"Waikato","country_code":"NZ","country":"New Zealand","postal_code":"3216","route":"74 Naylor St","formatted_address":"74 Naylor St, Hamilton East, Hamilton 3216, New Zealand"}},{"business_url":"http:\/\/www.hearinglife.co.nz","yp_url":"https:\/\/yellow.co.nz\/y\/hearinglife-eighth?src=name","addrInfo":{"lat":-37.6755672,"lng":176.1368775,"street_number":"344","locality":"Tauranga","administrative_area_level_1":"Bay Of Plenty","country_code":"NZ","country":"New Zealand","postal_code":"3110","route":"344 Otumoetai Rd","formatted_address":"344 Otumoetai Rd, Otumoetai, Tauranga 3110, New Zealand"}},{"business_url":"http:\/\/www.mhc.co.nz","yp_url":"https:\/\/yellow.co.nz\/y\/mornington-health-centre?src=name","addrInfo":{"lat":-45.8820518,"lng":170.4828027,"street_number":"169","locality":"Dunedin","administrative_area_level_1":"Otago","country_code":"NZ","country":"New Zealand","postal_code":"9011","route":"169 Eglinton Rd","formatted_address":"169 Eglinton Rd, Mornington, Dunedin 9011, New Zealand"}},{"business_url":"http:\/\/www.sprott-house.co.nz","yp_url":"https:\/\/yellow.co.nz\/y\/sprott-house-hospital?src=name","addrInfo":{"lat":-41.2856395,"lng":174.749475,"street_number":"29","locality":"Wellington","administrative_area_level_1":"Wellington","country_code":"NZ","country":"New Zealand","postal_code":"6012","route":"29 Messines Rd","formatted_address":"29 Messines Rd, Karori, Wellington 6012, New Zealand"}},{"business_url":"http:\/\/www.ohsconsultants.co.nz","yp_url":"https:\/\/yellow.co.nz\/y\/ohs-consultants-addington?src=name","addrInfo":{"lat":-43.5425795,"lng":172.6138879,"street_number":"342","locality":"Christchurch","administrative_area_level_1":"Canterbury","country_code":"NZ","country":"New Zealand","postal_code":"8024","route":"342 Lincoln Rd","formatted_address":"2\/342 Lincoln Rd, Addington, Christchurch 8024, New Zealand"}},{"business_url":"http:\/\/www.focushealthphysio.co.nz","yp_url":"https:\/\/yellow.co.nz\/y\/focus-health-havelock?src=name","addrInfo":{"lat":-39.6656986,"lng":176.8883592,"street_number":"87","locality":"Havelock North","administrative_area_level_1":"Hawke's Bay","country_code":"NZ","country":"New Zealand","postal_code":"4130","route":"87 Te Mata Rd","formatted_address":"87 Te Mata Rd, Havelock North 4130, New Zealand"}},{"business_url":"http:\/\/www.focushealthphysio.co.nz","yp_url":"https:\/\/yellow.co.nz\/y\/focus-health-physiotherapy-napier?src=name","addrInfo":{"lat":-39.5070581,"lng":176.8865979,"street_number":"17","locality":"Napier","administrative_area_level_1":"Hawke's Bay","country_code":"NZ","country":"New Zealand","postal_code":"4110","route":"17 Maadi Rd","formatted_address":"17 Maadi Rd, Onekawa, Napier 4110, New Zealand"}},{"business_url":"http:\/\/www.focushealthphysio.co.nz","yp_url":"https:\/\/yellow.co.nz\/y\/focus-health-royston?src=name","addrInfo":{"lat":-39.641297,"lng":176.8343258,"street_number":"325","locality":"Hastings","administrative_area_level_1":"Hawke's Bay","country_code":"NZ","country":"New Zealand","postal_code":"4122","route":"325 Prospect Rd","formatted_address":"325 Prospect Rd, Hastings, Hastings 4122, New Zealand"}},{"business_url":"http:\/\/www.windsorphysio.co.nz\/","yp_url":"https:\/\/yellow.co.nz\/y\/windsor-st-physiotherapy?src=name","addrInfo":{"lat":-46.3977773,"lng":168.3658211,"street_number":"11","locality":"Invercargill","administrative_area_level_1":"Southland","country_code":"NZ","country":"New Zealand","postal_code":"9810","route":"11 Windsor St","formatted_address":"11 Windsor St, Windsor, Invercargill 9810, New Zealand"}},{"business_url":"http:\/\/www.eastcarephysiotherapy.co.nz","yp_url":"https:\/\/yellow.co.nz\/y\/eastcare-physiotherapy-aranui?src=name","addrInfo":{"lat":-43.5166175,"lng":172.7014158,"street_number":"285","locality":"Christchurch","administrative_area_level_1":"Canterbury","country_code":"NZ","country":"New Zealand","postal_code":"8061","route":"285 Breezes Rd","formatted_address":"285 Breezes Rd, Aranui, Christchurch 8061, New Zealand"}},{"business_url":"http:\/\/www.traveldoctor.co.nz","yp_url":"https:\/\/yellow.co.nz\/y\/travel-doctor-christchurch-central?src=name","addrInfo":{"lat":-43.5211424,"lng":172.6376857,"street_number":"156","locality":"Christchurch","administrative_area_level_1":"Canterbury","country_code":"NZ","country":"New Zealand","postal_code":"8013","route":"156 Bealey Ave","formatted_address":"156 Bealey Ave, Christchurch Central, Christchurch 8013, New Zealand"}},{"business_url":"http:\/\/www.caledonianclinic.co.nz","yp_url":"https:\/\/yellow.co.nz\/y\/caledonian-clinic?src=name","addrInfo":{"lat":-43.5069966,"lng":172.6175738,"street_number":"304","locality":"Christchurch","administrative_area_level_1":"Canterbury","country_code":"NZ","country":"New Zealand","postal_code":"8052","route":"304 Papanui Rd","formatted_address":"304 Papanui Rd, Strowan, Christchurch 8052, New Zealand"}},{"business_url":"http:\/\/www.healthonhand.co.nz","yp_url":"https:\/\/yellow.co.nz\/y\/health-on-hand?src=name","addrInfo":{"lat":-39.6670982,"lng":176.8798217,"street_number":"35","locality":"Havelock North","administrative_area_level_1":"Hawke's Bay","country_code":"NZ","country":"New Zealand","postal_code":"4130","route":"35 Napier Rd","formatted_address":"33\/35 Napier Rd, Havelock North 4130, New Zealand"}},{"business_url":"http:\/\/www.workrehab.net.nz","yp_url":"https:\/\/yellow.co.nz\/y\/workrehab-middleton?src=name","addrInfo":{"lat":-43.5449639,"lng":172.5808239,"street_number":"10","locality":"Christchurch","administrative_area_level_1":"Canterbury","country_code":"NZ","country":"New Zealand","postal_code":"8024","route":"10 Nazareth Ave","formatted_address":"10 Nazareth Ave, Middleton, Christchurch 8024, New Zealand"}},{"business_url":"http:\/\/www.workrehab.net.nz","yp_url":"https:\/\/yellow.co.nz\/y\/workrehab-nazareth-2?src=name","addrInfo":{"lat":-43.5449639,"lng":172.5808239,"street_number":"10","locality":"Christchurch","administrative_area_level_1":"Canterbury","country_code":"NZ","country":"New Zealand","postal_code":"8024","route":"10 Nazareth Ave","formatted_address":"10 Nazareth Ave, Middleton, Christchurch 8024, New Zealand"}},{"business_url":"http:\/\/www.midwayohs.co.nz","yp_url":"https:\/\/yellow.co.nz\/y\/midway-occupational-health?src=name","addrInfo":{"lat":-40.3432648,"lng":175.6075476,"street_number":"37","locality":"Palmerston North","administrative_area_level_1":"Manawatu-Wanganui","country_code":"NZ","country":"New Zealand","postal_code":"4410","route":"37 North St","formatted_address":"37 North St, Palmerston North, Palmerston North 4410, New Zealand"}}]