[{"business_url":"http:\/\/doubtlessbaylodge.co.nz","yp_url":"https:\/\/yellow.co.nz\/y\/doubtless-bay-cable-bay?src=name","addrInfo":{"lat":-34.9936922,"lng":173.5019201,"street_number":"33","locality":"Cable Bay","administrative_area_level_1":"Northland","country_code":"NZ","country":"New Zealand","postal_code":"0420","route":"33 Cable Bay Block Rd","formatted_address":"33 Cable Bay Block Rd, Cable Bay 0420, New Zealand"}},{"business_url":"http:\/\/www.carrentalsnewplymouth.co.nz","yp_url":"https:\/\/yellow.co.nz\/y\/pegasus-rental-cars-new?src=name","addrInfo":{"lat":-39.015865,"lng":174.175359,"street_number":"147","locality":"New Plymouth","administrative_area_level_1":"Taranaki","country_code":"NZ","country":"New Zealand","postal_code":"4373","route":"147 Airport Dr","formatted_address":"147 Airport Dr, New Plymouth Airport, New Plymouth 4373, New Zealand"}},{"business_url":"http:\/\/www.cameronroadvet.co.nz","yp_url":"https:\/\/yellow.co.nz\/y\/cameron-road-veterinary?src=name","addrInfo":{"lat":-37.7155005,"lng":176.1392502,"street_number":"1071","locality":"Tauranga","administrative_area_level_1":"Bay Of Plenty","country_code":"NZ","country":"New Zealand","postal_code":"3112","route":"1071 Cameron Rd","formatted_address":"1071 Cameron Rd, Gate Pa, Tauranga 3112, New Zealand"}},{"business_url":"http:\/\/www.pace.co.nz","yp_url":"https:\/\/yellow.co.nz\/y\/pace-urgent-courier-east?src=name","addrInfo":{"lat":-36.9428237,"lng":174.8724491,"street_number":"25","locality":"Auckland","administrative_area_level_1":"Auckland","country_code":"NZ","country":"New Zealand","postal_code":"2013","route":"25 Pukekiwiriki Pl","formatted_address":"25 Pukekiwiriki Pl, East Tamaki, Auckland 2013, New Zealand"}},{"business_url":"http:\/\/www.ponsonbybooks.co.nz","yp_url":"https:\/\/yellow.co.nz\/y\/classics-and-suchlike?src=name","addrInfo":{"lat":-36.8525288,"lng":174.7454262,"street_number":"201","locality":"Auckland","administrative_area_level_1":"Auckland","country_code":"NZ","country":"New Zealand","postal_code":"1011","route":"201 Ponsonby Rd","formatted_address":"201 Ponsonby Rd, Ponsonby, Auckland 1011, New Zealand"}},{"business_url":"http:\/\/www.rodneyconcrete.co.nz","yp_url":"https:\/\/yellow.co.nz\/y\/rodney-concrete-services?src=name","addrInfo":{"lat":-36.3860007,"lng":174.633513,"street_number":"66","locality":"Dome Forest","administrative_area_level_1":"Auckland","country_code":"NZ","country":"New Zealand","postal_code":"0981","route":"66 Kaipara Flats Rd","formatted_address":"66 Kaipara Flats Rd, Dome Forest 0981, New Zealand"}},{"business_url":"http:\/\/www.pawsinn.co.nz","yp_url":"https:\/\/yellow.co.nz\/y\/paws-inn-boarding-port?src=name","addrInfo":{"lat":-45.7778864,"lng":170.6061722,"street_number":"585","locality":"Mihiwaka","administrative_area_level_1":"Otago","country_code":"NZ","country":"New Zealand","postal_code":"9081","route":"585 Blueskin Rd","formatted_address":"585 Blueskin Rd, Mihiwaka 9081, New Zealand"}},{"business_url":"http:\/\/www.pace.co.nz","yp_url":"https:\/\/yellow.co.nz\/y\/pace-urgent-hornby-south?src=name","addrInfo":{"lat":-43.5444814,"lng":172.5072986,"street_number":"620","locality":"Christchurch","administrative_area_level_1":"Canterbury","country_code":"NZ","country":"New Zealand","postal_code":"8042","route":"620 Halswell Jct Rd","formatted_address":"620 Halswell Jct Rd, Islington, Christchurch 8042, New Zealand"}},{"business_url":"http:\/\/www.pace.co.nz","yp_url":"https:\/\/yellow.co.nz\/y\/pace-urgent-courier-christchurch?src=name","addrInfo":{"lat":-43.5545864,"lng":172.5213073,"street_number":"620","locality":"Christchurch","administrative_area_level_1":"Canterbury","country_code":"NZ","country":"New Zealand","postal_code":"8042","route":"620 Halswell Jct Rd","formatted_address":"620 Halswell Jct Rd, Hornby South, Christchurch 8042, New Zealand"}},{"business_url":"http:\/\/www.pace.co.nz","yp_url":"https:\/\/yellow.co.nz\/y\/pace-urgent-courier-kaiwharawhara?src=name","addrInfo":{"lat":-41.258382,"lng":174.7878381,"street_number":"36-54","locality":"Wellington","administrative_area_level_1":"Wellington","country_code":"NZ","country":"New Zealand","postal_code":"6035","route":"36-54 Kaiwharawhara Rd","formatted_address":"36-54 Kaiwharawhara Rd, Kaiwharawhara, Wellington 6035, New Zealand"}}]