[{"business_url":"http:\/\/www.aedixauto.co.nz","yp_url":"https:\/\/yellow.co.nz\/y\/ae-dix-automotive-specialists?src=name","addrInfo":{"lat":-35.7286849,"lng":174.325242,"street_number":"158","locality":"Whangarei","administrative_area_level_1":"Northland","country_code":"NZ","country":"New Zealand","postal_code":"0110","route":"158 Lower Cameron St","formatted_address":"158 Lower Cameron St, Whangarei, Whangarei 0110, New Zealand"}},{"business_url":"http:\/\/www.terrysautoservices.co.nz\/","yp_url":"https:\/\/yellow.co.nz\/y\/terrys-auto-services?src=name","addrInfo":{"lat":-35.7561663,"lng":174.3133914,"street_number":"18","locality":"Whangarei","administrative_area_level_1":"Northland","country_code":"NZ","country":"New Zealand","postal_code":"0110","route":"18 Dyer St","formatted_address":"18 Dyer St, Raumanga, Whangarei 0110, New Zealand"}},{"business_url":"http:\/\/www.whangareimechanic.co.nz","yp_url":"https:\/\/yellow.co.nz\/y\/amt-automotive-mobile-technician?src=name","addrInfo":{"lat":-35.7293565,"lng":174.3158889,"street_number":"4","locality":"Whangarei","administrative_area_level_1":"Northland","country_code":"NZ","country":"New Zealand","postal_code":"0110","route":"4 Porowini Ave","formatted_address":"2\/4 Porowini Ave, Morningside, Whangarei 0110, New Zealand"}},{"business_url":"http:\/\/www.rentons.co.nz\/","yp_url":"https:\/\/yellow.co.nz\/y\/renton-motors-1976-kaikohe?src=name","addrInfo":{"lat":-35.40712,"lng":173.7994287,"street_number":"3","locality":"Kaikohe","administrative_area_level_1":"Northland","country_code":"NZ","country":"New Zealand","postal_code":"0405","route":"3 Clifford St","formatted_address":"3 Clifford St, Kaikohe 0405, New Zealand"}},{"business_url":"http:\/\/www.facebook.com\/pages\/Kaikohe-Panelbeaters-1994-Ltd\/230689676964166?fref=ts","yp_url":"https:\/\/yellow.co.nz\/y\/kaikohe-panelbeaters-1994?src=name","addrInfo":{"lat":-35.41188,"lng":173.7972453,"street_number":"25","locality":"Kaikohe","administrative_area_level_1":"Northland","country_code":"NZ","country":"New Zealand","postal_code":"0405","route":"25 Rankin St","formatted_address":"25 Rankin St, Kaikohe 0405, New Zealand"}},{"business_url":"http:\/\/www.autoone.co.nz","yp_url":"https:\/\/yellow.co.nz\/y\/auto-one?src=name","addrInfo":{"lat":-35.7304671,"lng":174.3298977,"street_number":"34","locality":"Whangarei","administrative_area_level_1":"Northland","country_code":"NZ","country":"New Zealand","postal_code":"0110","route":"34 Port Rd","formatted_address":"34 Port Rd, Whangarei, Whangarei 0110, New Zealand"}},{"business_url":"https:\/\/www.facebook.com\/DargavilleWarrantCentre","yp_url":"https:\/\/yellow.co.nz\/y\/dargaville-wof-centre-dargaville?src=name","addrInfo":{"lat":-35.9423622,"lng":173.8698466,"street_number":"2","locality":"Dargaville","administrative_area_level_1":"Northland","country_code":"NZ","country":"New Zealand","postal_code":"0310","route":"2 Hokianga Rd","formatted_address":"2 Hokianga Rd, Dargaville 0310, New Zealand"}},{"business_url":"http:\/\/aaautoservice.co.nz","yp_url":"https:\/\/yellow.co.nz\/y\/aa-auto-service-aa?src=name","addrInfo":{"lat":-37.7877347,"lng":175.2666477,"street_number":"46","locality":"Hamilton","administrative_area_level_1":"Waikato","country_code":"NZ","country":"New Zealand","postal_code":"3204","route":"46 Lake Rd","formatted_address":"46 Lake Rd, Frankton, Hamilton 3204, New Zealand"}},{"business_url":"http:\/\/www.cpsltd.co.nz","yp_url":"https:\/\/yellow.co.nz\/y\/centralised-pumping-systems?src=name","addrInfo":{"lat":-37.0004764,"lng":174.873502,"street_number":"10","locality":"Auckland","administrative_area_level_1":"Auckland","country_code":"NZ","country":"New Zealand","postal_code":"2104","route":"10 Hobill Ave","formatted_address":"10 Hobill Ave, Wiri, Auckland 2104, New Zealand"}},{"business_url":"http:\/\/www.pes.co.nz","yp_url":"https:\/\/yellow.co.nz\/y\/petroleum-equipment-services?src=name","addrInfo":{"lat":-36.7483115,"lng":174.6986916,"street_number":"24D","locality":"Auckland","administrative_area_level_1":"Auckland","country_code":"NZ","country":"New Zealand","postal_code":"0632","route":"24D William Pickering Dr","formatted_address":"24D William Pickering Dr, Rosedale, Auckland 0632, New Zealand"}},{"business_url":"http:\/\/www.aaautoservice.co.nz","yp_url":"https:\/\/yellow.co.nz\/y\/aa-auto-service-repair?src=name","addrInfo":{"lat":-37.75072,"lng":175.2405479,"street_number":"5","locality":"Hamilton","administrative_area_level_1":"Waikato","country_code":"NZ","country":"New Zealand","postal_code":"3200","route":"5 Pukete Rd","formatted_address":"5 Pukete Rd, Te Rapa, Hamilton 3200, New Zealand"}},{"business_url":"http:\/\/www.themufflershop.co.nz","yp_url":"https:\/\/yellow.co.nz\/y\/muffler-shop-frankton?src=name","addrInfo":{"lat":-37.795147,"lng":175.2652585,"street_number":"39","locality":"Hamilton","administrative_area_level_1":"Waikato","country_code":"NZ","country":"New Zealand","postal_code":"3204","route":"39 Killarney Rd","formatted_address":"39 Killarney Rd, Frankton, Hamilton 3204, New Zealand"}},{"business_url":"http:\/\/www.autocity.co.nz\/","yp_url":"https:\/\/yellow.co.nz\/y\/auto-city-service-centre?src=name","addrInfo":{"lat":-39.5907815,"lng":174.2813411,"street_number":"39","locality":"Hawera","administrative_area_level_1":"Taranaki","country_code":"NZ","country":"New Zealand","postal_code":"4610","route":"39 Regent St","formatted_address":"39 Regent St, Hawera 4610, New Zealand"}},{"business_url":"http:\/\/www.ahfranks.co.nz","yp_url":"https:\/\/yellow.co.nz\/y\/ah-franks-tyre?src=name","addrInfo":{"lat":-37.785359,"lng":175.2770276,"street_number":"409","locality":"Hamilton","administrative_area_level_1":"Waikato","country_code":"NZ","country":"New Zealand","postal_code":"3204","route":"409 Anglesea St","formatted_address":"409 Anglesea St, Hamilton 3204, New Zealand"}},{"business_url":"http:\/\/www.hamiltonautomotive.co.nz","yp_url":"https:\/\/yellow.co.nz\/y\/hamilton-automotive-repairs?src=name","addrInfo":{"lat":-37.7945437,"lng":175.26183,"street_number":"82","locality":"Hamilton","administrative_area_level_1":"Waikato","country_code":"NZ","country":"New Zealand","postal_code":"3204","route":"82 Killarney Rd","formatted_address":"82 Killarney Rd, Frankton, Hamilton 3204, New Zealand"}},{"business_url":"http:\/\/www.cdsl.co.nz","yp_url":"https:\/\/yellow.co.nz\/y\/central-diesel-services-hull?src=name","addrInfo":{"lat":-37.6546647,"lng":176.1908291,"street_number":"70","locality":"Tauranga","administrative_area_level_1":"Bay Of Plenty","country_code":"NZ","country":"New Zealand","postal_code":"3116","route":"70 Hull Rd","formatted_address":"70 Hull Rd, Mount Maunganui, Tauranga 3116, New Zealand"}},{"business_url":"http:\/\/www.psltaupo.co.nz","yp_url":"https:\/\/yellow.co.nz\/y\/parts-services-taupo?src=name","addrInfo":{"lat":-38.6916132,"lng":176.1031513,"street_number":"1","locality":"Taupo","administrative_area_level_1":"Waikato","country_code":"NZ","country":"New Zealand","postal_code":"3330","route":"1 Miro St","formatted_address":"1 Miro St, Tauhara, Taupo 3330, New Zealand"}},{"business_url":"http:\/\/www.willsautomotive.co.nz","yp_url":"https:\/\/yellow.co.nz\/y\/wills-automotive-birkenhead?src=name","addrInfo":{"lat":-36.8123964,"lng":174.7302991,"street_number":"35","locality":"Auckland","administrative_area_level_1":"Auckland","country_code":"NZ","country":"New Zealand","postal_code":"0626","route":"35 Enterprise St","formatted_address":"35 Enterprise St, Birkenhead, Auckland 0626, New Zealand"}},{"business_url":"http:\/\/www.westcityfastlube.co.nz","yp_url":"https:\/\/yellow.co.nz\/y\/west-city-fastlube?src=name","addrInfo":{"lat":-36.9070289,"lng":174.660903,"street_number":"1","locality":"Auckland","administrative_area_level_1":"Auckland","country_code":"NZ","country":"New Zealand","postal_code":"0602","route":"1 Westech Pl","formatted_address":"1 Westech Pl, Glen Eden, Auckland 0602, New Zealand"}},{"business_url":"http:\/\/www.autosolutions.co.nz","yp_url":"https:\/\/yellow.co.nz\/y\/automotive-solutions-cambridge?src=name","addrInfo":{"lat":-37.9002809,"lng":175.4769694,"street_number":"16","locality":"Cambridge","administrative_area_level_1":"Waikato","country_code":"NZ","country":"New Zealand","postal_code":"3432","route":"16 Cook St","formatted_address":"16 Cook St, Leamington, Cambridge 3432, New Zealand"}},{"business_url":"http:\/\/www.rosstaylormotors.co.nz","yp_url":"https:\/\/yellow.co.nz\/y\/ross-taylor-motors-pukekohe?src=name","addrInfo":{"lat":-37.2026804,"lng":174.9062317,"street_number":"3","locality":"Pukekohe","administrative_area_level_1":"Auckland","country_code":"NZ","country":"New Zealand","postal_code":"2120","route":"3 Graham St","formatted_address":"3 Graham St, Pukekohe 2120, New Zealand"}},{"business_url":"http:\/\/www.alfreymotorsltd.co.nz","yp_url":"https:\/\/yellow.co.nz\/y\/alfrey-motors-andromeda?src=name","addrInfo":{"lat":-36.948658,"lng":174.8850477,"street_number":"34","locality":"Auckland","administrative_area_level_1":"Auckland","country_code":"NZ","country":"New Zealand","postal_code":"2013","route":"34 Andromeda Cres","formatted_address":"34 Andromeda Cres, East Tamaki, Auckland 2013, New Zealand"}},{"business_url":"http:\/\/www.lyndalemotors.co.nz","yp_url":"https:\/\/yellow.co.nz\/y\/lyndale-motor-services?src=name","addrInfo":{"lat":-36.9076228,"lng":174.6627693,"street_number":"4012","locality":"Auckland","administrative_area_level_1":"Auckland","country_code":"NZ","country":"New Zealand","postal_code":"0602","route":"4012 Great North Rd","formatted_address":"4012 Great North Rd, Glen Eden, Auckland 0602, New Zealand"}},{"business_url":"http:\/\/www.tasman.toyota.co.nz","yp_url":"https:\/\/yellow.co.nz\/y\/tasman-toyota-new-fitzroy?src=name","addrInfo":{"lat":-39.0495523,"lng":174.1032946,"street_number":"585","locality":"New Plymouth","administrative_area_level_1":"Taranaki","country_code":"NZ","country":"New Zealand","postal_code":"4312","route":"585 Devon St E","formatted_address":"585 Devon St E, Fitzroy, New Plymouth 4312, New Zealand"}},{"business_url":"http:\/\/www.wrphillips.co.nz","yp_url":"https:\/\/yellow.co.nz\/y\/phillips-wr?src=name","addrInfo":{"lat":-39.0586192,"lng":174.0690478,"street_number":"81","locality":"New Plymouth","administrative_area_level_1":"Taranaki","country_code":"NZ","country":"New Zealand","postal_code":"4310","route":"81 King St","formatted_address":"81 King St, New Plymouth 4310, New Zealand"}},{"business_url":"http:\/\/www.psmworkshop.co.nz","yp_url":"https:\/\/yellow.co.nz\/y\/paul-stockman-motors-mount?src=name","addrInfo":{"lat":-36.8924277,"lng":174.8309335,"street_number":"173","locality":"Auckland","administrative_area_level_1":"Auckland","country_code":"NZ","country":"New Zealand","postal_code":"1051","route":"173 Marua Rd","formatted_address":"173 Marua Rd, Mount Wellington, Auckland 1051, New Zealand"}},{"business_url":"http:\/\/www.forresthillmotors.co.nz","yp_url":"https:\/\/yellow.co.nz\/y\/forrest-hill-motors?src=name","addrInfo":{"lat":-36.7577462,"lng":174.7504731,"street_number":"260","locality":"Auckland","administrative_area_level_1":"Auckland","country_code":"NZ","country":"New Zealand","postal_code":"0620","route":"260 Forrest Hill Rd","formatted_address":"260 Forrest Hill Rd, Forrest Hill, Auckland 0620, New Zealand"}},{"business_url":"http:\/\/www.hillsideautomotive.co.nz","yp_url":"https:\/\/yellow.co.nz\/y\/hillside-automotive-services-wairau?src=name","addrInfo":{"lat":-36.774627,"lng":174.7392702,"street_number":"28","locality":"Auckland","administrative_area_level_1":"Auckland","country_code":"NZ","country":"New Zealand","postal_code":"0627","route":"28 Hillside Rd","formatted_address":"28 Hillside Rd, Wairau Valley, Auckland 0627, New Zealand"}},{"business_url":"http:\/\/www.kaar.co.nz","yp_url":"https:\/\/yellow.co.nz\/y\/kelvin-armstrong-auto-rosebank?src=name","addrInfo":{"lat":-36.8833849,"lng":174.6810787,"street_number":"357","locality":"Auckland","administrative_area_level_1":"Auckland","country_code":"NZ","country":"New Zealand","postal_code":"1026","route":"357 Rosebank Rd","formatted_address":"357 Rosebank Rd, Avondale, Auckland 1026, New Zealand"}},{"business_url":"http:\/\/www.kimmarshmotors.co.nz","yp_url":"https:\/\/yellow.co.nz\/y\/kim-marsh-motors?src=name","addrInfo":{"lat":-36.7800923,"lng":174.7442396,"street_number":"9","locality":"Auckland","administrative_area_level_1":"Auckland","country_code":"NZ","country":"New Zealand","postal_code":"0627","route":"9 Porana Rd","formatted_address":"4\/9 Porana Rd, Wairau Valley, Auckland 0627, New Zealand"}},{"business_url":"http:\/\/www.fueltech.co.nz","yp_url":"https:\/\/yellow.co.nz\/y\/fuel-tech-automotive?src=name","addrInfo":{"lat":-37.7666284,"lng":175.2673371,"street_number":"628","locality":"Hamilton","administrative_area_level_1":"Waikato","country_code":"NZ","country":"New Zealand","postal_code":"3214","route":"628 River Rd","formatted_address":"628 River Rd, Chartwell, Hamilton 3214, New Zealand"}},{"business_url":"http:\/\/brakeautoservices.co.nz","yp_url":"https:\/\/yellow.co.nz\/y\/bdm-brake-disc?src=name","addrInfo":{"lat":-36.7139835,"lng":174.7452231,"street_number":"23","locality":"Auckland","administrative_area_level_1":"Auckland","country_code":"NZ","country":"New Zealand","postal_code":"0630","route":"23 Bute Rd","formatted_address":"1\/23 Bute Rd, Browns Bay, Auckland 0630, New Zealand"}},{"business_url":"http:\/\/www.rockettransmissions.co.nz","yp_url":"https:\/\/yellow.co.nz\/y\/rocket-transmissions-1980-whatawhata?src=name","addrInfo":{"lat":-37.7955908,"lng":175.1544978,"street_number":"1313","locality":"Whatawhata","administrative_area_level_1":"Waikato","country_code":"NZ","country":"New Zealand","postal_code":"3289","route":"1313 Horotiu Rd","formatted_address":"1313 Horotiu Rd, Whatawhata 3289, New Zealand"}},{"business_url":"http:\/\/www.kiwimobilemechanics.co.nz","yp_url":"https:\/\/yellow.co.nz\/y\/kiwi-mobile-mechanics-albany?src=name","addrInfo":{"lat":-36.7409337,"lng":174.6929891,"street_number":"391","locality":"Auckland","administrative_area_level_1":"Auckland","country_code":"NZ","country":"New Zealand","postal_code":"0632","route":"391 Albany Hwy","formatted_address":"391 Albany Hwy, Albany, Auckland 0632, New Zealand"}},{"business_url":"http:\/\/www.glenparkmotors.co.nz","yp_url":"https:\/\/yellow.co.nz\/y\/glen-park-motors?src=name","addrInfo":{"lat":-36.7844735,"lng":174.7387134,"street_number":"106","locality":"Auckland","administrative_area_level_1":"Auckland","country_code":"NZ","country":"New Zealand","postal_code":"0627","route":"106 Sunnybrae Rd","formatted_address":"106 Sunnybrae Rd, Hillcrest, Auckland 0627, New Zealand"}},{"business_url":"http:\/\/www.autoland.net.nz","yp_url":"https:\/\/yellow.co.nz\/y\/ssangyong-autoland-parts?src=name","addrInfo":{"lat":-36.7484451,"lng":174.7342682,"street_number":"17","locality":"Auckland","administrative_area_level_1":"Auckland","country_code":"NZ","country":"New Zealand","postal_code":"0632","route":"17 Parkway Dr","formatted_address":"17 Parkway Dr, Rosedale, Auckland 0632, New Zealand"}},{"business_url":"http:\/\/www.quickerstops.co.nz","yp_url":"https:\/\/yellow.co.nz\/y\/gur-gur-new?src=name","addrInfo":{"lat":-36.9021179,"lng":174.6855255,"street_number":"74A","locality":"Auckland","administrative_area_level_1":"Auckland","country_code":"NZ","country":"New Zealand","postal_code":"0600","route":"74A Delta Ave","formatted_address":"74A Delta Ave, New Lynn, Auckland 0600, New Zealand"}},{"business_url":"http:\/\/autolab.co.nz\/","yp_url":"https:\/\/yellow.co.nz\/y\/autolab-enterprises?src=name","addrInfo":{"lat":-36.8598416,"lng":174.6316497,"street_number":"203","locality":"Auckland","administrative_area_level_1":"Auckland","country_code":"NZ","country":"New Zealand","postal_code":"0610","route":"203 Lincoln Rd","formatted_address":"203 Lincoln Rd, Henderson, Auckland 0610, New Zealand"}},{"business_url":"http:\/\/www.epsomautomotive.co.nz","yp_url":"https:\/\/yellow.co.nz\/y\/epsom-automotive?src=name","addrInfo":{"lat":-36.8971097,"lng":174.7734316,"street_number":"529","locality":"Auckland","administrative_area_level_1":"Auckland","country_code":"NZ","country":"New Zealand","postal_code":"1023","route":"529 Manukau Rd","formatted_address":"529 Manukau Rd, Epsom, Auckland 1023, New Zealand"}},{"business_url":"http:\/\/www.newlynnmechanics.co.nz","yp_url":"https:\/\/yellow.co.nz\/y\/portage-wheel-aligning?src=name","addrInfo":{"lat":-36.9095456,"lng":174.6884314,"street_number":"3","locality":"Auckland","administrative_area_level_1":"Auckland","country_code":"NZ","country":"New Zealand","postal_code":"0600","route":"3 Ward St","formatted_address":"3 Ward St, New Lynn, Auckland 0600, New Zealand"}},{"business_url":"http:\/\/absoluteautomotive.co.nz","yp_url":"https:\/\/yellow.co.nz\/y\/absolute-automotive?src=name","addrInfo":{"lat":-36.9330312,"lng":174.9023829,"street_number":"43B","locality":"Auckland","administrative_area_level_1":"Auckland","country_code":"NZ","country":"New Zealand","postal_code":"2013","route":"43B Greenmount Dr","formatted_address":"43B Greenmount Dr, East Tamaki, Auckland 2013, New Zealand"}},{"business_url":"http:\/\/rsautomotive.co.nz\/","yp_url":"https:\/\/yellow.co.nz\/y\/rs-automotive-mount-maunganui?src=name","addrInfo":{"lat":-37.6786984,"lng":176.2224969,"street_number":"11","locality":"Tauranga","administrative_area_level_1":"Bay Of Plenty","country_code":"NZ","country":"New Zealand","postal_code":"3116","route":"11 Owens Pl","formatted_address":"11 Owens Pl, Mount Maunganui, Tauranga 3116, New Zealand"}},{"business_url":"http:\/\/www.fleetcareauto.co.nz","yp_url":"https:\/\/yellow.co.nz\/y\/fleetcare-auto-clinic?src=name","addrInfo":{"lat":-36.9758536,"lng":174.7830287,"street_number":"6","locality":"Auckland","administrative_area_level_1":"Auckland","country_code":"NZ","country":"New Zealand","postal_code":"2022","route":"6 Rennie Dr","formatted_address":"6 Rennie Dr, Mangere, Auckland 2022, New Zealand"}},{"business_url":"http:\/\/www.drivesure.net.nz","yp_url":"https:\/\/yellow.co.nz\/y\/drivesure-vehicle-testing-takanini?src=name","addrInfo":{"lat":-37.0305048,"lng":174.9046276,"street_number":"278","locality":"Auckland","administrative_area_level_1":"Auckland","country_code":"NZ","country":"New Zealand","postal_code":"2102","route":"278 Great South Rd","formatted_address":"278 Great South Rd, Manurewa, Auckland 2102, New Zealand"}},{"business_url":"http:\/\/www.drivesure.net.nz","yp_url":"https:\/\/yellow.co.nz\/y\/drivesure-vehicle-testing?src=name","addrInfo":{"lat":-36.9135306,"lng":174.9021761,"street_number":"139","locality":"Auckland","administrative_area_level_1":"Auckland","country_code":"NZ","country":"New Zealand","postal_code":"2010","route":"139 Cascades Rd","formatted_address":"139 Cascades Rd, Pakuranga Heights, Auckland 2010, New Zealand"}},{"business_url":"http:\/\/www.hodgemotors.co.nz\/","yp_url":"https:\/\/yellow.co.nz\/y\/hodge-motors-subaru?src=name","addrInfo":{"lat":-39.0668759,"lng":174.1030591,"street_number":"204","locality":"New Plymouth","administrative_area_level_1":"Taranaki","country_code":"NZ","country":"New Zealand","postal_code":"4312","route":"204 Mangorei Rd","formatted_address":"204 Mangorei Rd, Merrilands, New Plymouth 4312, New Zealand"}},{"business_url":"http:\/\/www.drivesure.net.nz","yp_url":"https:\/\/yellow.co.nz\/y\/drivesure-vehicle-testing-station?src=name","addrInfo":{"lat":-36.9899898,"lng":174.8736397,"street_number":"35","locality":"Auckland","administrative_area_level_1":"Auckland","country_code":"NZ","country":"New Zealand","postal_code":"2104","route":"35 Lambie Dr","formatted_address":"35 Lambie Dr, Manukau, Auckland 2104, New Zealand"}},{"business_url":"http:\/\/drivenautomotive.co.nz\/","yp_url":"https:\/\/yellow.co.nz\/y\/driven-automotive-pakuranga?src=name","addrInfo":{"lat":-36.9134249,"lng":174.8998399,"street_number":"24","locality":"Auckland","administrative_area_level_1":"Auckland","country_code":"NZ","country":"New Zealand","postal_code":"2010","route":"24 Reelick Ave","formatted_address":"24 Reelick Ave, Pakuranga Heights, Auckland 2010, New Zealand"}},{"business_url":"http:\/\/www.pitstop.co.nz\/locations\/waikato\/hamilton","yp_url":"https:\/\/yellow.co.nz\/y\/pit-stop-hamilton?src=name","addrInfo":{"lat":-37.7856704,"lng":175.2775762,"street_number":"383","locality":"Hamilton","administrative_area_level_1":"Waikato","country_code":"NZ","country":"New Zealand","postal_code":"3204","route":"383 Anglesea St","formatted_address":"383 Anglesea St, Hamilton 3204, New Zealand"}},{"business_url":"http:\/\/www.richardsonauto.co.nz","yp_url":"https:\/\/yellow.co.nz\/y\/richardson-auto-service?src=name","addrInfo":{"lat":-36.9005803,"lng":174.7200614,"street_number":"234","locality":"Auckland","administrative_area_level_1":"Auckland","country_code":"NZ","country":"New Zealand","postal_code":"1041","route":"234 Richardson Rd","formatted_address":"234 Richardson Rd, Mount Roskill, Auckland 1041, New Zealand"}},{"business_url":"http:\/\/www.facebook.com\/pages\/Force-Automotive\/201145196614743","yp_url":"https:\/\/yellow.co.nz\/y\/force-automotive?src=name","addrInfo":{"lat":-37.6947602,"lng":176.1393464,"street_number":"200","locality":"Tauranga","administrative_area_level_1":"Bay Of Plenty","country_code":"NZ","country":"New Zealand","postal_code":"3110","route":"200 Waihi Rd","formatted_address":"200 Waihi Rd, Judea, Tauranga 3110, New Zealand"}},{"business_url":"http:\/\/stevedentonautomotive.nz\/","yp_url":"https:\/\/yellow.co.nz\/y\/steve-denton-automotive?src=name","addrInfo":{"lat":-36.8842367,"lng":174.8493217,"street_number":"31","locality":"Auckland","administrative_area_level_1":"Auckland","country_code":"NZ","country":"New Zealand","postal_code":"1072","route":"31 Eric Paton Way","formatted_address":"31 Eric Paton Way, St Johns, Auckland 1072, New Zealand"}},{"business_url":"http:\/\/www.anotherorange.co.nz","yp_url":"https:\/\/yellow.co.nz\/y\/another-orange-service-mangere?src=name","addrInfo":{"lat":-36.9750747,"lng":174.7805934,"street_number":"3","locality":"Auckland","administrative_area_level_1":"Auckland","country_code":"NZ","country":"New Zealand","postal_code":"2022","route":"3 Brigade Rd","formatted_address":"3 Brigade Rd, Mangere, Auckland 2022, New Zealand"}},{"business_url":"http:\/\/www.aucklandmechanics.co.nz","yp_url":"https:\/\/yellow.co.nz\/y\/caltex-workshop-2014-blockhouse?src=name","addrInfo":{"lat":-36.9224813,"lng":174.7010529,"street_number":"505","locality":"Auckland","administrative_area_level_1":"Auckland","country_code":"NZ","country":"New Zealand","postal_code":"0600","route":"505 Blockhouse Bay Rd","formatted_address":"505 Blockhouse Bay Rd, Blockhouse Bay, Auckland 0600, New Zealand"}},{"business_url":"http:\/\/www.easttamakiauto.co.nz","yp_url":"https:\/\/yellow.co.nz\/y\/jaques-nel?src=name","addrInfo":{"lat":-36.9484261,"lng":174.890176,"street_number":"12C","locality":"Auckland","administrative_area_level_1":"Auckland","country_code":"NZ","country":"New Zealand","postal_code":"2013","route":"12C Kerwyn Ave","formatted_address":"12C Kerwyn Ave, East Tamaki, Auckland 2013, New Zealand"}},{"business_url":"http:\/\/www.easttamakiauto.co.nz","yp_url":"https:\/\/yellow.co.nz\/y\/east-tamaki-automotive-east?src=name","addrInfo":{"lat":-36.9484261,"lng":174.890176,"street_number":"12C","locality":"Auckland","administrative_area_level_1":"Auckland","country_code":"NZ","country":"New Zealand","postal_code":"2013","route":"12C Kerwyn Ave","formatted_address":"12C Kerwyn Ave, East Tamaki, Auckland 2013, New Zealand"}},{"business_url":"https:\/\/www.facebook.com\/Central-Taranaki-Automotive-Limited-516664961743324\/","yp_url":"https:\/\/yellow.co.nz\/y\/central-taranaki-stratford-3?src=name","addrInfo":{"lat":-39.3442996,"lng":174.2869572,"street_number":"390","locality":"Stratford","administrative_area_level_1":"Taranaki","country_code":"NZ","country":"New Zealand","postal_code":"4332","route":"390 Broadway","formatted_address":"390 Broadway, Stratford 4332, New Zealand"}},{"business_url":"http:\/\/www.cbautomotive.gophercp.co.nz\/mechanic.html","yp_url":"https:\/\/yellow.co.nz\/y\/clint-boon-automotive?src=name","addrInfo":{"lat":-37.9526779,"lng":176.9904924,"street_number":"1","locality":"Whakatane","administrative_area_level_1":"Bay Of Plenty","country_code":"NZ","country":"New Zealand","postal_code":"3120","route":"1 Pohutu St","formatted_address":"1 Pohutu St, Whakatane 3120, New Zealand"}},{"business_url":"http:\/\/www.mechanicsgreerton.co.nz","yp_url":"https:\/\/yellow.co.nz\/y\/auto-super-maleme?src=name","addrInfo":{"lat":-37.7346147,"lng":176.1278201,"street_number":"149","locality":"Tauranga","administrative_area_level_1":"Bay Of Plenty","country_code":"NZ","country":"New Zealand","postal_code":"3112","route":"149 Maleme St","formatted_address":"149 Maleme St, Greerton, Tauranga 3112, New Zealand"}},{"business_url":"http:\/\/www.tyresandsuspension.co.nz","yp_url":"https:\/\/yellow.co.nz\/y\/15th-ave-tyre?src=name","addrInfo":{"lat":-37.7102571,"lng":176.1651679,"street_number":"21","locality":"Tauranga","administrative_area_level_1":"Bay Of Plenty","country_code":"NZ","country":"New Zealand","postal_code":"3112","route":"21 Fifteenth Ave","formatted_address":"21 Fifteenth Ave, Tauranga South, Tauranga 3112, New Zealand"}},{"business_url":"http:\/\/www.taurangamobilemechanic.co.nz","yp_url":"https:\/\/yellow.co.nz\/y\/mobile-automotive-2006-tauriko?src=name","addrInfo":{"lat":-37.7153451,"lng":176.1163304,"street_number":"20","locality":"Tauranga","administrative_area_level_1":"Bay Of Plenty","country_code":"NZ","country":"New Zealand","postal_code":"3110","route":"20 Westview Pl","formatted_address":"20 Westview Pl, Tauriko, Tauranga 3110, New Zealand"}},{"business_url":"http:\/\/www.tyretorque.co.nz","yp_url":"https:\/\/yellow.co.nz\/y\/taranaki-tyretorque?src=name","addrInfo":{"lat":-39.054499,"lng":174.0784581,"street_number":"55","locality":"New Plymouth","administrative_area_level_1":"Taranaki","country_code":"NZ","country":"New Zealand","postal_code":"4310","route":"55 Molesworth St","formatted_address":"55 Molesworth St, New Plymouth 4310, New Zealand"}},{"business_url":"http:\/\/www.tasman.toyota.co.nz","yp_url":"https:\/\/yellow.co.nz\/y\/tasman-toyota-westown?src=name","addrInfo":{"lat":-39.07109,"lng":174.0628293,"street_number":"49","locality":"New Plymouth","administrative_area_level_1":"Taranaki","country_code":"NZ","country":"New Zealand","postal_code":"4310","route":"49 Tukapa St","formatted_address":"49 Tukapa St, Westown, New Plymouth 4310, New Zealand"}},{"business_url":"http:\/\/www.student.mediarts.net.nz\/advanced_internet\/2008\/b\/mitch_k\/re","yp_url":"https:\/\/yellow.co.nz\/y\/re-automotive?src=name","addrInfo":{"lat":-39.3404969,"lng":174.2873565,"street_number":"32","locality":"Stratford","administrative_area_level_1":"Taranaki","country_code":"NZ","country":"New Zealand","postal_code":"4332","route":"32 Fenton St","formatted_address":"32 Fenton St, Stratford 4332, New Zealand"}},{"business_url":"http:\/\/www.apgeneralauto.co.nz","yp_url":"https:\/\/yellow.co.nz\/y\/ap-general-motor-repairs?src=name","addrInfo":{"lat":-36.9043578,"lng":174.6919717,"street_number":"10","locality":"Auckland","administrative_area_level_1":"Auckland","country_code":"NZ","country":"New Zealand","postal_code":"0600","route":"10 Portage Rd","formatted_address":"10 Portage Rd, New Lynn, Auckland 0600, New Zealand"}},{"business_url":"http:\/\/www.kaar.co.nz","yp_url":"https:\/\/yellow.co.nz\/y\/kelvin-armstrong-rosebank-road-2?src=name","addrInfo":{"lat":-36.883191,"lng":174.6812958,"street_number":"357B","locality":"Auckland","administrative_area_level_1":"Auckland","country_code":"NZ","country":"New Zealand","postal_code":"1026","route":"357B Rosebank Rd","formatted_address":"357B Rosebank Rd, Avondale, Auckland 1026, New Zealand"}},{"business_url":"http:\/\/onestopmechanical.co.nz\/","yp_url":"https:\/\/yellow.co.nz\/y\/one-stop-mechanical?src=name","addrInfo":{"lat":-36.8982802,"lng":174.8075457,"street_number":"15","locality":"Auckland","administrative_area_level_1":"Auckland","country_code":"NZ","country":"New Zealand","postal_code":"1051","route":"15 Kalmia St","formatted_address":"15 Kalmia St, Ellerslie, Auckland 1051, New Zealand"}},{"business_url":"http:\/\/www.hvauto.co.nz","yp_url":"https:\/\/yellow.co.nz\/y\/henderson-valley-automotive?src=name","addrInfo":{"lat":-36.8810981,"lng":174.6289079,"street_number":"17","locality":"Auckland","administrative_area_level_1":"Auckland","country_code":"NZ","country":"New Zealand","postal_code":"0612","route":"17 Henderson Valley Rd","formatted_address":"17 Henderson Valley Rd, Henderson, Auckland 0612, New Zealand"}},{"business_url":"http:\/\/www.gmrtyres.co.nz","yp_url":"https:\/\/yellow.co.nz\/y\/gmr-tyres-mount-maunganui?src=name","addrInfo":{"lat":-37.6654187,"lng":176.199281,"street_number":"86","locality":"Tauranga","administrative_area_level_1":"Bay Of Plenty","country_code":"NZ","country":"New Zealand","postal_code":"3116","route":"86 Hewletts Rd","formatted_address":"86 Hewletts Rd, Mount Maunganui, Tauranga 3116, New Zealand"}},{"business_url":"http:\/\/www.gmrtyres.co.nz","yp_url":"https:\/\/yellow.co.nz\/y\/gmr-tyres-hewletts-road-2?src=name","addrInfo":{"lat":-37.7364452,"lng":176.1351935,"street_number":"56","locality":"Tauranga","administrative_area_level_1":"Bay Of Plenty","country_code":"NZ","country":"New Zealand","postal_code":"3112","route":"56 Maleme St","formatted_address":"56 Maleme St, Greerton, Tauranga 3112, New Zealand"}},{"business_url":"http:\/\/www.avalontyres.co.nz\/","yp_url":"https:\/\/yellow.co.nz\/y\/avalon-tyre-suspension?src=name","addrInfo":{"lat":-37.773123,"lng":175.2429593,"street_number":"94","locality":"Hamilton","administrative_area_level_1":"Waikato","country_code":"NZ","country":"New Zealand","postal_code":"3200","route":"94 Avalon Dr","formatted_address":"94 Avalon Dr, Nawton, Hamilton 3200, New Zealand"}},{"business_url":"http:\/\/www.cjdauto.co.nz","yp_url":"https:\/\/yellow.co.nz\/y\/cjd-automobiles?src=name","addrInfo":{"lat":-36.8870128,"lng":174.6605342,"street_number":"2","locality":"Auckland","administrative_area_level_1":"Auckland","country_code":"NZ","country":"New Zealand","postal_code":"0602","route":"2 Akatea Rd","formatted_address":"2 Akatea Rd, Glendene, Auckland 0602, New Zealand"}},{"business_url":"http:\/\/www.gearboxfactory.co.nz\/","yp_url":"https:\/\/yellow.co.nz\/y\/gearbox-factory-east-tamaki?src=name","addrInfo":{"lat":-36.9313896,"lng":174.9011997,"street_number":"68D","locality":"Auckland","administrative_area_level_1":"Auckland","country_code":"NZ","country":"New Zealand","postal_code":"2013","route":"68D Greenmount Dr","formatted_address":"68D Greenmount Dr, East Tamaki, Auckland 2013, New Zealand"}},{"business_url":"http:\/\/www.taas.co.nz","yp_url":"https:\/\/yellow.co.nz\/y\/tony-allen-auto-service?src=name","addrInfo":{"lat":-36.9923234,"lng":174.8632737,"street_number":"139","locality":"Auckland","administrative_area_level_1":"Auckland","country_code":"NZ","country":"New Zealand","postal_code":"2104","route":"139 Cavendish Dr","formatted_address":"139 Cavendish Dr, Papatoetoe, Auckland 2104, New Zealand"}},{"business_url":"http:\/\/www.brianroberts.co.nz","yp_url":"https:\/\/yellow.co.nz\/y\/automotive-diesel-repairs-manukau?src=name","addrInfo":{"lat":-37.2129768,"lng":174.910781,"street_number":"207","locality":"Pukekohe","administrative_area_level_1":"Auckland","country_code":"NZ","country":"New Zealand","postal_code":"2120","route":"207 Manukau Rd","formatted_address":"207 Manukau Rd, Pukekohe 2120, New Zealand"}},{"business_url":"http:\/\/www.quickerstops.co.nz","yp_url":"https:\/\/yellow.co.nz\/y\/quick-stop-tyres?src=name","addrInfo":{"lat":-36.9021179,"lng":174.6855255,"street_number":"74A","locality":"Auckland","administrative_area_level_1":"Auckland","country_code":"NZ","country":"New Zealand","postal_code":"0600","route":"74A Delta Ave","formatted_address":"74A Delta Ave, New Lynn, Auckland 0600, New Zealand"}},{"business_url":"http:\/\/japparts.co.nz","yp_url":"https:\/\/yellow.co.nz\/y\/jap-parts-station?src=name","addrInfo":{"lat":-36.942841,"lng":174.83351,"street_number":"31","locality":"Auckland","administrative_area_level_1":"Auckland","country_code":"NZ","country":"New Zealand","postal_code":"1062","route":"31 Saleyards Rd","formatted_address":"31 Saleyards Rd, Otahuhu, Auckland 1062, New Zealand"}},{"business_url":"http:\/\/www.teamsatanracing.co.nz\/","yp_url":"https:\/\/yellow.co.nz\/y\/teamsatanracing?src=name","addrInfo":{"lat":-38.0369729,"lng":177.1088159,"street_number":"1124B","locality":"Wainui","administrative_area_level_1":"Bay Of Plenty","country_code":"NZ","country":"New Zealand","postal_code":"3198","route":"1124B Wainui Rd","formatted_address":"1124B Wainui Rd, Wainui 3198, New Zealand"}},{"business_url":"http:\/\/summittyres.co.nz\/","yp_url":"https:\/\/yellow.co.nz\/y\/summit-tyre-services?src=name","addrInfo":{"lat":-37.6947602,"lng":176.1393464,"street_number":"200","locality":"Tauranga","administrative_area_level_1":"Bay Of Plenty","country_code":"NZ","country":"New Zealand","postal_code":"3110","route":"200 Waihi Rd","formatted_address":"200 Waihi Rd, Judea, Tauranga 3110, New Zealand"}},{"business_url":"http:\/\/www.fivestarauto.co.nz","yp_url":"https:\/\/yellow.co.nz\/y\/five-star-automotive?src=name","addrInfo":{"lat":-36.7926428,"lng":174.7654301,"street_number":"28","locality":"Auckland","administrative_area_level_1":"Auckland","country_code":"NZ","country":"New Zealand","postal_code":"0622","route":"28 Barrys Point Rd","formatted_address":"28 Barrys Point Rd, Takapuna, Auckland 0622, New Zealand"}},{"business_url":"http:\/\/www.geddesautomotive.co.nz","yp_url":"https:\/\/yellow.co.nz\/y\/geddes-cambelt-muffler?src=name","addrInfo":{"lat":-36.923889,"lng":174.7829081,"street_number":"40","locality":"Auckland","administrative_area_level_1":"Auckland","country_code":"NZ","country":"New Zealand","postal_code":"1061","route":"40 Selwyn St","formatted_address":"38\/40 Selwyn St, Onehunga, Auckland 1061, New Zealand"}},{"business_url":"http:\/\/www.glenedenautoservices.co.nz","yp_url":"https:\/\/yellow.co.nz\/y\/glen-eden-auto-glen?src=name","addrInfo":{"lat":-36.9094199,"lng":174.6513152,"street_number":"6","locality":"Auckland","administrative_area_level_1":"Auckland","country_code":"NZ","country":"New Zealand","postal_code":"0602","route":"6 Waikumete Rd","formatted_address":"3\/6 Waikumete Rd, Glen Eden, Auckland 0602, New Zealand"}},{"business_url":"http:\/\/www.autopal.co.nz","yp_url":"https:\/\/yellow.co.nz\/y\/autopal-vehicle-servicing-takapuna?src=name","addrInfo":{"lat":-36.794165,"lng":174.7655984,"street_number":"48","locality":"Auckland","administrative_area_level_1":"Auckland","country_code":"NZ","country":"New Zealand","postal_code":"0622","route":"48 Barrys Point Rd","formatted_address":"48 Barrys Point Rd, Takapuna, Auckland 0622, New Zealand"}},{"business_url":"https:\/\/www.facebook.com\/pages\/Corson-Tyres-LTD-2012\/306363402802687","yp_url":"https:\/\/yellow.co.nz\/y\/corson-tyres-new?src=name","addrInfo":{"lat":-39.0536875,"lng":174.0844748,"street_number":"160","locality":"New Plymouth","administrative_area_level_1":"Taranaki","country_code":"NZ","country":"New Zealand","postal_code":"4312","route":"160 Gill St","formatted_address":"160 Gill St, Strandon, New Plymouth 4312, New Zealand"}},{"business_url":"http:\/\/summittyres.co.nz\/bop-discount-tyres\/","yp_url":"https:\/\/yellow.co.nz\/y\/bop-discount-tyres?src=name","addrInfo":{"lat":-37.7363295,"lng":176.1335386,"street_number":"60","locality":"Tauranga","administrative_area_level_1":"Bay Of Plenty","country_code":"NZ","country":"New Zealand","postal_code":"3112","route":"60 Maleme St","formatted_address":"60 Maleme St, Greerton, Tauranga 3112, New Zealand"}},{"business_url":"http:\/\/swainindependentrepairs.co.nz","yp_url":"https:\/\/yellow.co.nz\/y\/swain-independent-repairs?src=name","addrInfo":{"lat":-38.6570589,"lng":176.1142729,"street_number":"974","locality":"Rotokawa","administrative_area_level_1":"Waikato","country_code":"NZ","country":"New Zealand","postal_code":"3378","route":"974 Rakaunui Rd","formatted_address":"974 Rakaunui Rd, Rotokawa 3378, New Zealand"}},{"business_url":"http:\/\/www.totalautomotiveltd.co.nz","yp_url":"https:\/\/yellow.co.nz\/y\/total-automotive-engineering?src=name","addrInfo":{"lat":-38.0032692,"lng":175.3315184,"street_number":"452","locality":"Te Awamutu","administrative_area_level_1":"Waikato","country_code":"NZ","country":"New Zealand","postal_code":"3800","route":"452 Bond Rd","formatted_address":"452 Bond Rd, Te Awamutu 3800, New Zealand"}},{"business_url":"http:\/\/zenautomotive.co.nz","yp_url":"https:\/\/yellow.co.nz\/y\/zen-automotive-2011?src=name","addrInfo":{"lat":-36.9020034,"lng":174.6856702,"street_number":"78","locality":"Auckland","administrative_area_level_1":"Auckland","country_code":"NZ","country":"New Zealand","postal_code":"0600","route":"78 Delta Ave","formatted_address":"78 Delta Ave, New Lynn, Auckland 0600, New Zealand"}},{"business_url":"http:\/\/www.civicautomotive.co.nz","yp_url":"https:\/\/yellow.co.nz\/y\/civic-automotive-electrical-parnell?src=name","addrInfo":{"lat":-36.8495715,"lng":174.7782494,"street_number":"61","locality":"Auckland","administrative_area_level_1":"Auckland","country_code":"NZ","country":"New Zealand","postal_code":"1010","route":"61 The Strand","formatted_address":"61 The Strand, Parnell, Auckland 1010, New Zealand"}},{"business_url":"http:\/\/www.gpautomotive.co.nz","yp_url":"https:\/\/yellow.co.nz\/y\/gary-prohm-automotive?src=name","addrInfo":{"lat":-36.9113701,"lng":174.7720743,"street_number":"681","locality":"Auckland","administrative_area_level_1":"Auckland","country_code":"NZ","country":"New Zealand","postal_code":"1023","route":"681 Mount Albert Rd","formatted_address":"681 Mount Albert Rd, Royal Oak, Auckland 1023, New Zealand"}},{"business_url":"http:\/\/www.birchavetyres.co.nz","yp_url":"https:\/\/yellow.co.nz\/y\/commercial-tyres-judea?src=name","addrInfo":{"lat":-37.6999212,"lng":176.1475726,"street_number":"56","locality":"Tauranga","administrative_area_level_1":"Bay Of Plenty","country_code":"NZ","country":"New Zealand","postal_code":"3110","route":"56 Birch Ave","formatted_address":"56 Birch Ave, Judea, Tauranga 3110, New Zealand"}},{"business_url":"http:\/\/www.cartuneponsonby.co.nz","yp_url":"https:\/\/yellow.co.nz\/y\/cartune-ponsonby?src=name","addrInfo":{"lat":-36.8482804,"lng":174.7427179,"street_number":"9","locality":"Auckland","administrative_area_level_1":"Auckland","country_code":"NZ","country":"New Zealand","postal_code":"1011","route":"9 Redmond St","formatted_address":"9 Redmond St, Ponsonby, Auckland 1011, New Zealand"}},{"business_url":"http:\/\/www.hometune.co.nz","yp_url":"https:\/\/yellow.co.nz\/y\/hometune-mount?src=name","addrInfo":{"lat":-36.8684202,"lng":174.7603875,"street_number":"101","locality":"Auckland","administrative_area_level_1":"Auckland","country_code":"NZ","country":"New Zealand","postal_code":"1024","route":"101 Mount Eden Rd","formatted_address":"101 Mount Eden Rd, Mount Eden, Auckland 1024, New Zealand"}},{"business_url":"http:\/\/www.turbodiesel.co.nz","yp_url":"https:\/\/yellow.co.nz\/y\/turbo-diesel-specialists-hamilton?src=name","addrInfo":{"lat":-37.8049583,"lng":175.2577426,"street_number":"281","locality":"Hamilton","administrative_area_level_1":"Waikato","country_code":"NZ","country":"New Zealand","postal_code":"3204","route":"281 Kahikatea Dr","formatted_address":"281 Kahikatea Dr, Frankton, Hamilton 3204, New Zealand"}},{"business_url":"http:\/\/www.csautotech.co.nz","yp_url":"https:\/\/yellow.co.nz\/y\/cs-autotech-grasslands?src=name","addrInfo":{"lat":-37.8057753,"lng":175.2637493,"street_number":"10","locality":"Hamilton","administrative_area_level_1":"Waikato","country_code":"NZ","country":"New Zealand","postal_code":"3204","route":"10 Grasslands Pl","formatted_address":"10 Grasslands Pl, Frankton, Hamilton 3204, New Zealand"}},{"business_url":"http:\/\/www.greystmotors.co.nz","yp_url":"https:\/\/yellow.co.nz\/y\/grey-st-motors-grey?src=name","addrInfo":{"lat":-37.7929332,"lng":175.2932834,"street_number":"376","locality":"Hamilton","administrative_area_level_1":"Waikato","country_code":"NZ","country":"New Zealand","postal_code":"3216","route":"376 Grey St","formatted_address":"376 Grey St, Hamilton East, Hamilton 3216, New Zealand"}},{"business_url":"http:\/\/www.mechanicsnewplymouth.co.nz","yp_url":"https:\/\/yellow.co.nz\/y\/rotech-automotive?src=name","addrInfo":{"lat":-39.0526378,"lng":174.0839934,"street_number":"133","locality":"New Plymouth","administrative_area_level_1":"Taranaki","country_code":"NZ","country":"New Zealand","postal_code":"4312","route":"133 Molesworth St","formatted_address":"133 Molesworth St, New Plymouth 4312, New Zealand"}},{"business_url":"http:\/\/www.kneaded.net.nz","yp_url":"https:\/\/yellow.co.nz\/y\/kneaded?src=name","addrInfo":{"lat":-39.0571931,"lng":174.0752572,"street_number":"39","locality":"New Plymouth","administrative_area_level_1":"Taranaki","country_code":"NZ","country":"New Zealand","postal_code":"4310","route":"39 Devon St E","formatted_address":"39 Devon St E, New Plymouth 4310, New Zealand"}},{"business_url":"http:\/\/www.koreancarparts.co.nz","yp_url":"https:\/\/yellow.co.nz\/y\/eastern-for-korean-auto?src=name","addrInfo":{"lat":-36.9590137,"lng":174.85866,"street_number":"17","locality":"Auckland","administrative_area_level_1":"Auckland","country_code":"NZ","country":"New Zealand","postal_code":"2025","route":"17 Bairds Rd","formatted_address":"17 Bairds Rd, Otara, Auckland 2025, New Zealand"}},{"business_url":"http:\/\/www.autoelec.co.nz\/","yp_url":"https:\/\/yellow.co.nz\/y\/papakura-auto-electrical?src=name","addrInfo":{"lat":-37.0645172,"lng":174.9417513,"street_number":"35","locality":"Papakura","administrative_area_level_1":"Auckland","country_code":"NZ","country":"New Zealand","postal_code":"2110","route":"35 East St","formatted_address":"35 East St, Papakura, Papakura 2110, New Zealand"}},{"business_url":"http:\/\/www.thebatteryclinic.co.nz","yp_url":"https:\/\/yellow.co.nz\/y\/battery-clinic?src=name","addrInfo":{"lat":-36.9373953,"lng":174.8368106,"street_number":"33","locality":"Auckland","administrative_area_level_1":"Auckland","country_code":"NZ","country":"New Zealand","postal_code":"1062","route":"33 Great South Rd","formatted_address":"33 Great South Rd, Otahuhu, Auckland 1062, New Zealand"}},{"business_url":"http:\/\/www.ellerslieautomotive.co.nz","yp_url":"https:\/\/yellow.co.nz\/y\/ellerslie-automotive-and-tyres?src=name","addrInfo":{"lat":-36.8993934,"lng":174.8129669,"street_number":"171","locality":"Auckland","administrative_area_level_1":"Auckland","country_code":"NZ","country":"New Zealand","postal_code":"1051","route":"171 Main Hwy","formatted_address":"171 Main Hwy, Ellerslie, Auckland 1051, New Zealand"}},{"business_url":"http:\/\/www.autocarepukekohe.co.nz\/","yp_url":"https:\/\/yellow.co.nz\/y\/auto-care-pukekohe?src=name","addrInfo":{"lat":-37.206907,"lng":174.9092503,"street_number":"147","locality":"Pukekohe","administrative_area_level_1":"Auckland","country_code":"NZ","country":"New Zealand","postal_code":"2120","route":"147 Manukau Rd","formatted_address":"147 Manukau Rd, Pukekohe 2120, New Zealand"}},{"business_url":"http:\/\/www.quaystreetautos.co.nz\/","yp_url":"https:\/\/yellow.co.nz\/y\/quay-st-autos-quay?src=name","addrInfo":{"lat":-36.8478995,"lng":174.7818683,"street_number":"6","locality":"Auckland","administrative_area_level_1":"Auckland","country_code":"NZ","country":"New Zealand","postal_code":"1010","route":"6 Quay St","formatted_address":"6 Quay St, Auckland, Auckland 1010, New Zealand"}}]