[{"business_url":"http:\/\/www.kensingtonhospital.co.nz","yp_url":"https:\/\/yellow.co.nz\/y\/eye-centre-primecare?src=name&c=779","addrInfo":{"lat":-35.7087489,"lng":174.3198305,"street_number":"16","locality":"Whangarei","administrative_area_level_1":"Northland","country_code":"NZ","country":"New Zealand","postal_code":"0112","route":"16 Kensington Ave","formatted_address":"12\/16 Kensington Ave, Kensington, Whangarei 0112, New Zealand"}},{"business_url":"http:\/\/www.eyeinstitute.co.nz","yp_url":"https:\/\/yellow.co.nz\/y\/eye-institute-remuera-road-7?src=name&c=779","addrInfo":{"lat":-36.8744643,"lng":174.7832643,"street_number":"123","locality":"Auckland","administrative_area_level_1":"Auckland","country_code":"NZ","country":"New Zealand","postal_code":"1050","route":"123 Remuera Rd","formatted_address":"123 Remuera Rd, Remuera, Auckland 1050, New Zealand"}},{"business_url":"http:\/\/www.eyeinstitute.co.nz","yp_url":"https:\/\/yellow.co.nz\/y\/eye-institute-wairau-valley?src=name&c=779","addrInfo":{"lat":-36.7701528,"lng":174.7329153,"street_number":"212","locality":"Auckland","administrative_area_level_1":"Auckland","country_code":"NZ","country":"New Zealand","postal_code":"0627","route":"212 Wairau Rd","formatted_address":"212 Wairau Rd, Wairau Valley, Auckland 0627, New Zealand"}},{"business_url":"http:\/\/www.eyeinstitute.co.nz","yp_url":"https:\/\/yellow.co.nz\/y\/eye-institute-new-lynn?src=name&c=779","addrInfo":{"lat":-36.9048545,"lng":174.6844513,"street_number":"19","locality":"Auckland","administrative_area_level_1":"Auckland","country_code":"NZ","country":"New Zealand","postal_code":"0600","route":"19 Delta Ave","formatted_address":"19 Delta Ave, New Lynn, Auckland 0600, New Zealand"}},{"business_url":"http:\/\/www.healthpoint.co.nz\/specialists\/ophthalmology\/milford-eye-clinic\/at\/181-shakespeare-road-milford\/","yp_url":"https:\/\/yellow.co.nz\/y\/milford-eye-shakespeare?src=name&c=779","addrInfo":{"lat":-36.7797884,"lng":174.7549784,"street_number":"181","locality":"Auckland","administrative_area_level_1":"Auckland","country_code":"NZ","country":"New Zealand","postal_code":"0620","route":"181 Shakespeare Rd","formatted_address":"181 Shakespeare Rd, Milford, Auckland 0620, New Zealand"}},{"business_url":"http:\/\/www.retinaspecialists.co.nz","yp_url":"https:\/\/yellow.co.nz\/y\/retina-specialists?src=name&c=779","addrInfo":{"lat":-36.8622982,"lng":174.7797963,"street_number":"20","locality":"Auckland","administrative_area_level_1":"Auckland","country_code":"NZ","country":"New Zealand","postal_code":"1052","route":"20 Titoki St","formatted_address":"20 Titoki St, Parnell, Auckland 1052, New Zealand"}},{"business_url":"http:\/\/www.aucklandeye.co.nz","yp_url":"https:\/\/yellow.co.nz\/y\/auckland-eye?src=name&c=779","addrInfo":{"lat":-37.0158893,"lng":174.8917092,"street_number":"85","locality":"Auckland","administrative_area_level_1":"Auckland","country_code":"NZ","country":"New Zealand","postal_code":"2102","route":"85 Great South Rd","formatted_address":"79\/85 Great South Rd, Manurewa, Auckland 2102, New Zealand"}},{"business_url":"http:\/\/www.taurangaeyespecialists.co.nz\/#about","yp_url":"https:\/\/yellow.co.nz\/y\/tauranga-eye-specialists-tauranga?src=name&c=779","addrInfo":{"lat":-37.6790329,"lng":176.1676387,"street_number":"25","locality":"Tauranga","administrative_area_level_1":"Bay Of Plenty","country_code":"NZ","country":"New Zealand","postal_code":"3110","route":"25 Park St","formatted_address":"25 Park St, Tauranga, Tauranga 3110, New Zealand"}},{"business_url":"http:\/\/www.hamiltoneyeclinic.co.nz","yp_url":"https:\/\/yellow.co.nz\/y\/hamilton-eye-clinic?src=name&c=779","addrInfo":{"lat":-37.7929054,"lng":175.2894973,"street_number":"130","locality":"Hamilton","administrative_area_level_1":"Waikato","country_code":"NZ","country":"New Zealand","postal_code":"3204","route":"130 Grantham St","formatted_address":"130 Grantham St, Hamilton 3204, New Zealand"}},{"business_url":"http:\/\/www.healthpoint.co.nz\/specialists\/ophthalmology\/milford-eye-clinic\/at\/181-shakespeare-road-milford\/","yp_url":"https:\/\/yellow.co.nz\/y\/milford-eye-clinic-milford?src=name&c=779","addrInfo":{"lat":-36.7797884,"lng":174.7549784,"street_number":"181","locality":"Auckland","administrative_area_level_1":"Auckland","country_code":"NZ","country":"New Zealand","postal_code":"0620","route":"181 Shakespeare Rd","formatted_address":"181 Shakespeare Rd, Milford, Auckland 0620, New Zealand"}}]