[{"business_url":"http:\/\/www.livingsimply.co.nz","yp_url":"https:\/\/yellow.co.nz\/y\/living-simply-auckland-newmarket?src=name","addrInfo":{"lat":-36.870302,"lng":174.7770446,"street_number":"255","locality":"Auckland","administrative_area_level_1":"Auckland","country_code":"NZ","country":"New Zealand","postal_code":"1023","route":"255 Broadway","formatted_address":"1st\/255 Broadway, Newmarket, Auckland 1023, New Zealand"}},{"business_url":"http:\/\/www.raglansurfingschool.co.nz","yp_url":"https:\/\/yellow.co.nz\/y\/raglan-surfing-school?src=name","addrInfo":{"lat":-37.8247868,"lng":174.8037205,"street_number":"5B","locality":"Raglan","administrative_area_level_1":"Waikato","country_code":"NZ","country":"New Zealand","postal_code":"3297","route":"5B Whaanga Rd","formatted_address":"5B Whaanga Rd, Raglan 3297, New Zealand"}},{"business_url":"http:\/\/www.lockboxstorage.co.nz","yp_url":"https:\/\/yellow.co.nz\/y\/lockbox-storage-rangiora?src=name","addrInfo":{"lat":-43.336713,"lng":172.5988557,"street_number":"170","locality":"Rangiora","administrative_area_level_1":"Canterbury","country_code":"NZ","country":"New Zealand","postal_code":"7691","route":"170 Fernside Rd","formatted_address":"170 Fernside Rd, Rangiora 7691, New Zealand"}},{"business_url":"http:\/\/www.kaikourakayaks.co.nz","yp_url":"https:\/\/yellow.co.nz\/y\/kaikoura-kayaks?src=name","addrInfo":{"lat":-42.4072996,"lng":173.6829078,"street_number":"19","locality":"Kaikoura","administrative_area_level_1":"Canterbury","country_code":"NZ","country":"New Zealand","postal_code":"7300","route":"19 Killarney St","formatted_address":"19 Killarney St, Kaikoura 7300, New Zealand"}},{"business_url":"http:\/\/www.huntingandfishing.co.nz\/","yp_url":"https:\/\/yellow.co.nz\/y\/hunting-fishing-new-rangiora?src=name","addrInfo":{"lat":-43.3317097,"lng":172.6003727,"street_number":"305","locality":"Rangiora","administrative_area_level_1":"Canterbury","country_code":"NZ","country":"New Zealand","postal_code":"7400","route":"305 Flaxton Rd","formatted_address":"305 Flaxton Rd, Rangiora 7400, New Zealand"}},{"business_url":"http:\/\/www.outsidesports.co.nz","yp_url":"https:\/\/yellow.co.nz\/y\/outside-sports-te?src=name","addrInfo":{"lat":-45.4165477,"lng":167.7136984,"street_number":"40","locality":"Te Anau","administrative_area_level_1":"Southland","country_code":"NZ","country":"New Zealand","postal_code":"9600","route":"40 Town Centre","formatted_address":"38\/40 Town Centre, Te Anau 9600, New Zealand"}}]