[{"business_url":"http:\/\/www.pluspac.co.nz","yp_url":"https:\/\/yellow.co.nz\/y\/plus-pac-packaging-solutions?src=name&c=1236","addrInfo":{"lat":-37.0029691,"lng":174.8766794,"street_number":"10B","locality":"Auckland","administrative_area_level_1":"Auckland","country_code":"NZ","country":"New Zealand","postal_code":"2104","route":"10B Earl Richardson Ave","formatted_address":"10B Earl Richardson Ave, Wiri, Auckland 2104, New Zealand"}},{"business_url":"http:\/\/www.popepackaging.co.nz","yp_url":"https:\/\/yellow.co.nz\/y\/pope-packaging?src=name&c=1236","addrInfo":{"lat":-37.0198824,"lng":174.8916987,"street_number":"32B","locality":"Auckland","administrative_area_level_1":"Auckland","country_code":"NZ","country":"New Zealand","postal_code":"2102","route":"32B Maich Rd","formatted_address":"32B Maich Rd, Manurewa, Auckland 2102, New Zealand"}},{"business_url":"http:\/\/www.convex.co.nz","yp_url":"https:\/\/yellow.co.nz\/y\/convex-plastic?src=name&c=1236","addrInfo":{"lat":-36.8990547,"lng":174.8052215,"street_number":"2","locality":"Auckland","administrative_area_level_1":"Auckland","country_code":"NZ","country":"New Zealand","postal_code":"1051","route":"2 Kalmia St","formatted_address":"2 Kalmia St, Ellerslie, Auckland 1051, New Zealand"}},{"business_url":"http:\/\/www.bgdistributors.co.nz","yp_url":"https:\/\/yellow.co.nz\/y\/bg-distributors-east?src=name&c=1236","addrInfo":{"lat":-36.9486215,"lng":174.8949206,"street_number":"1-3","locality":"Auckland","administrative_area_level_1":"Auckland","country_code":"NZ","country":"New Zealand","postal_code":"2013","route":"1-3 Sir William Ave","formatted_address":"2\/1-3 Sir William Ave, East Tamaki, Auckland 2013, New Zealand"}},{"business_url":"http:\/\/www.hitechpackaging.co.nz","yp_url":"https:\/\/yellow.co.nz\/y\/hi-tech-packaging-winston?src=name&c=1236","addrInfo":{"lat":-36.7412109,"lng":174.7270144,"street_number":"62","locality":"Auckland","administrative_area_level_1":"Auckland","country_code":"NZ","country":"New Zealand","postal_code":"0632","route":"62 Apollo Dr","formatted_address":"62 Apollo Dr, Rosedale, Auckland 0632, New Zealand"}},{"business_url":"http:\/\/www.clearviewpackaging.co.nz","yp_url":"https:\/\/yellow.co.nz\/y\/clearview-packaging-hannigan-drive?src=name&c=1236","addrInfo":{"lat":-36.9243319,"lng":174.8010048,"street_number":"119","locality":"Auckland","administrative_area_level_1":"Auckland","country_code":"NZ","country":"New Zealand","postal_code":"1061","route":"119 Captain Springs Rd","formatted_address":"119 Captain Springs Rd, Onehunga, Auckland 1061, New Zealand"}},{"business_url":"http:\/\/www.eamar.co.nz","yp_url":"https:\/\/yellow.co.nz\/y\/eamar-plastics-nz?src=name&c=1236","addrInfo":{"lat":-36.8849354,"lng":174.6238998,"street_number":"41","locality":"Auckland","administrative_area_level_1":"Auckland","country_code":"NZ","country":"New Zealand","postal_code":"0612","route":"41 Keeling Rd","formatted_address":"41 Keeling Rd, Henderson, Auckland 0612, New Zealand"}},{"business_url":"http:\/\/www.airgunservices.co.nz","yp_url":"https:\/\/yellow.co.nz\/y\/air-gun-services-2012?src=name&c=1236","addrInfo":{"lat":-36.9193957,"lng":174.814522,"street_number":"1","locality":"Auckland","administrative_area_level_1":"Auckland","country_code":"NZ","country":"New Zealand","postal_code":"1061","route":"1 Beasley Ave","formatted_address":"1 Beasley Ave, Penrose, Auckland 1061, New Zealand"}},{"business_url":"http:\/\/www.plasweld.co.nz","yp_url":"https:\/\/yellow.co.nz\/y\/plasweld?src=name&c=1236","addrInfo":{"lat":-36.7855372,"lng":174.7424415,"street_number":"5","locality":"Auckland","administrative_area_level_1":"Auckland","country_code":"NZ","country":"New Zealand","postal_code":"0627","route":"5 Argus Pl","formatted_address":"5 Argus Pl, Hillcrest, Auckland 0627, New Zealand"}},{"business_url":"http:\/\/www.amseal.co.nz","yp_url":"https:\/\/yellow.co.nz\/y\/amseal-closure-systems?src=name&c=1236","addrInfo":{"lat":-36.7821066,"lng":174.7413086,"street_number":"39","locality":"Auckland","administrative_area_level_1":"Auckland","country_code":"NZ","country":"New Zealand","postal_code":"0627","route":"39 Porana Rd","formatted_address":"39 Porana Rd, Wairau Valley, Auckland 0627, New Zealand"}},{"business_url":"http:\/\/www.packcentre.co.nz","yp_url":"https:\/\/yellow.co.nz\/y\/packcentre?src=name&c=1236","addrInfo":{"lat":-39.05458,"lng":174.0869415,"street_number":"35-37","locality":"New Plymouth","administrative_area_level_1":"Taranaki","country_code":"NZ","country":"New Zealand","postal_code":"4312","route":"35-37 Hobson St","formatted_address":"35-37 Hobson St, New Plymouth 4312, New Zealand"}},{"business_url":"http:\/\/www.goldfields.co.nz","yp_url":"https:\/\/yellow.co.nz\/y\/goldfields-print-packaging?src=name&c=1236","addrInfo":{"lat":-37.5526122,"lng":175.7032031,"street_number":"10","locality":"Te Aroha","administrative_area_level_1":"Waikato","country_code":"NZ","country":"New Zealand","postal_code":"3320","route":"10 SH 26","formatted_address":"10 SH 26, Te Aroha 3320, New Zealand"}},{"business_url":"http:\/\/www.petespackaging.co.nz","yp_url":"https:\/\/yellow.co.nz\/y\/petes-packaging-henderson?src=name&c=1236","addrInfo":{"lat":-36.8964814,"lng":174.6289208,"street_number":"11","locality":"Auckland","administrative_area_level_1":"Auckland","country_code":"NZ","country":"New Zealand","postal_code":"0612","route":"11 Heremai Rd","formatted_address":"11 Heremai Rd, Henderson, Auckland 0612, New Zealand"}},{"business_url":"http:\/\/www.crpackers.co.nz","yp_url":"https:\/\/yellow.co.nz\/y\/cr-packers-pakuranga?src=name&c=1238","addrInfo":{"lat":-36.9157298,"lng":174.896481,"street_number":"9","locality":"Auckland","administrative_area_level_1":"Auckland","country_code":"NZ","country":"New Zealand","postal_code":"2010","route":"9 Canon Pl","formatted_address":"9 Canon Pl, Pakuranga Heights, Auckland 2010, New Zealand"}},{"business_url":"http:\/\/www.punchbowlpackaging.co.nz","yp_url":"https:\/\/yellow.co.nz\/y\/punchbowl-packaging-glenbrook-road?src=name&c=1236","addrInfo":{"lat":-37.1630671,"lng":174.818333,"street_number":"646","locality":"Kingseat","administrative_area_level_1":"Auckland","country_code":"NZ","country":"New Zealand","postal_code":"2679","route":"646 Glenbrook Rd","formatted_address":"646 Glenbrook Rd, Kingseat 2679, New Zealand"}},{"business_url":"http:\/\/www.snell.co.nz","yp_url":"https:\/\/yellow.co.nz\/y\/snell-packaging-safety-goodman?src=name&c=1236","addrInfo":{"lat":-36.9185484,"lng":174.8062851,"street_number":"8","locality":"Auckland","administrative_area_level_1":"Auckland","country_code":"NZ","country":"New Zealand","postal_code":"1061","route":"8 Goodman Pl","formatted_address":"6\/8 Goodman Pl, Penrose, Auckland 1061, New Zealand"}},{"business_url":"http:\/\/www.snell.co.nz","yp_url":"https:\/\/yellow.co.nz\/y\/snell-packaging-safety-pukete?src=name&c=1236","addrInfo":{"lat":-37.7420727,"lng":175.2315382,"street_number":"2","locality":"Hamilton","administrative_area_level_1":"Waikato","country_code":"NZ","country":"New Zealand","postal_code":"3200","route":"2 Maui St","formatted_address":"2 Maui St, Pukete, Hamilton 3200, New Zealand"}},{"business_url":"http:\/\/www.elevatorgroup.org.nz","yp_url":"https:\/\/yellow.co.nz\/y\/altus-enterprises?src=name&c=1236","addrInfo":{"lat":-36.9896878,"lng":174.8542808,"street_number":"246","locality":"Auckland","administrative_area_level_1":"Auckland","country_code":"NZ","country":"New Zealand","postal_code":"2025","route":"246 Puhinui Rd","formatted_address":"246 Puhinui Rd, Papatoetoe, Auckland 2025, New Zealand"}},{"business_url":"http:\/\/www.stratexgroup.co.nz","yp_url":"https:\/\/yellow.co.nz\/y\/stratex-nz?src=name&c=1236","addrInfo":{"lat":-36.9252733,"lng":174.8335663,"street_number":"13-21","locality":"Auckland","administrative_area_level_1":"Auckland","country_code":"NZ","country":"New Zealand","postal_code":"1060","route":"13-21 Sylvia Park Rd","formatted_address":"19\/13-21 Sylvia Park Rd, Mount Wellington, Auckland 1060, New Zealand"}},{"business_url":"http:\/\/www.kellow.co.nz","yp_url":"https:\/\/yellow.co.nz\/y\/kelco-engineering?src=name&c=1236","addrInfo":{"lat":-36.9517473,"lng":174.8363769,"street_number":"16","locality":"Auckland","administrative_area_level_1":"Auckland","country_code":"NZ","country":"New Zealand","postal_code":"1062","route":"16 Weka St","formatted_address":"1\/16 Weka St, Otahuhu, Auckland 1062, New Zealand"}},{"business_url":"http:\/\/www.custompak.co.nz","yp_url":"https:\/\/yellow.co.nz\/y\/custom-pak-plastic?src=name&c=1236","addrInfo":{"lat":-36.9442516,"lng":174.8900558,"street_number":"4","locality":"Auckland","administrative_area_level_1":"Auckland","country_code":"NZ","country":"New Zealand","postal_code":"2013","route":"4 Zelanian Dr","formatted_address":"4 Zelanian Dr, East Tamaki, Auckland 2013, New Zealand"}},{"business_url":"http:\/\/www.rlbutton.co.nz","yp_url":"https:\/\/yellow.co.nz\/y\/rl-button-co?src=name&c=1236","addrInfo":{"lat":-36.9283511,"lng":174.8377712,"street_number":"1","locality":"Auckland","administrative_area_level_1":"Auckland","country_code":"NZ","country":"New Zealand","postal_code":"1060","route":"1 Niall Burgess Rd","formatted_address":"1 Niall Burgess Rd, Mount Wellington, Auckland 1060, New Zealand"}},{"business_url":"http:\/\/www.elldex.com","yp_url":"https:\/\/yellow.co.nz\/y\/elldex-packaging-rosedale-north?src=name&c=1236","addrInfo":{"lat":-36.7422744,"lng":174.7307661,"street_number":"8","locality":"Auckland","administrative_area_level_1":"Auckland","country_code":"NZ","country":"New Zealand","postal_code":"0632","route":"8 Antares Pl","formatted_address":"8 Antares Pl, Rosedale, Auckland 0632, New Zealand"}},{"business_url":"http:\/\/www.ravenrolls.co.nz","yp_url":"https:\/\/yellow.co.nz\/y\/raven-rolls?src=name&c=1236","addrInfo":{"lat":-36.9903123,"lng":174.8653914,"street_number":"43","locality":"Auckland","administrative_area_level_1":"Auckland","country_code":"NZ","country":"New Zealand","postal_code":"2104","route":"43 Grayson Ave","formatted_address":"43 Grayson Ave, Papatoetoe, Auckland 2104, New Zealand"}},{"business_url":"http:\/\/www.attwoods.co.nz","yp_url":"https:\/\/yellow.co.nz\/y\/attwoods-packaging-east?src=name&c=1236","addrInfo":{"lat":-36.9486284,"lng":174.8940507,"street_number":"2","locality":"Auckland","administrative_area_level_1":"Auckland","country_code":"NZ","country":"New Zealand","postal_code":"2013","route":"2 Sir William Ave","formatted_address":"2 Sir William Ave, East Tamaki, Auckland 2013, New Zealand"}},{"business_url":"http:\/\/www.polyprint.co.nz","yp_url":"https:\/\/yellow.co.nz\/y\/polyprint-packaging-albany?src=name&c=1236","addrInfo":{"lat":-36.7504002,"lng":174.6961291,"street_number":"16","locality":"Auckland","administrative_area_level_1":"Auckland","country_code":"NZ","country":"New Zealand","postal_code":"0632","route":"16 Parkhead Pl","formatted_address":"16 Parkhead Pl, Rosedale, Auckland 0632, New Zealand"}},{"business_url":"http:\/\/www.classiqueint.com","yp_url":"https:\/\/yellow.co.nz\/y\/classique-international?src=name&c=1236","addrInfo":{"lat":-36.7412109,"lng":174.7270144,"street_number":"62","locality":"Auckland","administrative_area_level_1":"Auckland","country_code":"NZ","country":"New Zealand","postal_code":"0632","route":"62 Apollo Dr","formatted_address":"62 Apollo Dr, Rosedale, Auckland 0632, New Zealand"}},{"business_url":"http:\/\/www.elldex.com","yp_url":"https:\/\/yellow.co.nz\/y\/elldex-packaging-rosedale-north?src=name&c=1236","addrInfo":{"lat":-36.7422744,"lng":174.7307661,"street_number":"8","locality":"Auckland","administrative_area_level_1":"Auckland","country_code":"NZ","country":"New Zealand","postal_code":"0632","route":"8 Antares Pl","formatted_address":"8 Antares Pl, Rosedale, Auckland 0632, New Zealand"}},{"business_url":"http:\/\/www.convex.co.nz","yp_url":"https:\/\/yellow.co.nz\/y\/convex-plastics?src=name&c=1236","addrInfo":{"lat":-36.8990547,"lng":174.8052215,"street_number":"2","locality":"Auckland","administrative_area_level_1":"Auckland","country_code":"NZ","country":"New Zealand","postal_code":"1051","route":"2 Kalmia St","formatted_address":"2 Kalmia St, Ellerslie, Auckland 1051, New Zealand"}},{"business_url":"http:\/\/www.ravenrolls.co.nz","yp_url":"https:\/\/yellow.co.nz\/y\/raven-rolls?src=name&c=1236","addrInfo":{"lat":-36.9903123,"lng":174.8653914,"street_number":"43","locality":"Auckland","administrative_area_level_1":"Auckland","country_code":"NZ","country":"New Zealand","postal_code":"2104","route":"43 Grayson Ave","formatted_address":"43 Grayson Ave, Papatoetoe, Auckland 2104, New Zealand"}},{"business_url":"http:\/\/www.nci-packaging.com","yp_url":"https:\/\/yellow.co.nz\/y\/nci-packaging-nz?src=name&c=1236","addrInfo":{"lat":-36.9019299,"lng":174.8430339,"street_number":"80","locality":"Auckland","administrative_area_level_1":"Auckland","country_code":"NZ","country":"New Zealand","postal_code":"1060","route":"80 Mount Wellington Hwy","formatted_address":"80 Mount Wellington Hwy, Mount Wellington, Auckland 1060, New Zealand"}},{"business_url":"http:\/\/www.stratexgroup.co.nz","yp_url":"https:\/\/yellow.co.nz\/y\/stratex-nz?src=name&c=1236","addrInfo":{"lat":-36.9252733,"lng":174.8335663,"street_number":"13-21","locality":"Auckland","administrative_area_level_1":"Auckland","country_code":"NZ","country":"New Zealand","postal_code":"1060","route":"13-21 Sylvia Park Rd","formatted_address":"19\/13-21 Sylvia Park Rd, Mount Wellington, Auckland 1060, New Zealand"}},{"business_url":"http:\/\/newimagemanufacture.co.nz","yp_url":"https:\/\/yellow.co.nz\/y\/new-image-group?src=name&c=1236","addrInfo":{"lat":-36.9454606,"lng":174.7949057,"street_number":"19","locality":"Manukau","administrative_area_level_1":"Auckland","country_code":"NZ","country":"New Zealand","postal_code":"2022","route":"19 Mahunga Dr","formatted_address":"19 Mahunga Dr, Mangere Bridge, Manukau 2022, New Zealand"}},{"business_url":"http:\/\/www.attwoods.co.nz","yp_url":"https:\/\/yellow.co.nz\/y\/attwoods-packaging-east?src=name&c=1236","addrInfo":{"lat":-36.9486284,"lng":174.8940507,"street_number":"2","locality":"Auckland","administrative_area_level_1":"Auckland","country_code":"NZ","country":"New Zealand","postal_code":"2013","route":"2 Sir William Ave","formatted_address":"2 Sir William Ave, East Tamaki, Auckland 2013, New Zealand"}},{"business_url":"http:\/\/www.confoil.co.nz","yp_url":"https:\/\/yellow.co.nz\/y\/confoil-nz-albany?src=name&c=1236","addrInfo":{"lat":-36.7470605,"lng":174.7045415,"street_number":"3","locality":"Auckland","administrative_area_level_1":"Auckland","country_code":"NZ","country":"New Zealand","postal_code":"0632","route":"3 Piermark Dr","formatted_address":"3 Piermark Dr, Rosedale, Auckland 0632, New Zealand"}},{"business_url":"http:\/\/www.budpac.co.nz","yp_url":"https:\/\/yellow.co.nz\/y\/budpac-north-island-kumeu?src=name&c=1236","addrInfo":{"lat":-36.773299,"lng":174.553929,"street_number":"156E","locality":"Kumeu","administrative_area_level_1":"Auckland","country_code":"NZ","country":"New Zealand","postal_code":"0810","route":"156E Main Rd","formatted_address":"156E Main Rd, Kumeu 0810, New Zealand"}},{"business_url":"http:\/\/www.starbox.co.nz","yp_url":"https:\/\/yellow.co.nz\/y\/star-box-onehunga?src=name&c=1236","addrInfo":{"lat":-36.9465485,"lng":174.7947934,"street_number":"25","locality":"Auckland","administrative_area_level_1":"Auckland","country_code":"NZ","country":"New Zealand","postal_code":"2022","route":"25 Mahunga Dr","formatted_address":"25 Mahunga Dr, Mangere Bridge, Auckland 2022, New Zealand"}},{"business_url":"http:\/\/www.supplyline.co.nz\/","yp_url":"https:\/\/yellow.co.nz\/y\/supplylineconz-auckland?src=name&c=1236","addrInfo":{"lat":-36.8586403,"lng":174.8295823,"street_number":"119","locality":"Auckland","administrative_area_level_1":"Auckland","country_code":"NZ","country":"New Zealand","postal_code":"1071","route":"119 Patteson Ave","formatted_address":"119 Patteson Ave, Mission Bay, Auckland 1071, New Zealand"}},{"business_url":"http:\/\/www.healthpak.co.nz","yp_url":"https:\/\/yellow.co.nz\/y\/health-pak-penrose?src=name&c=1238","addrInfo":{"lat":-36.9247852,"lng":174.8240349,"street_number":"120","locality":"Auckland","administrative_area_level_1":"Auckland","country_code":"NZ","country":"New Zealand","postal_code":"1061","route":"120 Hugo Johnston Dr","formatted_address":"120 Hugo Johnston Dr, Penrose, Auckland 1061, New Zealand"}},{"business_url":"http:\/\/www.a1safetynpackaging.co.nz","yp_url":"https:\/\/yellow.co.nz\/y\/a1-safety-packaging?src=name&c=1236","addrInfo":{"lat":-36.8862713,"lng":174.8498741,"street_number":"33","locality":"Auckland","administrative_area_level_1":"Auckland","country_code":"NZ","country":"New Zealand","postal_code":"1072","route":"33 Elizabeth Knox Pl","formatted_address":"1\/33 Elizabeth Knox Pl, St Johns, Auckland 1072, New Zealand"}},{"business_url":"http:\/\/www.insiturework.co.nz","yp_url":"https:\/\/yellow.co.nz\/y\/insitu-containers?src=name&c=1236","addrInfo":{"lat":-37.0050898,"lng":174.8758718,"street_number":"66","locality":"Auckland","administrative_area_level_1":"Auckland","country_code":"NZ","country":"New Zealand","postal_code":"2104","route":"66 Hobill Ave","formatted_address":"5\/66 Hobill Ave, Wiri, Auckland 2104, New Zealand"}},{"business_url":"http:\/\/www.columbit.co.nz","yp_url":"https:\/\/yellow.co.nz\/y\/columbit-nz?src=name&c=1236","addrInfo":{"lat":-36.9287683,"lng":174.8958683,"street_number":"150H","locality":"Auckland","administrative_area_level_1":"Auckland","country_code":"NZ","country":"New Zealand","postal_code":"2013","route":"150H Harris Rd","formatted_address":"150H Harris Rd, East Tamaki, Auckland 2013, New Zealand"}},{"business_url":"http:\/\/www.taranakirelocations.co.nz","yp_url":"https:\/\/yellow.co.nz\/y\/taranaki-relocations?src=name&c=1236","addrInfo":{"lat":-39.0528432,"lng":174.1112308,"street_number":"33","locality":"New Plymouth","administrative_area_level_1":"Taranaki","country_code":"NZ","country":"New Zealand","postal_code":"4312","route":"33 Atiawa St","formatted_address":"33 Atiawa St, Glen Avon, New Plymouth 4312, New Zealand"}},{"business_url":"http:\/\/www.airgunservices.co.nz","yp_url":"https:\/\/yellow.co.nz\/y\/air-gun-services?src=name&c=1236","addrInfo":{"lat":-36.9193957,"lng":174.814522,"street_number":"1","locality":"Auckland","administrative_area_level_1":"Auckland","country_code":"NZ","country":"New Zealand","postal_code":"1061","route":"1 Beasley Ave","formatted_address":"1 Beasley Ave, Penrose, Auckland 1061, New Zealand"}},{"business_url":"http:\/\/www.friendlypak.co.nz","yp_url":"https:\/\/yellow.co.nz\/y\/friendlypak?src=name&c=1236","addrInfo":{"lat":-36.8660681,"lng":174.7556062,"street_number":"18","locality":"Auckland","administrative_area_level_1":"Auckland","country_code":"NZ","country":"New Zealand","postal_code":"1021","route":"18 Virginia Ave E","formatted_address":"18 Virginia Ave E, Eden Terrace, Auckland 1021, New Zealand"}},{"business_url":"http:\/\/www.petespackaging.co.nz","yp_url":"https:\/\/yellow.co.nz\/y\/petes-packaging?src=name&c=1236","addrInfo":{"lat":-37.7572978,"lng":175.2386629,"street_number":"46","locality":"Hamilton","administrative_area_level_1":"Waikato","country_code":"NZ","country":"New Zealand","postal_code":"3200","route":"46 Northway St","formatted_address":"46 Northway St, Te Rapa, Hamilton 3200, New Zealand"}},{"business_url":"http:\/\/www.apet.org.nz","yp_url":"https:\/\/yellow.co.nz\/y\/apet-enterprises?src=name&c=1236","addrInfo":{"lat":-36.9584744,"lng":174.8511475,"street_number":"15","locality":"Auckland","administrative_area_level_1":"Auckland","country_code":"NZ","country":"New Zealand","postal_code":"2025","route":"15 Laureston Ave","formatted_address":"11\/15 Laureston Ave, Papatoetoe, Auckland 2025, New Zealand"}},{"business_url":"http:\/\/www.unibag.co.nz","yp_url":"https:\/\/yellow.co.nz\/y\/unibag-packaging-eden?src=name&c=1236","addrInfo":{"lat":-36.863942,"lng":174.7619851,"street_number":"44","locality":"Auckland","administrative_area_level_1":"Auckland","country_code":"NZ","country":"New Zealand","postal_code":"1023","route":"44 Khyber Pass Rd","formatted_address":"44 Khyber Pass Rd, Grafton, Auckland 1023, New Zealand"}},{"business_url":"http:\/\/www.bgdistributors.co.nz","yp_url":"https:\/\/yellow.co.nz\/y\/bg-distributors?src=name&c=1236","addrInfo":{"lat":-36.9486215,"lng":174.8949206,"street_number":"1-3","locality":"Auckland","administrative_area_level_1":"Auckland","country_code":"NZ","country":"New Zealand","postal_code":"2013","route":"1-3 Sir William Ave","formatted_address":"2\/1-3 Sir William Ave, East Tamaki, Auckland 2013, New Zealand"}},{"business_url":"http:\/\/www.visy.com.au","yp_url":"https:\/\/yellow.co.nz\/y\/visy-board-nz?src=name&c=1236","addrInfo":{"lat":-37.01325,"lng":174.8571875,"street_number":"235","locality":"Auckland","administrative_area_level_1":"Auckland","country_code":"NZ","country":"New Zealand","postal_code":"2104","route":"235 Roscommon Rd","formatted_address":"235 Roscommon Rd, Wiri, Auckland 2104, New Zealand"}},{"business_url":"http:\/\/www.paper-pak.net","yp_url":"https:\/\/yellow.co.nz\/y\/paper-pak-albany?src=name&c=1236","addrInfo":{"lat":-36.9859073,"lng":174.7892976,"street_number":"34","locality":"Auckland","administrative_area_level_1":"Auckland","country_code":"NZ","country":"New Zealand","postal_code":"2022","route":"34 Verissimo Dr","formatted_address":"34 Verissimo Dr, Mangere, Auckland 2022, New Zealand"}},{"business_url":"http:\/\/www.abcnd.co.nz","yp_url":"https:\/\/yellow.co.nz\/y\/cnl-international-weil?src=name&c=1236","addrInfo":{"lat":-36.9289887,"lng":174.8983285,"street_number":"19F","locality":"Auckland","administrative_area_level_1":"Auckland","country_code":"NZ","country":"New Zealand","postal_code":"2013","route":"19F Nandina Ave","formatted_address":"19F Nandina Ave, East Tamaki, Auckland 2013, New Zealand"}},{"business_url":"http:\/\/www.papier.co.nz","yp_url":"https:\/\/yellow.co.nz\/y\/papier?src=name&c=1236","addrInfo":{"lat":-36.8967642,"lng":174.7971146,"street_number":"239","locality":"Auckland","administrative_area_level_1":"Auckland","country_code":"NZ","country":"New Zealand","postal_code":"1061","route":"239 Campbell Rd","formatted_address":"239 Campbell Rd, Greenlane, Auckland 1061, New Zealand"}},{"business_url":"http:\/\/www.transportect.co.nz","yp_url":"https:\/\/yellow.co.nz\/y\/transportect?src=name&c=1236","addrInfo":{"lat":-37.0519038,"lng":174.932313,"street_number":"37A","locality":"Takanini","administrative_area_level_1":"Auckland","country_code":"NZ","country":"New Zealand","postal_code":"2112","route":"37A Tironui Rd","formatted_address":"37A Tironui Rd, Takanini 2112, New Zealand"}},{"business_url":"http:\/\/www.dlpack.co.nz","yp_url":"https:\/\/yellow.co.nz\/y\/dl-packaging?src=name&c=1236","addrInfo":{"lat":-36.7555195,"lng":174.7050115,"street_number":"237","locality":"Auckland","administrative_area_level_1":"Auckland","country_code":"NZ","country":"New Zealand","postal_code":"0632","route":"237 Bush Rd","formatted_address":"d\/237 Bush Rd, Rosedale, Auckland 0632, New Zealand"}},{"business_url":"http:\/\/www.barnesplastics.co.nz","yp_url":"https:\/\/yellow.co.nz\/y\/barnes-plastics-penrose?src=name&c=1236","addrInfo":{"lat":-36.9196974,"lng":174.8166464,"street_number":"368","locality":"Auckland","administrative_area_level_1":"Auckland","country_code":"NZ","country":"New Zealand","postal_code":"1061","route":"368 Church St","formatted_address":"368 Church St, Penrose, Auckland 1061, New Zealand"}},{"business_url":"http:\/\/www.detpak.com","yp_url":"https:\/\/yellow.co.nz\/y\/detpak-nz-albany?src=name&c=1236","addrInfo":{"lat":-36.9859073,"lng":174.7892976,"street_number":"34","locality":"Auckland","administrative_area_level_1":"Auckland","country_code":"NZ","country":"New Zealand","postal_code":"2022","route":"34 Verissimo Dr","formatted_address":"34 Verissimo Dr, Mangere, Auckland 2022, New Zealand"}},{"business_url":"http:\/\/www.apslimited.co.nz","yp_url":"https:\/\/yellow.co.nz\/y\/australasian-packaging-solutions?src=name&c=1236","addrInfo":{"lat":-36.7526565,"lng":174.7050966,"street_number":"4","locality":"Auckland","administrative_area_level_1":"Auckland","country_code":"NZ","country":"New Zealand","postal_code":"0632","route":"4 William Pickering Dr","formatted_address":"4 William Pickering Dr, Rosedale, Auckland 0632, New Zealand"}},{"business_url":"http:\/\/www.harxin.co.nz","yp_url":"https:\/\/yellow.co.nz\/y\/harxin-corporation-nz?src=name&c=1236","addrInfo":{"lat":-36.98807,"lng":174.8762161,"street_number":"6D","locality":"Auckland","administrative_area_level_1":"Auckland","country_code":"NZ","country":"New Zealand","postal_code":"2104","route":"6D Jack Conway Ave","formatted_address":"6D Jack Conway Ave, Manukau, Auckland 2104, New Zealand"}},{"business_url":"http:\/\/www.bha.co.nz","yp_url":"https:\/\/yellow.co.nz\/y\/bulk-handling-new-zealand?src=name&c=1236","addrInfo":{"lat":-36.7901519,"lng":174.7709163,"street_number":"20","locality":"Auckland","administrative_area_level_1":"Auckland","country_code":"NZ","country":"New Zealand","postal_code":"0622","route":"20 Northcroft St","formatted_address":"20 Northcroft St, Takapuna, Auckland 0622, New Zealand"}},{"business_url":"http:\/\/www.boxkraft.co.nz","yp_url":"https:\/\/yellow.co.nz\/y\/boxkraft?src=name&c=1236","addrInfo":{"lat":-36.9059794,"lng":174.8241106,"street_number":"10","locality":"Auckland","administrative_area_level_1":"Auckland","country_code":"NZ","country":"New Zealand","postal_code":"1060","route":"10 Monier Pl","formatted_address":"10 Monier Pl, Mount Wellington, Auckland 1060, New Zealand"}},{"business_url":"http:\/\/www.convex.co.nz","yp_url":"https:\/\/yellow.co.nz\/y\/convex-plastics-frankton?src=name&c=1236","addrInfo":{"lat":-37.806971,"lng":175.2611799,"street_number":"5","locality":"Hamilton","administrative_area_level_1":"Waikato","country_code":"NZ","country":"New Zealand","postal_code":"3204","route":"5 Latham Ct","formatted_address":"5 Latham Ct, Frankton, Hamilton 3204, New Zealand"}},{"business_url":"http:\/\/www.snell.co.nz","yp_url":"https:\/\/yellow.co.nz\/y\/snell-packaging-safety-penrose?src=name&c=1236","addrInfo":{"lat":-36.9185484,"lng":174.8062851,"street_number":"8","locality":"Auckland","administrative_area_level_1":"Auckland","country_code":"NZ","country":"New Zealand","postal_code":"1061","route":"8 Goodman Pl","formatted_address":"6\/8 Goodman Pl, Penrose, Auckland 1061, New Zealand"}},{"business_url":"http:\/\/www.roommaster.co.nz","yp_url":"https:\/\/yellow.co.nz\/y\/quality-packaging?src=name&c=1236","addrInfo":{"lat":-36.9019108,"lng":174.8452922,"street_number":"95","locality":"Auckland","administrative_area_level_1":"Auckland","country_code":"NZ","country":"New Zealand","postal_code":"1060","route":"95 Ireland Rd","formatted_address":"95 Ireland Rd, Mount Wellington, Auckland 1060, New Zealand"}},{"business_url":"http:\/\/www.sherpac.co.nz","yp_url":"https:\/\/yellow.co.nz\/y\/sherborne-packaging?src=name&c=1236","addrInfo":{"lat":-36.7477897,"lng":174.7302676,"street_number":"9","locality":"Auckland","administrative_area_level_1":"Auckland","country_code":"NZ","country":"New Zealand","postal_code":"0632","route":"9 Vega Pl","formatted_address":"9 Vega Pl, Rosedale, Auckland 0632, New Zealand"}},{"business_url":"http:\/\/www.sifco.co.nz","yp_url":"https:\/\/yellow.co.nz\/y\/sifco-fastening-solutions-avondale?src=name&c=1236","addrInfo":{"lat":-36.9062734,"lng":174.6973525,"street_number":"34","locality":"Auckland","administrative_area_level_1":"Auckland","country_code":"NZ","country":"New Zealand","postal_code":"0600","route":"34 Lansford Cres","formatted_address":"34 Lansford Cres, Avondale, Auckland 0600, New Zealand"}},{"business_url":"http:\/\/www.vlt.nz","yp_url":"https:\/\/yellow.co.nz\/y\/vlt-cosmetic-contractors?src=name&c=1236","addrInfo":{"lat":-36.9574409,"lng":174.8914097,"street_number":"6","locality":"Auckland","administrative_area_level_1":"Auckland","country_code":"NZ","country":"New Zealand","postal_code":"2013","route":"6 Newark Pl","formatted_address":"6 Newark Pl, Otara, Auckland 2013, New Zealand"}},{"business_url":"http:\/\/www.auckpack.co.nz","yp_url":"https:\/\/yellow.co.nz\/y\/apc-innovate?src=name&c=1236","addrInfo":{"lat":-36.9545413,"lng":174.9023095,"street_number":"5","locality":"Auckland","administrative_area_level_1":"Auckland","country_code":"NZ","country":"New Zealand","postal_code":"2013","route":"5 Beale Pl","formatted_address":"5 Beale Pl, East Tamaki, Auckland 2013, New Zealand"}},{"business_url":"http:\/\/www.conpac.co.nz","yp_url":"https:\/\/yellow.co.nz\/y\/conpac-trading?src=name&c=1236","addrInfo":{"lat":-36.9480179,"lng":174.83455,"street_number":"33","locality":"Auckland","administrative_area_level_1":"Auckland","country_code":"NZ","country":"New Zealand","postal_code":"1062","route":"33 Walmsley Rd","formatted_address":"h\/33 Walmsley Rd, Otahuhu, Auckland 1062, New Zealand"}},{"business_url":"http:\/\/www.custompak.co.nz","yp_url":"https:\/\/yellow.co.nz\/y\/custom-pak-plastic?src=name&c=1236","addrInfo":{"lat":-36.9442516,"lng":174.8900558,"street_number":"4","locality":"Auckland","administrative_area_level_1":"Auckland","country_code":"NZ","country":"New Zealand","postal_code":"2013","route":"4 Zelanian Dr","formatted_address":"4 Zelanian Dr, East Tamaki, Auckland 2013, New Zealand"}},{"business_url":"http:\/\/www.nzbagit.co.nz","yp_url":"https:\/\/yellow.co.nz\/y\/nzbagit?src=name&c=1236","addrInfo":{"lat":-36.8648471,"lng":174.7656119,"street_number":"1","locality":"Auckland","administrative_area_level_1":"Auckland","country_code":"NZ","country":"New Zealand","postal_code":"1023","route":"1 Arawa St","formatted_address":"1 Arawa St, Grafton, Auckland 1023, New Zealand"}}]