[{"business_url":"http:\/\/www.safestore.co.nz","yp_url":"https:\/\/yellow.co.nz\/y\/safe-store-public-papatoetoe?src=name","addrInfo":{"lat":-36.9928643,"lng":174.8455669,"street_number":"316","locality":"Auckland","administrative_area_level_1":"Auckland","country_code":"NZ","country":"New Zealand","postal_code":"2025","route":"316 Puhinui Rd","formatted_address":"316 Puhinui Rd, Papatoetoe, Auckland 2025, New Zealand"}},{"business_url":"http:\/\/www.sifco.co.nz","yp_url":"https:\/\/yellow.co.nz\/y\/sifco-fastening-solutions-mount?src=name","addrInfo":{"lat":-37.6609306,"lng":176.2024571,"street_number":"94E","locality":"Tauranga","administrative_area_level_1":"Bay Of Plenty","country_code":"NZ","country":"New Zealand","postal_code":"3116","route":"94E Newton St","formatted_address":"3\/94E Newton St, Mount Maunganui, Tauranga 3116, New Zealand"}},{"business_url":"http:\/\/www.image-centre.com","yp_url":"https:\/\/yellow.co.nz\/y\/image-centre?src=name","addrInfo":{"lat":-36.881859,"lng":174.7287567,"street_number":"19","locality":"Auckland","administrative_area_level_1":"Auckland","country_code":"NZ","country":"New Zealand","postal_code":"1025","route":"19 Lyon Ave","formatted_address":"19 Lyon Ave, Mount Albert, Auckland 1025, New Zealand"}},{"business_url":"http:\/\/www.airgunservices.co.nz","yp_url":"https:\/\/yellow.co.nz\/y\/air-gun-services-2012?src=name","addrInfo":{"lat":-36.9193957,"lng":174.814522,"street_number":"1","locality":"Auckland","administrative_area_level_1":"Auckland","country_code":"NZ","country":"New Zealand","postal_code":"1061","route":"1 Beasley Ave","formatted_address":"1 Beasley Ave, Penrose, Auckland 1061, New Zealand"}},{"business_url":"http:\/\/www.safestore.co.nz","yp_url":"https:\/\/yellow.co.nz\/y\/safe-store-public?src=name","addrInfo":{"lat":-36.9301297,"lng":174.8978482,"street_number":"147","locality":"Auckland","administrative_area_level_1":"Auckland","country_code":"NZ","country":"New Zealand","postal_code":"2013","route":"147 Harris Rd","formatted_address":"147 Harris Rd, East Tamaki, Auckland 2013, New Zealand"}},{"business_url":"http:\/\/www.barnesplastics.co.nz","yp_url":"https:\/\/yellow.co.nz\/y\/barnes-plastics-penrose?src=name","addrInfo":{"lat":-36.9196974,"lng":174.8166464,"street_number":"368","locality":"Auckland","administrative_area_level_1":"Auckland","country_code":"NZ","country":"New Zealand","postal_code":"1061","route":"368 Church St","formatted_address":"368 Church St, Penrose, Auckland 1061, New Zealand"}},{"business_url":"http:\/\/www.auckpack.co.nz","yp_url":"https:\/\/yellow.co.nz\/y\/apc-innovate?src=name","addrInfo":{"lat":-36.9545413,"lng":174.9023095,"street_number":"5","locality":"Auckland","administrative_area_level_1":"Auckland","country_code":"NZ","country":"New Zealand","postal_code":"2013","route":"5 Beale Pl","formatted_address":"5 Beale Pl, East Tamaki, Auckland 2013, New Zealand"}},{"business_url":"http:\/\/newimagemanufacture.co.nz","yp_url":"https:\/\/yellow.co.nz\/y\/new-image-group?src=name","addrInfo":{"lat":-36.9454606,"lng":174.7949057,"street_number":"19","locality":"Manukau","administrative_area_level_1":"Auckland","country_code":"NZ","country":"New Zealand","postal_code":"2022","route":"19 Mahunga Dr","formatted_address":"19 Mahunga Dr, Mangere Bridge, Manukau 2022, New Zealand"}},{"business_url":"http:\/\/www.airgunservices.co.nz","yp_url":"https:\/\/yellow.co.nz\/y\/air-gun-services?src=name","addrInfo":{"lat":-36.9193957,"lng":174.814522,"street_number":"1","locality":"Auckland","administrative_area_level_1":"Auckland","country_code":"NZ","country":"New Zealand","postal_code":"1061","route":"1 Beasley Ave","formatted_address":"1 Beasley Ave, Penrose, Auckland 1061, New Zealand"}},{"business_url":"http:\/\/www.baypakdistributing.co.nz","yp_url":"https:\/\/yellow.co.nz\/y\/baypak-distributing-onekawa?src=name","addrInfo":{"lat":-39.5046654,"lng":176.88204,"street_number":"23","locality":"Napier","administrative_area_level_1":"Hawke's Bay","country_code":"NZ","country":"New Zealand","postal_code":"4110","route":"23 Leyland St","formatted_address":"23 Leyland St, Onekawa, Napier 4110, New Zealand"}},{"business_url":"http:\/\/www.streetsoundz.co.nz","yp_url":"https:\/\/yellow.co.nz\/y\/streetsoundz-car-audio-te?src=name","addrInfo":{"lat":-41.2960068,"lng":174.7756451,"street_number":"22","locality":"Wellington","administrative_area_level_1":"Wellington","country_code":"NZ","country":"New Zealand","postal_code":"6011","route":"22 Wigan St","formatted_address":"22 Wigan St, Te Aro, Wellington 6011, New Zealand"}},{"business_url":"http:\/\/www.kilmarnock.co.nz","yp_url":"https:\/\/yellow.co.nz\/y\/kilmarnock-enterprises?src=name","addrInfo":{"lat":-43.529097,"lng":172.6082847,"street_number":"32","locality":"Christchurch","administrative_area_level_1":"Canterbury","country_code":"NZ","country":"New Zealand","postal_code":"8011","route":"32 Riccarton Rd","formatted_address":"32 Riccarton Rd, Riccarton, Christchurch 8011, New Zealand"}},{"business_url":"http:\/\/www.sifco.co.nz","yp_url":"https:\/\/yellow.co.nz\/y\/sifco-fastening-solutions-burnside?src=name","addrInfo":{"lat":-43.4878001,"lng":172.5624319,"street_number":"8","locality":"Christchurch","administrative_area_level_1":"Canterbury","country_code":"NZ","country":"New Zealand","postal_code":"8053","route":"8 Holt Pl","formatted_address":"8 Holt Pl, Burnside, Christchurch 8053, New Zealand"}},{"business_url":"http:\/\/www.dairyworks.co.nz","yp_url":"https:\/\/yellow.co.nz\/y\/dairyworks-hornby?src=name","addrInfo":{"lat":-43.5482652,"lng":172.5098354,"street_number":"719","locality":"Christchurch","administrative_area_level_1":"Canterbury","country_code":"NZ","country":"New Zealand","postal_code":"8042","route":"719 Halswell Jct Rd","formatted_address":"719 Halswell Jct Rd, Islington, Christchurch 8042, New Zealand"}},{"business_url":"http:\/\/www.bagandawning.co.nz","yp_url":"https:\/\/yellow.co.nz\/y\/bag-awning?src=name","addrInfo":{"lat":-43.5444835,"lng":172.5594192,"street_number":"88","locality":"Christchurch","administrative_area_level_1":"Canterbury","country_code":"NZ","country":"New Zealand","postal_code":"8042","route":"88 Hayton Rd","formatted_address":"6\/88 Hayton Rd, Wigram, Christchurch 8042, New Zealand"}},{"business_url":"http:\/\/www.ambionse.co.nz","yp_url":"https:\/\/yellow.co.nz\/y\/styrobeck-plastics-melling?src=name","addrInfo":{"lat":-41.2065132,"lng":174.9002965,"street_number":"64","locality":"Lower Hutt","administrative_area_level_1":"Wellington","country_code":"NZ","country":"New Zealand","postal_code":"5010","route":"64 Pharazyn St","formatted_address":"64 Pharazyn St, Melling, Lower Hutt 5010, New Zealand"}},{"business_url":"http:\/\/www.mpharmacy.co.nz\/","yp_url":"https:\/\/yellow.co.nz\/y\/musselburgh-pharmacy?src=name","addrInfo":{"lat":-45.8976184,"lng":170.5154707,"street_number":"59","locality":"Dunedin","administrative_area_level_1":"Otago","country_code":"NZ","country":"New Zealand","postal_code":"9013","route":"59 Musselburgh Rise","formatted_address":"59 Musselburgh Rise, Musselburgh, Dunedin 9013, New Zealand"}}]