[{"business_url":"http:\/\/www.burtonpainters.co.nz","yp_url":"https:\/\/yellow.co.nz\/y\/burton-painters-mangonui?src=name&c=1244","addrInfo":{"lat":-35.0307757,"lng":173.6156329,"street_number":"317","locality":"Mangonui","administrative_area_level_1":"Northland","country_code":"NZ","country":"New Zealand","postal_code":"0494","route":"317 Sawyer Rd","formatted_address":"317 Sawyer Rd, Mangonui 0494, New Zealand"}},{"business_url":"http:\/\/www.douglaspainting.co.nz","yp_url":"https:\/\/yellow.co.nz\/y\/douglas-painting-haruru?src=name&c=1244","addrInfo":{"lat":-35.2897443,"lng":174.0137655,"street_number":"724C","locality":"Haruru","administrative_area_level_1":"Northland","country_code":"NZ","country":"New Zealand","postal_code":"0204","route":"724C Black Bridge Rd","formatted_address":"724C Black Bridge Rd, Haruru 0204, New Zealand"}},{"business_url":"http:\/\/www.markviccars.co.nz","yp_url":"https:\/\/yellow.co.nz\/y\/mark-viccars-painter-kamo?src=name&c=1244","addrInfo":{"lat":-35.6774345,"lng":174.2781169,"street_number":"181","locality":"Ngararatunua","administrative_area_level_1":"Northland","country_code":"NZ","country":"New Zealand","postal_code":"0176","route":"181 Pipiwai Rd","formatted_address":"181 Pipiwai Rd, Ngararatunua 0176, New Zealand"}},{"business_url":"http:\/\/www.bowlinggroup.co.nz\/npm-construction\/","yp_url":"https:\/\/yellow.co.nz\/y\/npm-construction-hewlett?src=name&c=1244","addrInfo":{"lat":-35.7400271,"lng":174.341352,"street_number":"11","locality":"Whangarei","administrative_area_level_1":"Northland","country_code":"NZ","country":"New Zealand","postal_code":"0110","route":"11 Hewlett St","formatted_address":"11 Hewlett St, Port Whangarei, Whangarei 0110, New Zealand"}},{"business_url":"http:\/\/www.rickanderson.co.nz","yp_url":"https:\/\/yellow.co.nz\/y\/anderson-roof-painters?src=name&c=1244","addrInfo":{"lat":-35.8416059,"lng":174.5469691,"street_number":"27","locality":"Whangarei Heads","administrative_area_level_1":"Northland","country_code":"NZ","country":"New Zealand","postal_code":"0174","route":"27 Basil Rd","formatted_address":"27 Basil Rd, Whangarei Heads 0174, New Zealand"}},{"business_url":"http:\/\/www.waynewebbpainters.co.nz\/","yp_url":"https:\/\/yellow.co.nz\/y\/wayne-webb-painter?src=name&c=1244","addrInfo":{"lat":-35.7358083,"lng":174.3176861,"street_number":"55","locality":"Whangarei","administrative_area_level_1":"Northland","country_code":"NZ","country":"New Zealand","postal_code":"0110","route":"55 Anzac Rd","formatted_address":"55 Anzac Rd, Morningside, Whangarei 0110, New Zealand"}},{"business_url":"http:\/\/www.mcnabbdecorators.co.nz","yp_url":"https:\/\/yellow.co.nz\/y\/mcnabb-decorating-tahere?src=name&c=1244","addrInfo":{"lat":-35.6804362,"lng":174.3072781,"street_number":"1","locality":"Whangarei","administrative_area_level_1":"Northland","country_code":"NZ","country":"New Zealand","postal_code":"0112","route":"1 Colenso St","formatted_address":"1 Colenso St, Kamo, Whangarei 0112, New Zealand"}},{"business_url":"http:\/\/www.resene.co.nz\/ecodecorator","yp_url":"https:\/\/yellow.co.nz\/y\/resene-ecodecorators-whangarei?src=name&c=1244","addrInfo":{"lat":-35.7276825,"lng":174.3264675,"street_number":"22","locality":"Whangarei","administrative_area_level_1":"Northland","country_code":"NZ","country":"New Zealand","postal_code":"0110","route":"22 Reyburn St","formatted_address":"22 Reyburn St, Whangarei, Whangarei 0110, New Zealand"}},{"business_url":"http:\/\/www.aucklandcraftsmenpainters.co.nz","yp_url":"https:\/\/yellow.co.nz\/y\/andrew-mason-kauri?src=name&c=1244","addrInfo":{"lat":-35.6221369,"lng":174.2683011,"street_number":"422","locality":"Kauri","administrative_area_level_1":"Northland","country_code":"NZ","country":"New Zealand","postal_code":"0185","route":"422 Apotu Rd","formatted_address":"422 Apotu Rd, Kauri 0185, New Zealand"}},{"business_url":"http:\/\/www.bowlinggroup.co.nz","yp_url":"https:\/\/yellow.co.nz\/y\/npm-construction-whangarei?src=name&c=1244","addrInfo":{"lat":-35.7398745,"lng":174.3417487,"street_number":"13","locality":"Whangarei","administrative_area_level_1":"Northland","country_code":"NZ","country":"New Zealand","postal_code":"0110","route":"13 Hewlett St","formatted_address":"9\/13 Hewlett St, Port Whangarei, Whangarei 0110, New Zealand"}}]