[{"business_url":"http:\/\/www.aslindustrial.co.nz","yp_url":"https:\/\/yellow.co.nz\/y\/asl-industries?src=name","addrInfo":{"lat":-36.6255209,"lng":174.6758439,"street_number":"65","locality":"Silverdale","administrative_area_level_1":"Auckland","country_code":"NZ","country":"New Zealand","postal_code":"0932","route":"65 Forge Rd","formatted_address":"65 Forge Rd, Silverdale 0932, New Zealand"}},{"business_url":"http:\/\/www.sawdoctor.co.nz","yp_url":"https:\/\/yellow.co.nz\/y\/aegis-tool-sharpeners?src=name","addrInfo":{"lat":-36.9026467,"lng":174.6863392,"street_number":"16","locality":"Auckland","administrative_area_level_1":"Auckland","country_code":"NZ","country":"New Zealand","postal_code":"0600","route":"16 Stock St","formatted_address":"16 Stock St, New Lynn, Auckland 0600, New Zealand"}},{"business_url":"http:\/\/www.simssaws.co.nz","yp_url":"https:\/\/yellow.co.nz\/y\/gr-sims-sons?src=name","addrInfo":{"lat":-36.9382885,"lng":174.8383785,"street_number":"82","locality":"Auckland","administrative_area_level_1":"Auckland","country_code":"NZ","country":"New Zealand","postal_code":"1062","route":"82 Great South Rd","formatted_address":"82 Great South Rd, Otahuhu, Auckland 1062, New Zealand"}},{"business_url":"http:\/\/www.tawamowers.co.nz","yp_url":"https:\/\/yellow.co.nz\/y\/tawa-mower-services?src=name","addrInfo":{"lat":-41.1681883,"lng":174.8254614,"street_number":"242","locality":"Wellington","administrative_area_level_1":"Wellington","country_code":"NZ","country":"New Zealand","postal_code":"5028","route":"242 Main Rd","formatted_address":"242 Main Rd, Tawa, Wellington 5028, New Zealand"}},{"business_url":"http:\/\/sancotooling.co.nz","yp_url":"https:\/\/yellow.co.nz\/y\/sanco-tooling-disraeli?src=name","addrInfo":{"lat":-43.542334,"lng":172.6290551,"street_number":"95","locality":"Christchurch","administrative_area_level_1":"Canterbury","country_code":"NZ","country":"New Zealand","postal_code":"8023","route":"95 Disraeli St","formatted_address":"95 Disraeli St, Sydenham, Christchurch 8023, New Zealand"}}]