[{"business_url":"http:\/\/www.tsh.co.nz","yp_url":"https:\/\/yellow.co.nz\/y\/tsh?src=name","addrInfo":{"lat":-39.0574322,"lng":174.083484,"street_number":"64","locality":"New Plymouth","administrative_area_level_1":"Taranaki","country_code":"NZ","country":"New Zealand","postal_code":"4310","route":"64 Eliot St","formatted_address":"64 Eliot St, New Plymouth 4310, New Zealand"}},{"business_url":"http:\/\/www.airtimerentals.co.nz\/","yp_url":"https:\/\/yellow.co.nz\/y\/airtime-plus-rentals-devon?src=name","addrInfo":{"lat":-37.7885538,"lng":175.2722739,"street_number":"25","locality":"Hamilton","administrative_area_level_1":"Waikato","country_code":"NZ","country":"New Zealand","postal_code":"3204","route":"25 Devon Rd","formatted_address":"25 Devon Rd, Frankton, Hamilton 3204, New Zealand"}},{"business_url":"http:\/\/www.networkvisuals.co.nz","yp_url":"https:\/\/yellow.co.nz\/y\/network-visuals-quay?src=name","addrInfo":{"lat":-36.8545087,"lng":174.7336908,"street_number":"13","locality":"Auckland","administrative_area_level_1":"Auckland","country_code":"NZ","country":"New Zealand","postal_code":"1021","route":"13 Westmoreland St W","formatted_address":"13 Westmoreland St W, Grey Lynn, Auckland 1021, New Zealand"}},{"business_url":"http:\/\/www.scribble.net.nz","yp_url":"https:\/\/yellow.co.nz\/y\/scribble?src=name","addrInfo":{"lat":-36.7721497,"lng":174.7637743,"street_number":"161","locality":"Auckland","administrative_area_level_1":"Auckland","country_code":"NZ","country":"New Zealand","postal_code":"0620","route":"161 Kitchener Rd","formatted_address":"161 Kitchener Rd, Milford, Auckland 0620, New Zealand"}},{"business_url":"http:\/\/www.spitroasts.co.nz","yp_url":"https:\/\/yellow.co.nz\/y\/spit-roast-caterers?src=name","addrInfo":{"lat":-43.5457829,"lng":172.6408608,"street_number":"29","locality":"Christchurch","administrative_area_level_1":"Canterbury","country_code":"NZ","country":"New Zealand","postal_code":"8023","route":"29 Coleridge St","formatted_address":"29 Coleridge St, Sydenham, Christchurch 8023, New Zealand"}},{"business_url":"http:\/\/www.settingthescene.co.nz\/","yp_url":"https:\/\/yellow.co.nz\/y\/setting-scene?src=name","addrInfo":{"lat":-43.5395249,"lng":172.5646239,"street_number":"485","locality":"Christchurch","administrative_area_level_1":"Canterbury","country_code":"NZ","country":"New Zealand","postal_code":"8042","route":"485 Blenheim Rd","formatted_address":"485 Blenheim Rd, Sockburn, Christchurch 8042, New Zealand"}},{"business_url":"http:\/\/www.vbase.co.nz","yp_url":"https:\/\/yellow.co.nz\/y\/cbs-canterbury-arena?src=name","addrInfo":{"lat":-43.5458784,"lng":172.6011815,"street_number":"55","locality":"Christchurch","administrative_area_level_1":"Canterbury","country_code":"NZ","country":"New Zealand","postal_code":"8024","route":"55 Jack Hinton Dr","formatted_address":"55 Jack Hinton Dr, Addington, Christchurch 8024, New Zealand"}}]