[{"business_url":"http:\/\/www.jujnovich.co.nz","yp_url":"https:\/\/yellow.co.nz\/y\/jujnovich-holdings?src=name","addrInfo":{"lat":-35.1152065,"lng":173.2652542,"street_number":"37","locality":"Kaitaia","administrative_area_level_1":"Northland","country_code":"NZ","country":"New Zealand","postal_code":"0410","route":"37 Commerce St","formatted_address":"37 Commerce St, Kaitaia 0410, New Zealand"}},{"business_url":"http:\/\/www.awesomebouncingcastles.co.nz\/","yp_url":"https:\/\/yellow.co.nz\/y\/awesome-bouncing-castles?src=name","addrInfo":{"lat":-35.6871896,"lng":174.393511,"street_number":"787","locality":"Whareora","administrative_area_level_1":"Northland","country_code":"NZ","country":"New Zealand","postal_code":"0175","route":"787 Whareora Rd","formatted_address":"787 Whareora Rd, Whareora 0175, New Zealand"}},{"business_url":"http:\/\/www.vanillacupcake.co.nz","yp_url":"https:\/\/yellow.co.nz\/y\/vanilla-cupcake-boutique?src=name","addrInfo":{"lat":-36.621513,"lng":174.80321,"street_number":"3","locality":"Whangaparaoa","administrative_area_level_1":"Auckland","country_code":"NZ","country":"New Zealand","postal_code":"0930","route":"3 Pacific Cliffs Dr","formatted_address":"3 Pacific Cliffs Dr, Gulf Harbour, Whangaparaoa 0930, New Zealand"}},{"business_url":"http:\/\/www.homestylechocolates.co.nz","yp_url":"https:\/\/yellow.co.nz\/y\/home-style-chocolates?src=name","addrInfo":{"lat":-37.7454698,"lng":175.2722269,"street_number":"1","locality":"Hamilton","administrative_area_level_1":"Waikato","country_code":"NZ","country":"New Zealand","postal_code":"3210","route":"1 Portree Pl","formatted_address":"1 Portree Pl, Queenwood, Hamilton 3210, New Zealand"}},{"business_url":"http:\/\/www.antics.co.nz","yp_url":"https:\/\/yellow.co.nz\/y\/antics-marketing?src=name","addrInfo":{"lat":-36.7534683,"lng":174.7042776,"street_number":"6","locality":"Auckland","administrative_area_level_1":"Auckland","country_code":"NZ","country":"New Zealand","postal_code":"0632","route":"6 Beatrice Tinsley Cres","formatted_address":"6 Beatrice Tinsley Cres, Rosedale, Auckland 0632, New Zealand"}},{"business_url":"http:\/\/www.melbafoods.co.nz\/","yp_url":"https:\/\/yellow.co.nz\/y\/melba-foods-tauriko?src=name","addrInfo":{"lat":-37.7398114,"lng":176.1015197,"street_number":"39","locality":"Tauranga","administrative_area_level_1":"Bay Of Plenty","country_code":"NZ","country":"New Zealand","postal_code":"3171","route":"39 Porutu Pl","formatted_address":"39 Porutu Pl, Tauriko, Tauranga 3171, New Zealand"}},{"business_url":"http:\/\/www.replete.co.nz","yp_url":"https:\/\/yellow.co.nz\/y\/replete-food-company?src=name","addrInfo":{"lat":-38.6882432,"lng":176.0715469,"street_number":"47","locality":"Taupo","administrative_area_level_1":"Waikato","country_code":"NZ","country":"New Zealand","postal_code":"3330","route":"47 Heuheu St","formatted_address":"47 Heuheu St, Taupo 3330, New Zealand"}},{"business_url":"http:\/\/www.partybiz.co.nz\/catalog\/","yp_url":"https:\/\/yellow.co.nz\/y\/party-biz-cavendish-drive?src=name","addrInfo":{"lat":-36.9901992,"lng":174.8678059,"street_number":"65","locality":"Auckland","administrative_area_level_1":"Auckland","country_code":"NZ","country":"New Zealand","postal_code":"2104","route":"65 Cavendish Dr","formatted_address":"6\/65 Cavendish Dr, Papatoetoe, Auckland 2104, New Zealand"}},{"business_url":"http:\/\/www.peachesandcream.co.nz","yp_url":"https:\/\/yellow.co.nz\/y\/peaches-cream-dunedin-st?src=name","addrInfo":{"lat":-39.5874968,"lng":174.2844119,"street_number":"150","locality":"Hawera","administrative_area_level_1":"Taranaki","country_code":"NZ","country":"New Zealand","postal_code":"4610","route":"150 Princes St","formatted_address":"150 Princes St, Hawera 4610, New Zealand"}},{"business_url":"http:\/\/www.donnasdressups.com","yp_url":"https:\/\/yellow.co.nz\/y\/donnas-dress-ups?src=name","addrInfo":{"lat":-37.2423951,"lng":175.5671756,"street_number":"7","locality":"Turua","administrative_area_level_1":"Waikato","country_code":"NZ","country":"New Zealand","postal_code":"3574","route":"7 Raratuna St","formatted_address":"7 Raratuna St, Turua 3574, New Zealand"}},{"business_url":"http:\/\/www.peachesandcream.co.nz","yp_url":"https:\/\/yellow.co.nz\/y\/peaches-cream-hamilton-megastore?src=name","addrInfo":{"lat":-37.7857433,"lng":175.2785462,"street_number":"370","locality":"Hamilton","administrative_area_level_1":"Waikato","country_code":"NZ","country":"New Zealand","postal_code":"3204","route":"370 Anglesea St","formatted_address":"370 Anglesea St, Hamilton 3204, New Zealand"}},{"business_url":"http:\/\/www.houseoftoys.co.nz","yp_url":"https:\/\/yellow.co.nz\/y\/house-of-toys?src=name","addrInfo":{"lat":-36.831121,"lng":174.797172,"street_number":"29","locality":"Auckland","administrative_area_level_1":"Auckland","country_code":"NZ","country":"New Zealand","postal_code":"0624","route":"29 Victoria Rd","formatted_address":"29 Victoria Rd, Devonport, Auckland 0624, New Zealand"}},{"business_url":"http:\/\/www.atouchofclass.co.nz","yp_url":"https:\/\/yellow.co.nz\/y\/a-touch-of-class-function?src=name","addrInfo":{"lat":-36.7433374,"lng":174.6948846,"street_number":"13","locality":"Auckland","administrative_area_level_1":"Auckland","country_code":"NZ","country":"New Zealand","postal_code":"0632","route":"13 Lovell Ct","formatted_address":"1\/13 Lovell Ct, Rosedale, Auckland 0632, New Zealand"}},{"business_url":"http:\/\/www.rotoruacostumes.co.nz","yp_url":"https:\/\/yellow.co.nz\/y\/victoria-grove-costume?src=name","addrInfo":{"lat":-38.1523346,"lng":176.2608665,"street_number":"80","locality":"Rotorua","administrative_area_level_1":"Bay Of Plenty","country_code":"NZ","country":"New Zealand","postal_code":"3010","route":"80 White St","formatted_address":"80 White St, Fenton Park, Rotorua 3010, New Zealand"}},{"business_url":"http:\/\/www.chocolateboutique.co.nz","yp_url":"https:\/\/yellow.co.nz\/y\/chocolate-boutique-cafe?src=name","addrInfo":{"lat":-36.8572712,"lng":174.7814205,"street_number":"323","locality":"Auckland","administrative_area_level_1":"Auckland","country_code":"NZ","country":"New Zealand","postal_code":"1052","route":"323 Parnell Rd","formatted_address":"323 Parnell Rd, Parnell, Auckland 1052, New Zealand"}},{"business_url":"http:\/\/www.thegrinder.co.nz","yp_url":"https:\/\/yellow.co.nz\/y\/grinder-adult-shop-takapuna?src=name","addrInfo":{"lat":-36.7919435,"lng":174.7646649,"street_number":"27","locality":"Auckland","administrative_area_level_1":"Auckland","country_code":"NZ","country":"New Zealand","postal_code":"0622","route":"27 Barrys Point Rd","formatted_address":"27 Barrys Point Rd, Takapuna, Auckland 0622, New Zealand"}},{"business_url":"http:\/\/www.thegrinder.co.nz","yp_url":"https:\/\/yellow.co.nz\/y\/grinder-adult-shop-auckland?src=name","addrInfo":{"lat":-36.8580791,"lng":174.7571441,"street_number":"348","locality":"Auckland","administrative_area_level_1":"Auckland","country_code":"NZ","country":"New Zealand","postal_code":"1010","route":"348 Karangahape Rd","formatted_address":"348 Karangahape Rd, Auckland, Auckland 1010, New Zealand"}},{"business_url":"http:\/\/www.peachesandcream.co.nz","yp_url":"https:\/\/yellow.co.nz\/y\/peaches-cream-takapuna-takapuna?src=name","addrInfo":{"lat":-36.7919435,"lng":174.7646649,"street_number":"27","locality":"Auckland","administrative_area_level_1":"Auckland","country_code":"NZ","country":"New Zealand","postal_code":"0622","route":"27 Barrys Point Rd","formatted_address":"27 Barrys Point Rd, Takapuna, Auckland 0622, New Zealand"}},{"business_url":"http:\/\/www.peachesandcream.co.nz","yp_url":"https:\/\/yellow.co.nz\/y\/peaches-cream-manukau-manukau?src=name","addrInfo":{"lat":-36.9885712,"lng":174.8759558,"street_number":"40","locality":"Auckland","administrative_area_level_1":"Auckland","country_code":"NZ","country":"New Zealand","postal_code":"2104","route":"40 Cavendish Dr","formatted_address":"1\/40 Cavendish Dr, Manukau, Auckland 2104, New Zealand"}},{"business_url":"http:\/\/www.peachesandcream.co.nz","yp_url":"https:\/\/yellow.co.nz\/y\/peaches-cream-papakura-papakura?src=name","addrInfo":{"lat":-37.062191,"lng":174.9432275,"street_number":"72","locality":"Papakura","administrative_area_level_1":"Auckland","country_code":"NZ","country":"New Zealand","postal_code":"2110","route":"72 O'Shannessey St","formatted_address":"72 O'Shannessey St, Papakura, Papakura 2110, New Zealand"}},{"business_url":"http:\/\/www.peachesandcream.co.nz","yp_url":"https:\/\/yellow.co.nz\/y\/peaches-cream-glenfield-megastore?src=name","addrInfo":{"lat":-36.7780435,"lng":174.7434538,"street_number":"247","locality":"Auckland","administrative_area_level_1":"Auckland","country_code":"NZ","country":"New Zealand","postal_code":"0627","route":"247 Archers Rd","formatted_address":"247 Archers Rd, Wairau Valley, Auckland 0627, New Zealand"}},{"business_url":"http:\/\/www.peachesandcream.co.nz","yp_url":"https:\/\/yellow.co.nz\/y\/peaches-cream-henderson-henderson?src=name","addrInfo":{"lat":-36.855922,"lng":174.6308077,"street_number":"253","locality":"Auckland","administrative_area_level_1":"Auckland","country_code":"NZ","country":"New Zealand","postal_code":"0610","route":"253 Lincoln Rd","formatted_address":"4\/253 Lincoln Rd, Henderson, Auckland 0610, New Zealand"}},{"business_url":"http:\/\/www.peachesandcream.co.nz","yp_url":"https:\/\/yellow.co.nz\/y\/peaches-cream-kroad-megastore?src=name","addrInfo":{"lat":-36.8588051,"lng":174.7549561,"street_number":"474","locality":"Auckland","administrative_area_level_1":"Auckland","country_code":"NZ","country":"New Zealand","postal_code":"1010","route":"474 Karangahape Rd","formatted_address":"474 Karangahape Rd, Auckland, Auckland 1010, New Zealand"}},{"business_url":"http:\/\/www.peachesandcream.co.nz","yp_url":"https:\/\/yellow.co.nz\/y\/peaches-cream-new-new?src=name","addrInfo":{"lat":-36.9094547,"lng":174.682797,"street_number":"39","locality":"Auckland","administrative_area_level_1":"Auckland","country_code":"NZ","country":"New Zealand","postal_code":"0600","route":"39 Totara Ave","formatted_address":"39 Totara Ave, New Lynn, Auckland 0600, New Zealand"}},{"business_url":"http:\/\/www.peachesandcream.co.nz","yp_url":"https:\/\/yellow.co.nz\/y\/peaches-cream-panmure-panmure?src=name","addrInfo":{"lat":-36.8989117,"lng":174.8522469,"street_number":"16A","locality":"Auckland","administrative_area_level_1":"Auckland","country_code":"NZ","country":"New Zealand","postal_code":"1072","route":"16A Queens Rd","formatted_address":"16A Queens Rd, Panmure, Auckland 1072, New Zealand"}},{"business_url":"http:\/\/www.peachesandcream.co.nz","yp_url":"https:\/\/yellow.co.nz\/y\/peaches-cream-wairau-valley?src=name","addrInfo":{"lat":-36.7780435,"lng":174.7434538,"street_number":"247","locality":"Auckland","administrative_area_level_1":"Auckland","country_code":"NZ","country":"New Zealand","postal_code":"0627","route":"247 Archers Rd","formatted_address":"247 Archers Rd, Wairau Valley, Auckland 0627, New Zealand"}},{"business_url":"http:\/\/www.toys.co.nz","yp_url":"https:\/\/yellow.co.nz\/y\/toyhire-toyplanet-mount?src=name","addrInfo":{"lat":-36.8996777,"lng":174.8431581,"street_number":"39","locality":"Auckland","administrative_area_level_1":"Auckland","country_code":"NZ","country":"New Zealand","postal_code":"1060","route":"39 Mount Wellington Hwy","formatted_address":"39 Mount Wellington Hwy, Mount Wellington, Auckland 1060, New Zealand"}},{"business_url":"http:\/\/www.toys.co.nz","yp_url":"https:\/\/yellow.co.nz\/y\/toyhire-toyplanet?src=name","addrInfo":{"lat":-36.90499,"lng":174.7275905,"street_number":"96","locality":"Auckland","administrative_area_level_1":"Auckland","country_code":"NZ","country":"New Zealand","postal_code":"1041","route":"96 Stoddard Rd","formatted_address":"96 Stoddard Rd, Mount Roskill, Auckland 1041, New Zealand"}},{"business_url":"http:\/\/www.musicare.co.nz","yp_url":"https:\/\/yellow.co.nz\/y\/musicare-hire-sales-saint?src=name","addrInfo":{"lat":-37.7480335,"lng":175.2360736,"street_number":"12\/9","locality":"Hamilton","administrative_area_level_1":"Waikato","country_code":"NZ","country":"New Zealand","postal_code":"3200","route":"12\/9 Karewa Pl","formatted_address":"12\/9 Karewa Pl, Pukete, Hamilton 3200, New Zealand"}},{"business_url":"http:\/\/www.dynamicsav.co.nz","yp_url":"https:\/\/yellow.co.nz\/y\/dynamics-audio-visual?src=name","addrInfo":{"lat":-38.1522251,"lng":176.2612145,"street_number":"74","locality":"Rotorua","administrative_area_level_1":"Bay Of Plenty","country_code":"NZ","country":"New Zealand","postal_code":"3010","route":"74 White St","formatted_address":"74 White St, Fenton Park, Rotorua 3010, New Zealand"}},{"business_url":"http:\/\/www.outlet.co.nz","yp_url":"https:\/\/yellow.co.nz\/y\/outlet-productions?src=name","addrInfo":{"lat":-37.9531632,"lng":176.9961822,"street_number":"17","locality":"Whakatane","administrative_area_level_1":"Bay Of Plenty","country_code":"NZ","country":"New Zealand","postal_code":"3120","route":"17 Commerce St","formatted_address":"17 Commerce St, Whakatane 3120, New Zealand"}},{"business_url":"http:\/\/www.airtimerentals.co.nz\/","yp_url":"https:\/\/yellow.co.nz\/y\/airtime-plus-rentals-devon?src=name","addrInfo":{"lat":-37.7885538,"lng":175.2722739,"street_number":"25","locality":"Hamilton","administrative_area_level_1":"Waikato","country_code":"NZ","country":"New Zealand","postal_code":"3204","route":"25 Devon Rd","formatted_address":"25 Devon Rd, Frankton, Hamilton 3204, New Zealand"}},{"business_url":"http:\/\/www.emax.co.nz\/","yp_url":"https:\/\/yellow.co.nz\/y\/emaxconz?src=name","addrInfo":{"lat":-36.9137033,"lng":174.7510817,"street_number":"40","locality":"Auckland","administrative_area_level_1":"Auckland","country_code":"NZ","country":"New Zealand","postal_code":"1042","route":"40 Carr Rd","formatted_address":"40 Carr Rd, Three Kings, Auckland 1042, New Zealand"}},{"business_url":"http:\/\/www.toys.co.nz","yp_url":"https:\/\/yellow.co.nz\/y\/toyhire-toyplanet-takapuna?src=name","addrInfo":{"lat":-36.7903501,"lng":174.7640173,"street_number":"124","locality":"Auckland","administrative_area_level_1":"Auckland","country_code":"NZ","country":"New Zealand","postal_code":"0622","route":"124 Anzac St","formatted_address":"124 Anzac St, Takapuna, Auckland 0622, New Zealand"}},{"business_url":"http:\/\/www.thegardenparty.co.nz","yp_url":"https:\/\/yellow.co.nz\/y\/garden-party?src=name","addrInfo":{"lat":-36.8567977,"lng":174.7478345,"street_number":"71","locality":"Auckland","administrative_area_level_1":"Auckland","country_code":"NZ","country":"New Zealand","postal_code":"1011","route":"71 Ponsonby Rd","formatted_address":"71 Ponsonby Rd, Grey Lynn, Auckland 1011, New Zealand"}}]