[{"business_url":"http:\/\/www.crystalpayroll.co.nz","yp_url":"https:\/\/yellow.co.nz\/y\/crystal-payroll?src=name&c=1260","addrInfo":{"lat":-36.8130117,"lng":174.7259488,"street_number":"17","locality":"Auckland","administrative_area_level_1":"Auckland","country_code":"NZ","country":"New Zealand","postal_code":"0626","route":"17 Rawene Rd","formatted_address":"17 Rawene Rd, Birkenhead, Auckland 0626, New Zealand"}},{"business_url":"http:\/\/www.thepaymasters.co.nz","yp_url":"https:\/\/yellow.co.nz\/y\/paymasters-wairau?src=name&c=1260","addrInfo":{"lat":-36.7690863,"lng":174.7366146,"street_number":"171-181","locality":"Auckland","administrative_area_level_1":"Auckland","country_code":"NZ","country":"New Zealand","postal_code":"0627","route":"171-181 Target Rd","formatted_address":"171-181 Target Rd, Wairau Valley, Auckland 0627, New Zealand"}},{"business_url":"http:\/\/www.payrollplusltd.co.nz","yp_url":"https:\/\/yellow.co.nz\/y\/payroll-plus?src=name&c=1260","addrInfo":{"lat":-37.7874212,"lng":175.2835787,"street_number":"324","locality":"Hamilton","administrative_area_level_1":"Waikato","country_code":"NZ","country":"New Zealand","postal_code":"3204","route":"324 Victoria St","formatted_address":"324 Victoria St, Hamilton 3204, New Zealand"}},{"business_url":"http:\/\/www.ipayroll.co.nz","yp_url":"https:\/\/yellow.co.nz\/y\/ipayroll-grafton?src=name&c=1260","addrInfo":{"lat":-36.8567161,"lng":174.7669066,"street_number":"38","locality":"Auckland","administrative_area_level_1":"Auckland","country_code":"NZ","country":"New Zealand","postal_code":"1010","route":"38 Whitaker Pl","formatted_address":"Generate Accounting Group Limited, 6\/38 Whitaker Pl, Grafton, Auckland 1010, New Zealand"}},{"business_url":"http:\/\/www.deloitte.co.nz","yp_url":"https:\/\/yellow.co.nz\/y\/deloitte-london-street-4?src=name&c=1260","addrInfo":{"lat":-37.7909455,"lng":175.2912845,"street_number":"24","locality":"Hamilton","administrative_area_level_1":"Waikato","country_code":"NZ","country":"New Zealand","postal_code":"3216","route":"24 Anzac Parade","formatted_address":"24 Anzac Parade, Hamilton East, Hamilton 3216, New Zealand"}},{"business_url":"http:\/\/www.smartpayroll.co.nz","yp_url":"https:\/\/yellow.co.nz\/y\/smartpayroll-penrose?src=name&c=1260","addrInfo":{"lat":-36.9119849,"lng":174.8192491,"street_number":"585","locality":"Auckland","administrative_area_level_1":"Auckland","country_code":"NZ","country":"New Zealand","postal_code":"1061","route":"585 Great South Rd","formatted_address":"585 Great South Rd, Penrose, Auckland 1061, New Zealand"}},{"business_url":"http:\/\/www.ipayroll.co.nz","yp_url":"https:\/\/yellow.co.nz\/y\/ipayroll?src=name&c=1260","addrInfo":{"lat":-37.7934879,"lng":175.2895745,"street_number":"150","locality":"Hamilton","administrative_area_level_1":"Waikato","country_code":"NZ","country":"New Zealand","postal_code":"3204","route":"150 Grantham St","formatted_address":"150 Grantham St, Hamilton 3204, New Zealand"}}]