[{"business_url":"http:\/\/www.themirrorbox.co.nz","yp_url":"https:\/\/yellow.co.nz\/y\/mirrorbox-alexandra-street-2?src=name","addrInfo":{"lat":-38.0099617,"lng":175.3251081,"street_number":"51","locality":"Te Awamutu","administrative_area_level_1":"Waikato","country_code":"NZ","country":"New Zealand","postal_code":"3800","route":"51 Alexandra St","formatted_address":"51 Alexandra St, Te Awamutu 3800, New Zealand"}},{"business_url":"http:\/\/www.digicam.co.nz","yp_url":"https:\/\/yellow.co.nz\/y\/roger-french-photographer?src=name","addrInfo":{"lat":-39.0577823,"lng":174.0736582,"street_number":"16","locality":"New Plymouth","administrative_area_level_1":"Taranaki","country_code":"NZ","country":"New Zealand","postal_code":"4310","route":"16 Devon St W","formatted_address":"16 Devon St W, New Plymouth 4310, New Zealand"}},{"business_url":"http:\/\/www.papakuraframers.co.nz\/","yp_url":"https:\/\/yellow.co.nz\/y\/papakura-picture-papakura?src=name","addrInfo":{"lat":-37.0649741,"lng":174.9416059,"street_number":"50","locality":"Papakura","administrative_area_level_1":"Auckland","country_code":"NZ","country":"New Zealand","postal_code":"2110","route":"50 Wood St","formatted_address":"50 Wood St, Papakura, Papakura 2110, New Zealand"}},{"business_url":"http:\/\/www.newlynnphotos.co.nz","yp_url":"https:\/\/yellow.co.nz\/y\/new-lynn-photos?src=name","addrInfo":{"lat":-36.9082738,"lng":174.6827569,"street_number":"3068","locality":"Auckland","administrative_area_level_1":"Auckland","country_code":"NZ","country":"New Zealand","postal_code":"0600","route":"3068 Great North Rd","formatted_address":"3068 Great North Rd, New Lynn, Auckland 0600, New Zealand"}},{"business_url":"http:\/\/www.newlynnphotos.co.nz","yp_url":"https:\/\/yellow.co.nz\/y\/new-lynn-photos-blockhouse?src=name","addrInfo":{"lat":-36.9082738,"lng":174.6827569,"street_number":"3068","locality":"Auckland","administrative_area_level_1":"Auckland","country_code":"NZ","country":"New Zealand","postal_code":"0600","route":"3068 Great North Rd","formatted_address":"3068 Great North Rd, New Lynn, Auckland 0600, New Zealand"}},{"business_url":"http:\/\/www.designbind.co.nz","yp_url":"https:\/\/yellow.co.nz\/y\/design-bind-albany?src=name","addrInfo":{"lat":-36.7241347,"lng":174.6941206,"street_number":"247","locality":"Auckland","administrative_area_level_1":"Auckland","country_code":"NZ","country":"New Zealand","postal_code":"0632","route":"247 Dairy Flat Hwy","formatted_address":"247 Dairy Flat Hwy, Albany, Auckland 0632, New Zealand"}},{"business_url":"http:\/\/www.mainlyweddingsphotography.co.nz\/","yp_url":"https:\/\/yellow.co.nz\/y\/mainly-weddings-portraits-photography?src=name","addrInfo":{"lat":-37.7831613,"lng":175.3133297,"street_number":"11","locality":"Hamilton","administrative_area_level_1":"Waikato","country_code":"NZ","country":"New Zealand","postal_code":"3216","route":"11 Tralee Pl","formatted_address":"11 Tralee Pl, Hillcrest, Hamilton 3216, New Zealand"}},{"business_url":"http:\/\/www.frameandmirror.co.nz\/mirrors.html","yp_url":"https:\/\/yellow.co.nz\/y\/image-photo-frame-christchurch?src=name","addrInfo":{"lat":-43.5451393,"lng":172.6368936,"street_number":"394","locality":"Christchurch","administrative_area_level_1":"Canterbury","country_code":"NZ","country":"New Zealand","postal_code":"8023","route":"394 Colombo St","formatted_address":"394 Colombo St, Sydenham, Christchurch 8023, New Zealand"}},{"business_url":"http:\/\/www.digislidz.co.nz","yp_url":"https:\/\/yellow.co.nz\/y\/digislidz?src=name","addrInfo":{"lat":-41.0899279,"lng":174.8743864,"street_number":"7","locality":"Porirua","administrative_area_level_1":"Wellington","country_code":"NZ","country":"New Zealand","postal_code":"5026","route":"7 Bodmin Terrace","formatted_address":"7 Bodmin Terrace, Camborne, Porirua 5026, New Zealand"}},{"business_url":"http:\/\/www.photo.co.nz","yp_url":"https:\/\/yellow.co.nz\/y\/photo-video-international?src=name","addrInfo":{"lat":-43.5125569,"lng":172.6213036,"street_number":"185","locality":"Christchurch","administrative_area_level_1":"Canterbury","country_code":"NZ","country":"New Zealand","postal_code":"8014","route":"185 Papanui Rd","formatted_address":"185 Papanui Rd, Merivale, Christchurch 8014, New Zealand"}},{"business_url":"http:\/\/www.icmark.co.nz","yp_url":"https:\/\/yellow.co.nz\/y\/ic-mark-funeral?src=name","addrInfo":{"lat":-40.6233164,"lng":175.2900308,"street_number":"547","locality":"Levin","administrative_area_level_1":"Manawatu-Wanganui","country_code":"NZ","country":"New Zealand","postal_code":"5510","route":"547 Queen St","formatted_address":"547 Queen St, Levin 5510, New Zealand"}},{"business_url":"http:\/\/www.aorangiharding.co.nz\/","yp_url":"https:\/\/yellow.co.nz\/y\/aorangi-harding-memorials-parkside?src=name","addrInfo":{"lat":-44.4122551,"lng":171.2543676,"street_number":"56","locality":"Timaru","administrative_area_level_1":"Canterbury","country_code":"NZ","country":"New Zealand","postal_code":"7910","route":"56 James St","formatted_address":"56 James St, Kensington, Timaru 7910, New Zealand"}}]