[{"business_url":"http:\/\/www.themirrorbox.co.nz","yp_url":"https:\/\/yellow.co.nz\/y\/mirrorbox-alexandra-street-2?src=name","addrInfo":{"lat":-38.0099617,"lng":175.3251081,"street_number":"51","locality":"Te Awamutu","administrative_area_level_1":"Waikato","country_code":"NZ","country":"New Zealand","postal_code":"3800","route":"51 Alexandra St","formatted_address":"51 Alexandra St, Te Awamutu 3800, New Zealand"}},{"business_url":"http:\/\/www.blacketts.co.nz","yp_url":"https:\/\/yellow.co.nz\/y\/blacketts-fuijifilm-image-te?src=name","addrInfo":{"lat":-37.7853722,"lng":176.3283546,"street_number":"61","locality":"Te Puke","administrative_area_level_1":"Bay Of Plenty","country_code":"NZ","country":"New Zealand","postal_code":"3119","route":"61 Jellicoe St","formatted_address":"61 Jellicoe St, Te Puke 3119, New Zealand"}},{"business_url":"http:\/\/www.thedigitaldarkroom.co.nz","yp_url":"https:\/\/yellow.co.nz\/y\/digital-darkroom-grafton?src=name","addrInfo":{"lat":-36.8639666,"lng":174.7614926,"street_number":"2","locality":"Auckland","administrative_area_level_1":"Auckland","country_code":"NZ","country":"New Zealand","postal_code":"1010","route":"2 Khyber Pass Rd","formatted_address":"2 Khyber Pass Rd, Eden Terrace, Auckland 1010, New Zealand"}},{"business_url":"http:\/\/www.themirrorbox.co.nz","yp_url":"https:\/\/yellow.co.nz\/y\/mirrorbox-alexandra-street?src=name","addrInfo":{"lat":-38.0099617,"lng":175.3251081,"street_number":"51","locality":"Te Awamutu","administrative_area_level_1":"Waikato","country_code":"NZ","country":"New Zealand","postal_code":"3800","route":"51 Alexandra St","formatted_address":"51 Alexandra St, Te Awamutu 3800, New Zealand"}},{"business_url":"http:\/\/www.newlynnphotos.co.nz","yp_url":"https:\/\/yellow.co.nz\/y\/new-lynn-photos-blockhouse?src=name","addrInfo":{"lat":-36.9082738,"lng":174.6827569,"street_number":"3068","locality":"Auckland","administrative_area_level_1":"Auckland","country_code":"NZ","country":"New Zealand","postal_code":"0600","route":"3068 Great North Rd","formatted_address":"3068 Great North Rd, New Lynn, Auckland 0600, New Zealand"}},{"business_url":"http:\/\/www.queensberry.com\/","yp_url":"https:\/\/yellow.co.nz\/y\/queensberry-lab?src=name","addrInfo":{"lat":-37.1985036,"lng":174.9070896,"street_number":"4","locality":"Pukekohe","administrative_area_level_1":"Auckland","country_code":"NZ","country":"New Zealand","postal_code":"2120","route":"4 Franklin Rd","formatted_address":"4 Franklin Rd, Pukekohe 2120, New Zealand"}},{"business_url":"http:\/\/www.snapshot.co.nz","yp_url":"https:\/\/yellow.co.nz\/y\/snapshot-victoria?src=name","addrInfo":{"lat":-37.7867298,"lng":175.2822031,"street_number":"391","locality":"Hamilton","administrative_area_level_1":"Waikato","country_code":"NZ","country":"New Zealand","postal_code":"3204","route":"391 Victoria St","formatted_address":"391 Victoria St, Hamilton 3204, New Zealand"}},{"business_url":"http:\/\/www.topshots.co.nz","yp_url":"https:\/\/yellow.co.nz\/y\/top-shots-photo?src=name","addrInfo":{"lat":-41.5139613,"lng":173.9567766,"street_number":"100","locality":"Blenheim","administrative_area_level_1":"Marlborough","country_code":"NZ","country":"New Zealand","postal_code":"7201","route":"100 Market St","formatted_address":"100 Market St, Blenheim, Blenheim 7201, New Zealand"}},{"business_url":"http:\/\/www.photo.co.nz","yp_url":"https:\/\/yellow.co.nz\/y\/photo-video-international?src=name","addrInfo":{"lat":-43.5125569,"lng":172.6213036,"street_number":"185","locality":"Christchurch","administrative_area_level_1":"Canterbury","country_code":"NZ","country":"New Zealand","postal_code":"8014","route":"185 Papanui Rd","formatted_address":"185 Papanui Rd, Merivale, Christchurch 8014, New Zealand"}},{"business_url":"http:\/\/www.prolabnz.photo","yp_url":"https:\/\/yellow.co.nz\/y\/prolab-new-zealand?src=name","addrInfo":{"lat":-45.872507,"lng":170.5039008,"street_number":"237","locality":"Dunedin","administrative_area_level_1":"Otago","country_code":"NZ","country":"New Zealand","postal_code":"9016","route":"237 Moray Pl","formatted_address":"237 Moray Pl, Dunedin, Dunedin 9016, New Zealand"}}]