[{"business_url":"http:\/\/www.baynaturopath.co.nz","yp_url":"https:\/\/yellow.co.nz\/y\/bay-naturopath?src=name","addrInfo":{"lat":-37.6957868,"lng":176.147719,"street_number":"9","locality":"Tauranga","administrative_area_level_1":"Bay Of Plenty","country_code":"NZ","country":"New Zealand","postal_code":"3110","route":"9 Churchill Rd","formatted_address":"9 Churchill Rd, Judea, Tauranga 3110, New Zealand"}},{"business_url":"http:\/\/www.sonjagardiner.com\/","yp_url":"https:\/\/yellow.co.nz\/y\/sonja-gardiner-nutrition-flagstaff?src=name","addrInfo":{"lat":-37.783031,"lng":175.2788434,"street_number":"711","locality":"Hamilton","administrative_area_level_1":"Waikato","country_code":"NZ","country":"New Zealand","postal_code":"3204","route":"711 Victoria St","formatted_address":"1\/711 Victoria St, Hamilton 3204, New Zealand"}},{"business_url":"http:\/\/www.melforrest.co.nz","yp_url":"https:\/\/yellow.co.nz\/y\/mel-forrest-naturopath-hamilton?src=name","addrInfo":{"lat":-37.7840313,"lng":175.28043,"street_number":"592","locality":"Hamilton","administrative_area_level_1":"Waikato","country_code":"NZ","country":"New Zealand","postal_code":"3204","route":"592 Victoria St","formatted_address":"592 Victoria St, Hamilton 3204, New Zealand"}},{"business_url":"http:\/\/Www.chrisrhodes.co.nz","yp_url":"https:\/\/yellow.co.nz\/y\/chris-rhodes-naturopath?src=name","addrInfo":{"lat":-37.7634394,"lng":175.2560404,"street_number":"45","locality":"Hamilton","administrative_area_level_1":"Waikato","country_code":"NZ","country":"New Zealand","postal_code":"3200","route":"45 Cunningham Rd","formatted_address":"45 Cunningham Rd, Beerescourt, Hamilton 3200, New Zealand"}},{"business_url":"http:\/\/www.truehealth4u.co.nz","yp_url":"https:\/\/yellow.co.nz\/y\/tina-pritchard-naturopath-remuera?src=name","addrInfo":{"lat":-36.8722502,"lng":174.7799866,"street_number":"77","locality":"Auckland","administrative_area_level_1":"Auckland","country_code":"NZ","country":"New Zealand","postal_code":"1050","route":"77 Remuera Rd","formatted_address":"77 Remuera Rd, Remuera, Auckland 1050, New Zealand"}},{"business_url":"http:\/\/www.jennifergarrett.co.nz","yp_url":"https:\/\/yellow.co.nz\/y\/garrett-jennifer-nd?src=name","addrInfo":{"lat":-36.9092209,"lng":174.7771653,"street_number":"9","locality":"Auckland","administrative_area_level_1":"Auckland","country_code":"NZ","country":"New Zealand","postal_code":"1023","route":"9 Raurenga Ave","formatted_address":"9 Raurenga Ave, Royal Oak, Auckland 1023, New Zealand"}},{"business_url":"http:\/\/www.nutrimedpharmacy.co.nz","yp_url":"https:\/\/yellow.co.nz\/y\/nutrition-medicine-clinic?src=name","addrInfo":{"lat":-36.834692,"lng":174.6025069,"street_number":"396","locality":"Auckland","administrative_area_level_1":"Auckland","country_code":"NZ","country":"New Zealand","postal_code":"0614","route":"396 Don Buck Rd","formatted_address":"396 Don Buck Rd, Massey, Auckland 0614, New Zealand"}},{"business_url":"http:\/\/www.upbeathealth.co.nz","yp_url":"https:\/\/yellow.co.nz\/y\/upbeat-health-katikati?src=name","addrInfo":{"lat":-37.5422812,"lng":175.8862857,"street_number":"242","locality":"Katikati","administrative_area_level_1":"Bay Of Plenty","country_code":"NZ","country":"New Zealand","postal_code":"3177","route":"242 Lindemann Rd","formatted_address":"3170\/242 Lindemann Rd, Katikati 3177, New Zealand"}},{"business_url":"http:\/\/www.reneharrishealth.com","yp_url":"https:\/\/yellow.co.nz\/y\/rene-schliebs-health?src=name","addrInfo":{"lat":-36.8527171,"lng":174.7527748,"street_number":"62","locality":"Auckland","administrative_area_level_1":"Auckland","country_code":"NZ","country":"New Zealand","postal_code":"1011","route":"62 Wellington St","formatted_address":"11\/62 Wellington St, Freemans Bay, Auckland 1011, New Zealand"}},{"business_url":"http:\/\/www.naturalhealthcheckup.com","yp_url":"https:\/\/yellow.co.nz\/y\/annaliese-jones-naturopath?src=name","addrInfo":{"lat":-36.8787751,"lng":174.7477734,"street_number":"23","locality":"Auckland","administrative_area_level_1":"Auckland","country_code":"NZ","country":"New Zealand","postal_code":"1024","route":"23 Burnley Terrace","formatted_address":"23 Burnley Terrace, Mount Eden, Auckland 1024, New Zealand"}},{"business_url":"http:\/\/www.healthmechanics.co.nz","yp_url":"https:\/\/yellow.co.nz\/y\/health-mechanics-naturopathy?src=name","addrInfo":{"lat":-36.5866521,"lng":174.6923382,"street_number":"99","locality":"Orewa","administrative_area_level_1":"Auckland","country_code":"NZ","country":"New Zealand","postal_code":"0931","route":"99 Centreway Rd","formatted_address":"99 Centreway Rd, Orewa 0931, New Zealand"}},{"business_url":"http:\/\/www.jarvishealth.co.nz","yp_url":"https:\/\/yellow.co.nz\/y\/jarvis-health?src=name","addrInfo":{"lat":-36.8304381,"lng":174.7962612,"street_number":"17","locality":"Auckland","administrative_area_level_1":"Auckland","country_code":"NZ","country":"New Zealand","postal_code":"0624","route":"17 Clarence St","formatted_address":"17 Clarence St, Devonport, Auckland 0624, New Zealand"}},{"business_url":"http:\/\/www.healthybeing.co.nz","yp_url":"https:\/\/yellow.co.nz\/y\/healthy-being?src=name","addrInfo":{"lat":-36.9629198,"lng":174.6311154,"street_number":"6","locality":"Auckland","administrative_area_level_1":"Auckland","country_code":"NZ","country":"New Zealand","postal_code":"0604","route":"6 Tane Rd","formatted_address":"6 Tane Rd, Laingholm, Auckland 0604, New Zealand"}},{"business_url":"http:\/\/www.alisonodey.com","yp_url":"https:\/\/yellow.co.nz\/y\/alison-odey-naturally?src=name","addrInfo":{"lat":-37.6951378,"lng":176.2775873,"street_number":"84","locality":"Papamoa","administrative_area_level_1":"Bay Of Plenty","country_code":"NZ","country":"New Zealand","postal_code":"3118","route":"84 Percy Rd","formatted_address":"84 Percy Rd, Papamoa Beach, Papamoa 3118, New Zealand"}},{"business_url":"http:\/\/www.naturalange.co.nz","yp_url":"https:\/\/yellow.co.nz\/y\/natural-ange?src=name","addrInfo":{"lat":-36.8587384,"lng":174.7303527,"street_number":"407A","locality":"Auckland","administrative_area_level_1":"Auckland","country_code":"NZ","country":"New Zealand","postal_code":"1021","route":"407A Richmond Rd","formatted_address":"407A Richmond Rd, Grey Lynn, Auckland 1021, New Zealand"}},{"business_url":"http:\/\/www.healthwithoutdrugs.co.nz","yp_url":"https:\/\/yellow.co.nz\/y\/richard-ayletts-clinic?src=name","addrInfo":{"lat":-36.8722502,"lng":174.7799866,"street_number":"77","locality":"Auckland","administrative_area_level_1":"Auckland","country_code":"NZ","country":"New Zealand","postal_code":"1050","route":"77 Remuera Rd","formatted_address":"77 Remuera Rd, Remuera, Auckland 1050, New Zealand"}},{"business_url":"http:\/\/www.epsomhealthclinic.co.nz","yp_url":"https:\/\/yellow.co.nz\/y\/sterling-health-clinic?src=name","addrInfo":{"lat":-36.8818538,"lng":174.7669595,"street_number":"73","locality":"Auckland","administrative_area_level_1":"Auckland","country_code":"NZ","country":"New Zealand","postal_code":"1023","route":"73 Epsom Ave","formatted_address":"73 Epsom Ave, Epsom, Auckland 1023, New Zealand"}},{"business_url":"http:\/\/www.herbalcentre.co.nz","yp_url":"https:\/\/yellow.co.nz\/y\/yvonne-gattung-chedworth?src=name","addrInfo":{"lat":-37.7528034,"lng":175.2742548,"street_number":"83","locality":"Hamilton","administrative_area_level_1":"Waikato","country_code":"NZ","country":"New Zealand","postal_code":"3210","route":"83 Comries Rd","formatted_address":"83 Comries Rd, Chartwell, Hamilton 3210, New Zealand"}},{"business_url":"http:\/\/www.kereruriferetreat.co.nz","yp_url":"https:\/\/yellow.co.nz\/y\/arnica-naturopathic-clinic-makarau?src=name","addrInfo":{"lat":-36.5232184,"lng":174.524879,"street_number":"495","locality":"Makarau","administrative_area_level_1":"Auckland","country_code":"NZ","country":"New Zealand","postal_code":"0873","route":"495 Burnside Rd","formatted_address":"495 Burnside Rd, Makarau 0873, New Zealand"}},{"business_url":"http:\/\/www.tuiheightshealth.co.nz\/","yp_url":"https:\/\/yellow.co.nz\/y\/tui-heights-holistic-health?src=name","addrInfo":{"lat":-38.1365731,"lng":176.2512863,"street_number":"1211","locality":"Rotorua","administrative_area_level_1":"Bay Of Plenty","country_code":"NZ","country":"New Zealand","postal_code":"3010","route":"1211 Tutanekai St","formatted_address":"1211 Tutanekai St, Rotorua 3010, New Zealand"}},{"business_url":"http:\/\/www.forbodyandmind.co.nz","yp_url":"https:\/\/yellow.co.nz\/y\/carine-mccarthy?src=name","addrInfo":{"lat":-37.7848611,"lng":175.2858443,"street_number":"20","locality":"Hamilton","administrative_area_level_1":"Waikato","country_code":"NZ","country":"New Zealand","postal_code":"3216","route":"20 Opoia Rd","formatted_address":"20 Opoia Rd, Hamilton East, Hamilton 3216, New Zealand"}},{"business_url":"http:\/\/www.dangoodkindphd.com","yp_url":"https:\/\/yellow.co.nz\/y\/dan-goodkind-phd-new?src=name","addrInfo":{"lat":-39.0618731,"lng":174.0646103,"street_number":"187","locality":"New Plymouth","administrative_area_level_1":"Taranaki","country_code":"NZ","country":"New Zealand","postal_code":"4310","route":"187 Powderham St","formatted_address":"187 Powderham St, New Plymouth 4310, New Zealand"}},{"business_url":"http:\/\/www.waitemataendoscopy.co.nz","yp_url":"https:\/\/yellow.co.nz\/y\/waitemata-endoscopy?src=name","addrInfo":{"lat":-36.792465,"lng":174.7240343,"street_number":"232","locality":"Auckland","administrative_area_level_1":"Auckland","country_code":"NZ","country":"New Zealand","postal_code":"0629","route":"232 Glenfield Rd","formatted_address":"232 Glenfield Rd, Glenfield, Auckland 0629, New Zealand"}},{"business_url":"http:\/\/www.jenniferwillsphysio.co.nz","yp_url":"https:\/\/yellow.co.nz\/y\/jennifer-wills-physiotherapy?src=name","addrInfo":{"lat":-36.8694416,"lng":174.8749008,"street_number":"239","locality":"Auckland","administrative_area_level_1":"Auckland","country_code":"NZ","country":"New Zealand","postal_code":"1072","route":"239 W Tamaki Rd","formatted_address":"239 W Tamaki Rd, Glen Innes, Auckland 1072, New Zealand"}},{"business_url":"http:\/\/www.obstetrics.co.nz","yp_url":"https:\/\/yellow.co.nz\/y\/auckland-obstetric-centre-titoki?src=name","addrInfo":{"lat":-36.8622982,"lng":174.7797963,"street_number":"20","locality":"Auckland","administrative_area_level_1":"Auckland","country_code":"NZ","country":"New Zealand","postal_code":"1052","route":"20 Titoki St","formatted_address":"20 Titoki St, Parnell, Auckland 1052, New Zealand"}}]