[{"business_url":"http:\/\/www.pianoforte.co.nz","yp_url":"https:\/\/yellow.co.nz\/y\/brian-holden-piano?src=name","addrInfo":{"lat":-38.1642101,"lng":176.2379906,"street_number":"67","locality":"Rotorua","administrative_area_level_1":"Bay Of Plenty","country_code":"NZ","country":"New Zealand","postal_code":"3015","route":"67 Moncur Dr","formatted_address":"67 Moncur Dr, Springfield, Rotorua 3015, New Zealand"}},{"business_url":"http:\/\/www.lowetuning.co.nz","yp_url":"https:\/\/yellow.co.nz\/y\/richard-lowe-piano?src=name","addrInfo":{"lat":-36.9552373,"lng":174.6344291,"street_number":"27","locality":"Auckland","administrative_area_level_1":"Auckland","country_code":"NZ","country":"New Zealand","postal_code":"0604","route":"27 Fawcett Rd","formatted_address":"27 Fawcett Rd, Laingholm, Auckland 0604, New Zealand"}},{"business_url":"http:\/\/www.pianocompany.co.nz","yp_url":"https:\/\/yellow.co.nz\/y\/piano-company-nz?src=name","addrInfo":{"lat":-41.0962187,"lng":174.8696857,"street_number":"82","locality":"Porirua","administrative_area_level_1":"Wellington","country_code":"NZ","country":"New Zealand","postal_code":"5026","route":"82 Mana Esplanade","formatted_address":"82 Mana Esplanade, Mana, Porirua 5026, New Zealand"}},{"business_url":"http:\/\/www.pianos.co.nz","yp_url":"https:\/\/yellow.co.nz\/y\/piano-specialists?src=name","addrInfo":{"lat":-45.8949155,"lng":170.4994629,"street_number":"203","locality":"Dunedin","administrative_area_level_1":"Otago","country_code":"NZ","country":"New Zealand","postal_code":"9012","route":"203 King Edward St","formatted_address":"203 King Edward St, South Dunedin, Dunedin 9012, New Zealand"}},{"business_url":"http:\/\/www.pianotech.co.nz","yp_url":"https:\/\/yellow.co.nz\/y\/wellington-piano-miramar?src=name","addrInfo":{"lat":-41.3250651,"lng":174.8145421,"street_number":"409","locality":"Wellington","administrative_area_level_1":"Wellington","country_code":"NZ","country":"New Zealand","postal_code":"6022","route":"409 Broadway","formatted_address":"409 Broadway, Miramar, Wellington 6022, New Zealand"}},{"business_url":"http:\/\/comtelsystems.co.nz","yp_url":"https:\/\/yellow.co.nz\/y\/comtel-systems?src=name","addrInfo":{"lat":-39.9381067,"lng":175.0517716,"street_number":"130","locality":"Whanganui","administrative_area_level_1":"Manawatu-Wanganui","country_code":"NZ","country":"New Zealand","postal_code":"4500","route":"130 Taupo Quay","formatted_address":"130 Taupo Quay, Whanganui, Whanganui 4500, New Zealand"}},{"business_url":"http:\/\/www.pianoprestige.co.nz","yp_url":"https:\/\/yellow.co.nz\/y\/piano-prestige-serge-titahi?src=name","addrInfo":{"lat":-41.100374,"lng":174.8405124,"street_number":"41","locality":"Porirua","administrative_area_level_1":"Wellington","country_code":"NZ","country":"New Zealand","postal_code":"5022","route":"41 Herewini St","formatted_address":"41 Herewini St, Titahi Bay, Porirua 5022, New Zealand"}}]