[{"business_url":"http:\/\/steelandtube.co.nz\/product\/cr","yp_url":"https:\/\/yellow.co.nz\/y\/steel-tube-east?src=name","addrInfo":{"lat":-36.930383,"lng":174.8884647,"street_number":"68","locality":"Auckland","administrative_area_level_1":"Auckland","country_code":"NZ","country":"New Zealand","postal_code":"2013","route":"68 Stonedon Dr","formatted_address":"68 Stonedon Dr, East Tamaki, Auckland 2013, New Zealand"}},{"business_url":"http:\/\/steelandtube.co.nz\/product\/pur","yp_url":"https:\/\/yellow.co.nz\/y\/steel-tube-te?src=name","addrInfo":{"lat":-37.7568886,"lng":175.2394284,"street_number":"40","locality":"Hamilton","administrative_area_level_1":"Waikato","country_code":"NZ","country":"New Zealand","postal_code":"3200","route":"40 Northway St","formatted_address":"40 Northway St, Te Rapa, Hamilton 3200, New Zealand"}},{"business_url":"http:\/\/www.waterspec.co.nz","yp_url":"https:\/\/yellow.co.nz\/y\/waterspec-taupo-taupo?src=name","addrInfo":{"lat":-38.6919866,"lng":176.1060407,"street_number":"7","locality":"Taupo","administrative_area_level_1":"Waikato","country_code":"NZ","country":"New Zealand","postal_code":"3330","route":"7 Mahoe St","formatted_address":"7 Mahoe St, Tauhara, Taupo 3330, New Zealand"}},{"business_url":"http:\/\/www.synergypositioning.co.nz","yp_url":"https:\/\/yellow.co.nz\/y\/synergy-positioning-systems-albany?src=name","addrInfo":{"lat":-36.7420622,"lng":174.7270337,"street_number":"52","locality":"Auckland","administrative_area_level_1":"Auckland","country_code":"NZ","country":"New Zealand","postal_code":"0632","route":"52 Arrenway Dr","formatted_address":"3\/52 Arrenway Dr, Rosedale, Auckland 0632, New Zealand"}},{"business_url":"http:\/\/www.aircompressors.co.nz","yp_url":"https:\/\/yellow.co.nz\/y\/engineering-compressor-services-rosebank?src=name","addrInfo":{"lat":-36.8762832,"lng":174.6695988,"street_number":"580","locality":"Auckland","administrative_area_level_1":"Auckland","country_code":"NZ","country":"New Zealand","postal_code":"1026","route":"580 Rosebank Rd","formatted_address":"580 Rosebank Rd, Avondale, Auckland 1026, New Zealand"}},{"business_url":"http:\/\/steelandtube.co.nz\/product\/cr","yp_url":"https:\/\/yellow.co.nz\/y\/steel-tube-blenheim?src=name","addrInfo":{"lat":-43.5393615,"lng":172.5745165,"street_number":"375-399","locality":"Christchurch","administrative_area_level_1":"Canterbury","country_code":"NZ","country":"New Zealand","postal_code":"8041","route":"375-399 Blenheim Rd","formatted_address":"375-399 Blenheim Rd, Upper Riccarton, Christchurch 8041, New Zealand"}},{"business_url":"http:\/\/steelandtube.co.nz\/product\/pip","yp_url":"https:\/\/yellow.co.nz\/y\/steel-tube-hautonga?src=name","addrInfo":{"lat":-41.2331376,"lng":174.8965606,"street_number":"26","locality":"Lower Hutt","administrative_area_level_1":"Wellington","country_code":"NZ","country":"New Zealand","postal_code":"5012","route":"26 Hautonga St","formatted_address":"26 Hautonga St, Petone, Lower Hutt 5012, New Zealand"}},{"business_url":"http:\/\/www.tynetraders.co.nz\/","yp_url":"https:\/\/yellow.co.nz\/y\/tyne-traders?src=name","addrInfo":{"lat":-46.4181964,"lng":168.3480736,"street_number":"105","locality":"Invercargill","administrative_area_level_1":"Southland","country_code":"NZ","country":"New Zealand","postal_code":"9810","route":"105 Tweed St","formatted_address":"105 Tweed St, West Invercargill, Invercargill 9810, New Zealand"}},{"business_url":"http:\/\/www.steelandtube.co.nz","yp_url":"https:\/\/yellow.co.nz\/y\/steel-tube-stonedon-drive-2?src=name","addrInfo":{"lat":-41.2620693,"lng":173.2760396,"street_number":"29","locality":"Nelson","administrative_area_level_1":"Nelson","country_code":"NZ","country":"New Zealand","postal_code":"7010","route":"29 Carkeek St","formatted_address":"29 Carkeek St, Port Nelson, Nelson 7010, New Zealand"}},{"business_url":"http:\/\/www.steelandtube.co.nz","yp_url":"https:\/\/yellow.co.nz\/y\/steel-tube-stonedon-drive?src=name","addrInfo":{"lat":-44.3567409,"lng":171.2399033,"street_number":"9","locality":"Timaru","administrative_area_level_1":"Canterbury","country_code":"NZ","country":"New Zealand","postal_code":"7910","route":"9 Meadows Rd","formatted_address":"9 Meadows Rd, Washdyke, Timaru 7910, New Zealand"}},{"business_url":"http:\/\/www.steelandtube.co.nz","yp_url":"https:\/\/yellow.co.nz\/y\/steel-tube-invercargill?src=name","addrInfo":{"lat":-46.4217853,"lng":168.3410825,"street_number":"292","locality":"Invercargill","administrative_area_level_1":"Southland","country_code":"NZ","country":"New Zealand","postal_code":"9810","route":"292 Bond St","formatted_address":"292 Bond St, West Invercargill, Invercargill 9810, New Zealand"}}]