[{"business_url":"http:\/\/www.mtedencounselling.co.nz","yp_url":"https:\/\/yellow.co.nz\/y\/mp-christoffersen?src=name&c=1359","addrInfo":{"lat":-36.8797242,"lng":174.7457891,"street_number":"34","locality":"Auckland","administrative_area_level_1":"Auckland","country_code":"NZ","country":"New Zealand","postal_code":"1024","route":"34 King Edward St","formatted_address":"34 King Edward St, Mount Eden, Auckland 1024, New Zealand"}},{"business_url":"http:\/\/www.aucklandcitytherapy.co.nz","yp_url":"https:\/\/yellow.co.nz\/y\/auckland-city-therapy-parnell?src=name&c=1359","addrInfo":{"lat":-36.8506772,"lng":174.7820271,"street_number":"130","locality":"Auckland","administrative_area_level_1":"Auckland","country_code":"NZ","country":"New Zealand","postal_code":"1052","route":"130 St Georges Bay Rd","formatted_address":"130 St Georges Bay Rd, Parnell, Auckland 1052, New Zealand"}},{"business_url":"http:\/\/www.psychotherapy.org.nz","yp_url":"https:\/\/yellow.co.nz\/y\/macdonald-kyle?src=name&c=1359","addrInfo":{"lat":-36.8940897,"lng":174.8094539,"street_number":"37","locality":"Auckland","administrative_area_level_1":"Auckland","country_code":"NZ","country":"New Zealand","postal_code":"1051","route":"37 Robert St","formatted_address":"37 Robert St, Ellerslie, Auckland 1051, New Zealand"}},{"business_url":"http:\/\/www.rojolie.co.nz","yp_url":"https:\/\/yellow.co.nz\/y\/rojolie-clinic-remuera?src=name&c=1359","addrInfo":{"lat":-36.8863198,"lng":174.8007787,"street_number":"67","locality":"Auckland","administrative_area_level_1":"Auckland","country_code":"NZ","country":"New Zealand","postal_code":"1050","route":"67 Green Ln E","formatted_address":"67 Green Ln E, Remuera, Auckland 1050, New Zealand"}},{"business_url":"http:\/\/www.ponsonbytherapy.co.nz\/GaelRowntree","yp_url":"https:\/\/yellow.co.nz\/y\/gael-rowntree-mnzap-ponsonby?src=name&c=1359","addrInfo":{"lat":-36.8505524,"lng":174.7425872,"street_number":"17","locality":"Auckland","administrative_area_level_1":"Auckland","country_code":"NZ","country":"New Zealand","postal_code":"1011","route":"17 Tole St","formatted_address":"17 Tole St, Ponsonby, Auckland 1011, New Zealand"}},{"business_url":"http:\/\/www.thesquarecircle.co.nz","yp_url":"https:\/\/yellow.co.nz\/y\/square-circle-psychotherapy?src=name&c=1359","addrInfo":{"lat":-36.787068,"lng":174.75807,"street_number":"46","locality":"Auckland","administrative_area_level_1":"Auckland","country_code":"NZ","country":"New Zealand","postal_code":"0622","route":"46 Taharoto Rd","formatted_address":"46 Taharoto Rd, Takapuna, Auckland 0622, New Zealand"}},{"business_url":"http:\/\/www.thebungalow.co.nz","yp_url":"https:\/\/yellow.co.nz\/y\/bungalow-psychotherapy-counselling?src=name&c=1359","addrInfo":{"lat":-36.8985377,"lng":174.7344229,"street_number":"268","locality":"Auckland","administrative_area_level_1":"Auckland","country_code":"NZ","country":"New Zealand","postal_code":"1041","route":"268 Mount Albert Rd","formatted_address":"268 Mount Albert Rd, Sandringham, Auckland 1041, New Zealand"}},{"business_url":"http:\/\/www.baycounselling.co.nz","yp_url":"https:\/\/yellow.co.nz\/y\/sue-harris-ma?src=name&c=1359","addrInfo":{"lat":-37.6963519,"lng":176.1585753,"street_number":"68","locality":"Tauranga","administrative_area_level_1":"Bay Of Plenty","country_code":"NZ","country":"New Zealand","postal_code":"3110","route":"68 Tenth Ave","formatted_address":"68 Tenth Ave, Tauranga, Tauranga 3110, New Zealand"}},{"business_url":"http:\/\/www.BayviewCounselling.co.nz","yp_url":"https:\/\/yellow.co.nz\/y\/bayview-counselling-psychotherapy?src=name&c=1359","addrInfo":{"lat":-36.7697813,"lng":174.706051,"street_number":"141","locality":"Auckland","administrative_area_level_1":"Auckland","country_code":"NZ","country":"New Zealand","postal_code":"0629","route":"141 Glendhu Rd","formatted_address":"141 Glendhu Rd, Bayview, Auckland 0629, New Zealand"}},{"business_url":"http:\/\/www.billfarrell.co.nz","yp_url":"https:\/\/yellow.co.nz\/y\/farrell-bill?src=name&c=1359","addrInfo":{"lat":-36.8909015,"lng":174.7614532,"street_number":"3","locality":"Auckland","administrative_area_level_1":"Auckland","country_code":"NZ","country":"New Zealand","postal_code":"1024","route":"3 Kakariki Ave","formatted_address":"6\/3 Kakariki Ave, Mount Eden, Auckland 1024, New Zealand"}}]