[{"business_url":"http:\/\/www.whangarei-libraries.com","yp_url":"https:\/\/yellow.co.nz\/y\/whangarei-libraries?src=name&c=1076","addrInfo":{"lat":-35.7240758,"lng":174.3181607,"street_number":"7","locality":"Whangarei","administrative_area_level_1":"Northland","country_code":"NZ","country":"New Zealand","postal_code":"0110","route":"7 Rust Ave","formatted_address":"7 Rust Ave, Whangarei, Whangarei 0110, New Zealand"}},{"business_url":"http:\/\/www.teahu.org.nz","yp_url":"https:\/\/yellow.co.nz\/y\/kerikeri-procter-library?src=name&c=1076","addrInfo":{"lat":-35.2279162,"lng":173.9494195,"street_number":"6","locality":"Kerikeri","administrative_area_level_1":"Northland","country_code":"NZ","country":"New Zealand","postal_code":"0230","route":"6 Cobham Rd","formatted_address":"6 Cobham Rd, Kerikeri 0230, New Zealand"}},{"business_url":"http:\/\/www.teahu.org.nz","yp_url":"https:\/\/yellow.co.nz\/y\/paihia-library?src=name&c=1076","addrInfo":{"lat":-35.2822294,"lng":174.0910405,"street_number":"6","locality":"Paihia","administrative_area_level_1":"Northland","country_code":"NZ","country":"New Zealand","postal_code":"0200","route":"6 Williams Rd","formatted_address":"6 Williams Rd, Paihia 0200, New Zealand"}},{"business_url":"http:\/\/www.govettbrewster.com\/","yp_url":"https:\/\/yellow.co.nz\/y\/new-plymouth-district?src=name&c=1076","addrInfo":{"lat":-39.0585349,"lng":174.0701352,"street_number":"42","locality":"New Plymouth","administrative_area_level_1":"Taranaki","country_code":"NZ","country":"New Zealand","postal_code":"4310","route":"42 Queen St","formatted_address":"42 Queen St, New Plymouth 4310, New Zealand"}},{"business_url":"http:\/\/www.waipalibraries.org.nz","yp_url":"https:\/\/yellow.co.nz\/y\/te-awamutu-public-library?src=name&c=1076","addrInfo":{"lat":-38.0111097,"lng":175.3238608,"street_number":"157","locality":"Te Awamutu","administrative_area_level_1":"Waikato","country_code":"NZ","country":"New Zealand","postal_code":"3800","route":"157 Roche St","formatted_address":"157 Roche St, Te Awamutu 3800, New Zealand"}},{"business_url":"http:\/\/www.waipalibraries.org.nz","yp_url":"https:\/\/yellow.co.nz\/y\/cambridge-public-library?src=name&c=1076","addrInfo":{"lat":-37.8961744,"lng":175.4698304,"street_number":"23","locality":"Cambridge","administrative_area_level_1":"Waikato","country_code":"NZ","country":"New Zealand","postal_code":"3434","route":"23 Wilson St","formatted_address":"23 Wilson St, Cambridge 3434, New Zealand"}}]