[{"business_url":"http:\/\/www.gekkannz.net","yp_url":"https:\/\/yellow.co.nz\/y\/gekkan-nz-company?src=name&c=1362","addrInfo":{"lat":-36.8464709,"lng":174.7719362,"street_number":"16-22","locality":"Auckland","administrative_area_level_1":"Auckland","country_code":"NZ","country":"New Zealand","postal_code":"1010","route":"16-22 Anzac Ave","formatted_address":"16-22 Anzac Ave, Auckland, Auckland 1010, New Zealand"}},{"business_url":"http:\/\/www.oratiamedia.com","yp_url":"https:\/\/yellow.co.nz\/y\/oratia-media?src=name&c=1362","addrInfo":{"lat":-36.9262847,"lng":174.5973697,"street_number":"783","locality":"Auckland","administrative_area_level_1":"Auckland","country_code":"NZ","country":"New Zealand","postal_code":"0604","route":"783 W Coast Rd","formatted_address":"783 W Coast Rd, Oratia, Auckland 0604, New Zealand"}},{"business_url":"http:\/\/www.alphabyte.co.nz","yp_url":"https:\/\/yellow.co.nz\/y\/alphabyte?src=name&c=1362","addrInfo":{"lat":-36.8692669,"lng":174.7074519,"street_number":"20","locality":"Auckland","administrative_area_level_1":"Auckland","country_code":"NZ","country":"New Zealand","postal_code":"1022","route":"20 Alberta St","formatted_address":"20 Alberta St, Point Chevalier, Auckland 1022, New Zealand"}},{"business_url":"http:\/\/www.newhouse.co.nz","yp_url":"https:\/\/yellow.co.nz\/y\/new-house-publishers?src=name&c=1362","addrInfo":{"lat":-36.7606495,"lng":174.7598415,"street_number":"31","locality":"Auckland","administrative_area_level_1":"Auckland","country_code":"NZ","country":"New Zealand","postal_code":"0620","route":"31 Castor Bay Rd","formatted_address":"31 Castor Bay Rd, Castor Bay, Auckland 0620, New Zealand"}},{"business_url":"http:\/\/www.adrenalin.co.nz","yp_url":"https:\/\/yellow.co.nz\/y\/adrenalin-publishing?src=name&c=1362","addrInfo":{"lat":-36.7479991,"lng":174.728061,"street_number":"14C","locality":"Auckland","administrative_area_level_1":"Auckland","country_code":"NZ","country":"New Zealand","postal_code":"0632","route":"14C Vega Pl","formatted_address":"14C Vega Pl, Rosedale, Auckland 0632, New Zealand"}},{"business_url":"http:\/\/www.graphix.co.nz\/","yp_url":"https:\/\/yellow.co.nz\/y\/publishme-self-publishing?src=name&c=1362","addrInfo":{"lat":-39.0607044,"lng":174.0638487,"street_number":"254","locality":"New Plymouth","administrative_area_level_1":"Taranaki","country_code":"NZ","country":"New Zealand","postal_code":"4310","route":"254 Devon St W","formatted_address":"254 Devon St W, New Plymouth 4310, New Zealand"}},{"business_url":"http:\/\/www.sunshine.co.nz","yp_url":"https:\/\/yellow.co.nz\/y\/wendy-pye-publishing?src=name&c=1362","addrInfo":{"lat":-36.9007681,"lng":174.8050564,"street_number":"413","locality":"Auckland","administrative_area_level_1":"Auckland","country_code":"NZ","country":"New Zealand","postal_code":"1051","route":"413 Great South Rd","formatted_address":"413 Great South Rd, Ellerslie, Auckland 1051, New Zealand"}},{"business_url":"http:\/\/www.homestyle.co.nz","yp_url":"https:\/\/yellow.co.nz\/y\/pluto-group?src=name&c=1362","addrInfo":{"lat":-36.8690238,"lng":174.751473,"street_number":"326","locality":"Auckland","administrative_area_level_1":"Auckland","country_code":"NZ","country":"New Zealand","postal_code":"1021","route":"326 New N Rd","formatted_address":"326 New N Rd, Kingsland, Auckland 1021, New Zealand"}},{"business_url":"http:\/\/www.elotos.co.nz","yp_url":"https:\/\/yellow.co.nz\/y\/elotos-press?src=name&c=1362","addrInfo":{"lat":-36.9160295,"lng":174.8916444,"street_number":"25","locality":"Auckland","administrative_area_level_1":"Auckland","country_code":"NZ","country":"New Zealand","postal_code":"2010","route":"25 Megan Ave","formatted_address":"25 Megan Ave, Pakuranga Heights, Auckland 2010, New Zealand"}},{"business_url":"http:\/\/www.maryegan.co.nz","yp_url":"https:\/\/yellow.co.nz\/y\/mary-egan-college?src=name&c=1362","addrInfo":{"lat":-36.8488058,"lng":174.7490575,"street_number":"28","locality":"Auckland","administrative_area_level_1":"Auckland","country_code":"NZ","country":"New Zealand","postal_code":"1011","route":"28 College Hill","formatted_address":"606\/28 College Hill, Freemans Bay, Auckland 1011, New Zealand"}},{"business_url":"http:\/\/www.agm.co.nz","yp_url":"https:\/\/yellow.co.nz\/y\/agm-publishing?src=name&c=1362","addrInfo":{"lat":-36.8710778,"lng":174.7473924,"street_number":"409","locality":"Auckland","administrative_area_level_1":"Auckland","country_code":"NZ","country":"New Zealand","postal_code":"1021","route":"409 New N Rd","formatted_address":"409 New N Rd, Kingsland, Auckland 1021, New Zealand"}},{"business_url":"http:\/\/www.calicopublishing.co.nz","yp_url":"https:\/\/yellow.co.nz\/y\/calico-publishing?src=name&c=1362","addrInfo":{"lat":-36.9008189,"lng":174.7671803,"street_number":"2A","locality":"Auckland","administrative_area_level_1":"Auckland","country_code":"NZ","country":"New Zealand","postal_code":"1023","route":"2A Heywood Cres","formatted_address":"2A Heywood Cres, Epsom, Auckland 1023, New Zealand"}},{"business_url":"http:\/\/www.resourcebooks.co.nz","yp_url":"https:\/\/yellow.co.nz\/y\/resource-books?src=name&c=1362","addrInfo":{"lat":-36.7504525,"lng":174.5069924,"street_number":"238","locality":"Waimauku","administrative_area_level_1":"Auckland","country_code":"NZ","country":"New Zealand","postal_code":"0882","route":"238 Waikoukou Valley Rd","formatted_address":"238 Waikoukou Valley Rd, Waimauku 0882, New Zealand"}},{"business_url":"http:\/\/www.exisle.co.nz","yp_url":"https:\/\/yellow.co.nz\/y\/exisle-publishing?src=name&c=1362","addrInfo":{"lat":-36.9330943,"lng":174.6683263,"street_number":"59","locality":"Auckland","administrative_area_level_1":"Auckland","country_code":"NZ","country":"New Zealand","postal_code":"0604","route":"59 Castleford St","formatted_address":"59 Castleford St, Green Bay, Auckland 0604, New Zealand"}},{"business_url":"http:\/\/www.goodreturns.co.nz","yp_url":"https:\/\/yellow.co.nz\/y\/tarawera-publishing?src=name&c=1362","addrInfo":{"lat":-38.1380812,"lng":176.2427449,"street_number":"1448A","locality":"Rotorua","administrative_area_level_1":"Bay Of Plenty","country_code":"NZ","country":"New Zealand","postal_code":"3010","route":"1448A Hinemoa St","formatted_address":"1448A Hinemoa St, Rotorua 3010, New Zealand"}}]