[{"business_url":"http:\/\/www.pumpkinpatch.co.nz","yp_url":"https:\/\/yellow.co.nz\/y\/pumpkin-patch-whangarei?src=name","addrInfo":{"lat":-35.7293243,"lng":174.3193011,"street_number":"19-25","locality":"Whangarei","administrative_area_level_1":"Northland","country_code":"NZ","country":"New Zealand","postal_code":"0110","route":"19-25 Lower Tarewa Rd","formatted_address":"19-25 Lower Tarewa Rd, Whangarei, Whangarei 0110, New Zealand"}},{"business_url":"http:\/\/www.pumpkinpatch.co.nz","yp_url":"https:\/\/yellow.co.nz\/y\/pumpkin-patch-east-tamaki?src=name","addrInfo":{"lat":-36.9496932,"lng":174.9041691,"street_number":"441","locality":"Auckland","administrative_area_level_1":"Auckland","country_code":"NZ","country":"New Zealand","postal_code":"2013","route":"441 E Tamaki Rd","formatted_address":"441 E Tamaki Rd, East Tamaki, Auckland 2013, New Zealand"}},{"business_url":"http:\/\/www.pumpkinpatch.co.nz","yp_url":"https:\/\/yellow.co.nz\/y\/pumpkin-patch-wairau?src=name","addrInfo":{"lat":-36.7665349,"lng":174.7378326,"street_number":"14","locality":"Auckland","administrative_area_level_1":"Auckland","country_code":"NZ","country":"New Zealand","postal_code":"0627","route":"14 Link Dr","formatted_address":"4\/14 Link Dr, Wairau Valley, Auckland 0627, New Zealand"}},{"business_url":"http:\/\/www.pumpkinpatch.co.nz","yp_url":"https:\/\/yellow.co.nz\/y\/pumpkin-patch-ponsonby?src=name","addrInfo":{"lat":-36.851293,"lng":174.7444844,"street_number":"252","locality":"Auckland","administrative_area_level_1":"Auckland","country_code":"NZ","country":"New Zealand","postal_code":"1011","route":"252 Ponsonby Rd","formatted_address":"250\/252 Ponsonby Rd, Ponsonby, Auckland 1011, New Zealand"}},{"business_url":"http:\/\/www.pumpkinpatch.co.nz","yp_url":"https:\/\/yellow.co.nz\/y\/pumpkin-patch-albany?src=name","addrInfo":{"lat":-36.7243465,"lng":174.70753,"street_number":"17","locality":"Auckland","administrative_area_level_1":"Auckland","country_code":"NZ","country":"New Zealand","postal_code":"0632","route":"17 Don Mckinnon Dr","formatted_address":"110\/17 Don Mckinnon Dr, Albany, Auckland 0632, New Zealand"}},{"business_url":"http:\/\/www.pumpkinpatch.co.nz","yp_url":"https:\/\/yellow.co.nz\/y\/pumpkin-patch-onehunga?src=name","addrInfo":{"lat":-36.9209158,"lng":174.7862162,"street_number":"151","locality":"Auckland","administrative_area_level_1":"Auckland","country_code":"NZ","country":"New Zealand","postal_code":"1061","route":"151 Arthur St","formatted_address":"151 Arthur St, Onehunga, Auckland 1061, New Zealand"}},{"business_url":"http:\/\/www.pumpkinpatch.co.nz","yp_url":"https:\/\/yellow.co.nz\/y\/pumpkin-patch-takapuna?src=name","addrInfo":{"lat":-36.7884665,"lng":174.7704559,"street_number":"8","locality":"Auckland","administrative_area_level_1":"Auckland","country_code":"NZ","country":"New Zealand","postal_code":"0622","route":"8 Como St","formatted_address":"6\/8 Como St, Takapuna, Auckland 0622, New Zealand"}},{"business_url":"http:\/\/www.pumpkinpatch.co.nz","yp_url":"https:\/\/yellow.co.nz\/y\/pumpkin-patch-como-street-2?src=name","addrInfo":{"lat":-36.614641,"lng":174.6801628,"street_number":"61","locality":"Silverdale","administrative_area_level_1":"Auckland","country_code":"NZ","country":"New Zealand","postal_code":"0932","route":"61 Silverdale St","formatted_address":"18\/61 Silverdale St, Silverdale 0932, New Zealand"}},{"business_url":"http:\/\/www.pumpkinpatch.co.nz","yp_url":"https:\/\/yellow.co.nz\/y\/pumpkin-patch-rotorua?src=name","addrInfo":{"lat":-38.1377566,"lng":176.2513532,"street_number":"1257","locality":"Rotorua","administrative_area_level_1":"Bay Of Plenty","country_code":"NZ","country":"New Zealand","postal_code":"3010","route":"1257 Tutanekai St","formatted_address":"1257 Tutanekai St, Rotorua 3010, New Zealand"}},{"business_url":"http:\/\/www.pumpkinpatch.co.nz","yp_url":"https:\/\/yellow.co.nz\/y\/pumpkin-patch-taupo?src=name","addrInfo":{"lat":-38.6870261,"lng":176.0716411,"street_number":"42","locality":"Taupo","administrative_area_level_1":"Waikato","country_code":"NZ","country":"New Zealand","postal_code":"3330","route":"42 Horomatangi St","formatted_address":"42 Horomatangi St, Taupo 3330, New Zealand"}},{"business_url":"http:\/\/www.pumpkinpatch.co.nz","yp_url":"https:\/\/yellow.co.nz\/y\/pumpkin-patch-new?src=name","addrInfo":{"lat":-39.0568004,"lng":174.0782625,"street_number":"128","locality":"New Plymouth","administrative_area_level_1":"Taranaki","country_code":"NZ","country":"New Zealand","postal_code":"4310","route":"128 Devon St E","formatted_address":"128 Devon St E, New Plymouth 4310, New Zealand"}},{"business_url":"http:\/\/www.pumpkinpatch.co.nz","yp_url":"https:\/\/yellow.co.nz\/y\/pumpkin-patch-newmarket?src=name","addrInfo":{"lat":-36.8687417,"lng":174.77651,"street_number":"8A","locality":"Auckland","administrative_area_level_1":"Auckland","country_code":"NZ","country":"New Zealand","postal_code":"1023","route":"8A Teed St","formatted_address":"8A Teed St, Newmarket, Auckland 1023, New Zealand"}}]