[{"business_url":"http:\/\/www.countrydawnquilting.com","yp_url":"https:\/\/yellow.co.nz\/y\/country-dawn-quilting?src=name","addrInfo":{"lat":-35.7269976,"lng":174.3289923,"street_number":"147","locality":"Whangarei","administrative_area_level_1":"Northland","country_code":"NZ","country":"New Zealand","postal_code":"0110","route":"147 Dent St","formatted_address":"147 Dent St, Whangarei, Whangarei 0110, New Zealand"}},{"business_url":"http:\/\/www.quiltshop.co.nz\/","yp_url":"https:\/\/yellow.co.nz\/y\/quilt-shop-mount-maunganui?src=name","addrInfo":{"lat":-37.6672905,"lng":176.2088774,"street_number":"21","locality":"Tauranga","administrative_area_level_1":"Bay Of Plenty","country_code":"NZ","country":"New Zealand","postal_code":"3116","route":"21 Macdonald St","formatted_address":"21 Macdonald St, Mount Maunganui, Tauranga 3116, New Zealand"}},{"business_url":"http:\/\/www.estitch.co.nz","yp_url":"https:\/\/yellow.co.nz\/y\/exquisite-stitch-north-shore?src=name","addrInfo":{"lat":-36.7885411,"lng":174.7712112,"street_number":"1","locality":"Auckland","administrative_area_level_1":"Auckland","country_code":"NZ","country":"New Zealand","postal_code":"0622","route":"1 Huron St","formatted_address":"1 Huron St, Takapuna, Auckland 0622, New Zealand"}},{"business_url":"http:\/\/www.grandmothersgarden.co.nz","yp_url":"https:\/\/yellow.co.nz\/y\/grandmors-garden-patchwork-quilting?src=name","addrInfo":{"lat":-37.6704604,"lng":175.3057467,"street_number":"1042","locality":"Gordonton","administrative_area_level_1":"Waikato","country_code":"NZ","country":"New Zealand","postal_code":"3281","route":"1042 Gordonton Rd","formatted_address":"1042 Gordonton Rd, Gordonton 3281, New Zealand"}},{"business_url":"http:\/\/www.donnasquiltstudio.co.nz","yp_url":"https:\/\/yellow.co.nz\/y\/donnas-quilt-studio?src=name","addrInfo":{"lat":-37.7851408,"lng":175.2530817,"street_number":"8","locality":"Hamilton","administrative_area_level_1":"Waikato","country_code":"NZ","country":"New Zealand","postal_code":"3204","route":"8 Railside Pl","formatted_address":"8 Railside Pl, Dinsdale, Hamilton 3204, New Zealand"}},{"business_url":"http:\/\/nancys.co.nz","yp_url":"https:\/\/yellow.co.nz\/y\/nancys-embroidery?src=name","addrInfo":{"lat":-41.2686942,"lng":174.7809356,"street_number":"261","locality":"Wellington","administrative_area_level_1":"Wellington","country_code":"NZ","country":"New Zealand","postal_code":"6011","route":"261 Thorndon Quay","formatted_address":"261 Thorndon Quay, Pipitea, Wellington 6011, New Zealand"}}]