[{"business_url":"http:\/\/www.northendco.co.nz","yp_url":"https:\/\/yellow.co.nz\/y\/north-end-kamo?src=name","addrInfo":{"lat":-35.6730772,"lng":174.3009227,"street_number":"26","locality":"Whangarei","administrative_area_level_1":"Northland","country_code":"NZ","country":"New Zealand","postal_code":"0112","route":"26 Winger Cres","formatted_address":"26 Winger Cres, Kamo, Whangarei 0112, New Zealand"}},{"business_url":"http:\/\/www.greenlanemanor.co.nz","yp_url":"https:\/\/yellow.co.nz\/y\/greenlane-manor-motel?src=name","addrInfo":{"lat":-36.8973547,"lng":174.8016815,"street_number":"353","locality":"Auckland","administrative_area_level_1":"Auckland","country_code":"NZ","country":"New Zealand","postal_code":"1051","route":"353 Great South Rd","formatted_address":"353 Great South Rd, Ellerslie, Auckland 1051, New Zealand"}},{"business_url":"http:\/\/www.taurangatopsoil.co.nz","yp_url":"https:\/\/yellow.co.nz\/y\/tauranga-topsoil-supplies-pyes?src=name","addrInfo":{"lat":-37.7457604,"lng":176.1004337,"street_number":"232","locality":"Tauranga","administrative_area_level_1":"Bay Of Plenty","country_code":"NZ","country":"New Zealand","postal_code":"3171","route":"232 Taurikura Dr","formatted_address":"232 Taurikura Dr, Tauriko, Tauranga 3171, New Zealand"}},{"business_url":"http:\/\/www.driftkartz.co.nz","yp_url":"https:\/\/yellow.co.nz\/y\/driftkartz-indoor-gokart?src=name","addrInfo":{"lat":-38.1263684,"lng":176.2321197,"street_number":"10","locality":"Rotorua","administrative_area_level_1":"Bay Of Plenty","country_code":"NZ","country":"New Zealand","postal_code":"3015","route":"10 Old Taupo Rd","formatted_address":"10 Old Taupo Rd, Mangakakahi, Rotorua 3015, New Zealand"}},{"business_url":"http:\/\/www.evolutioncycles.co.nz","yp_url":"https:\/\/yellow.co.nz\/y\/evo-cycles?src=name","addrInfo":{"lat":-37.6659328,"lng":176.2009436,"street_number":"67","locality":"Tauranga","administrative_area_level_1":"Bay Of Plenty","country_code":"NZ","country":"New Zealand","postal_code":"3116","route":"67 Hewletts Rd","formatted_address":"67 Hewletts Rd, Mount Maunganui, Tauranga 3116, New Zealand"}},{"business_url":"http:\/\/www.blackwoodyamaha.co.nz","yp_url":"https:\/\/yellow.co.nz\/y\/blackwood-yamaha?src=name","addrInfo":{"lat":-37.8908141,"lng":175.4750957,"street_number":"33","locality":"Cambridge","administrative_area_level_1":"Waikato","country_code":"NZ","country":"New Zealand","postal_code":"3434","route":"33 Albert St","formatted_address":"33 Albert St, Cambridge 3434, New Zealand"}},{"business_url":"http:\/\/www.avocadomedia.co.nz","yp_url":"https:\/\/yellow.co.nz\/y\/avocado-media-kama?src=name","addrInfo":{"lat":-36.7546705,"lng":174.7332955,"street_number":"1","locality":"Auckland","administrative_area_level_1":"Auckland","country_code":"NZ","country":"New Zealand","postal_code":"0620","route":"1 Kama Pl","formatted_address":"1 Kama Pl, Sunnynook, Auckland 0620, New Zealand"}},{"business_url":"http:\/\/www.extremekarts.co.nz","yp_url":"https:\/\/yellow.co.nz\/y\/extreme-indoor-karts?src=name","addrInfo":{"lat":-36.9440831,"lng":174.8809683,"street_number":"82","locality":"Auckland","administrative_area_level_1":"Auckland","country_code":"NZ","country":"New Zealand","postal_code":"2013","route":"82 Kerwyn Ave","formatted_address":"82 Kerwyn Ave, East Tamaki, Auckland 2013, New Zealand"}},{"business_url":"http:\/\/www.blastacars.co.nz","yp_url":"https:\/\/yellow.co.nz\/y\/blastacars-henderson-2?src=name","addrInfo":{"lat":-36.8515499,"lng":174.6395668,"street_number":"82","locality":"Auckland","administrative_area_level_1":"Auckland","country_code":"NZ","country":"New Zealand","postal_code":"0610","route":"82 The Concourse","formatted_address":"82 The Concourse, Henderson, Auckland 0610, New Zealand"}},{"business_url":"http:\/\/www.daytonahamilton.co.nz","yp_url":"https:\/\/yellow.co.nz\/y\/daytona-indoor-raceway-sunshine?src=name","addrInfo":{"lat":-37.7592598,"lng":175.2427948,"street_number":"46","locality":"Hamilton","administrative_area_level_1":"Waikato","country_code":"NZ","country":"New Zealand","postal_code":"3200","route":"46 Sunshine Ave","formatted_address":"46 Sunshine Ave, Te Rapa, Hamilton 3200, New Zealand"}},{"business_url":"http:\/\/www.riversspeed.co.nz\/","yp_url":"https:\/\/yellow.co.nz\/y\/rivers-speed-spares?src=name","addrInfo":{"lat":-39.9366317,"lng":175.0451048,"street_number":"26","locality":"Whanganui","administrative_area_level_1":"Manawatu-Wanganui","country_code":"NZ","country":"New Zealand","postal_code":"4500","route":"26 Hatrick St","formatted_address":"26 Hatrick St, Whanganui, Whanganui 4500, New Zealand"}},{"business_url":"http:\/\/www.mudcycles.co.nz","yp_url":"https:\/\/yellow.co.nz\/y\/mud-cycles-karori-road-2?src=name","addrInfo":{"lat":-41.2884319,"lng":174.7232161,"street_number":"424","locality":"Wellington","administrative_area_level_1":"Wellington","country_code":"NZ","country":"New Zealand","postal_code":"6012","route":"424 Karori Rd","formatted_address":"424 Karori Rd, Karori, Wellington 6012, New Zealand"}},{"business_url":"http:\/\/www.actionkarts.co.nz","yp_url":"https:\/\/yellow.co.nz\/y\/action-kart-raceway?src=name","addrInfo":{"lat":-43.4677461,"lng":172.5676737,"street_number":"565","locality":"Christchurch","administrative_area_level_1":"Canterbury","country_code":"NZ","country":"New Zealand","postal_code":"8051","route":"565 Sawyers Arms Rd","formatted_address":"565 Sawyers Arms Rd, Harewood, Christchurch 8051, New Zealand"}},{"business_url":"http:\/\/www.daytona.co.nz","yp_url":"https:\/\/yellow.co.nz\/y\/daytona-indoor-raceway-cloverlea?src=name","addrInfo":{"lat":-40.3423281,"lng":175.5953704,"street_number":"23C","locality":"Palmerston North","administrative_area_level_1":"Manawatu-Wanganui","country_code":"NZ","country":"New Zealand","postal_code":"4412","route":"23C Bennett St","formatted_address":"23C Bennett St, Cloverlea, Palmerston North 4412, New Zealand"}},{"business_url":"http:\/\/www.reikercycles.co.nz","yp_url":"https:\/\/yellow.co.nz\/y\/reiker-cycles?src=name","addrInfo":{"lat":-44.3598732,"lng":171.2396763,"street_number":"444","locality":"Timaru","administrative_area_level_1":"Canterbury","country_code":"NZ","country":"New Zealand","postal_code":"7910","route":"444 Old N Rd","formatted_address":"444 Old N Rd, Washdyke, Timaru 7910, New Zealand"}},{"business_url":"http:\/\/www.thompsonshorsecentre.co.nz","yp_url":"https:\/\/yellow.co.nz\/y\/thompsons-horse-centre?src=name","addrInfo":{"lat":-41.1223014,"lng":175.1072334,"street_number":"7","locality":"Upper Hutt","administrative_area_level_1":"Wellington","country_code":"NZ","country":"New Zealand","postal_code":"5371","route":"7 Leonards Rd","formatted_address":"7 Leonards Rd, Mangaroa, Upper Hutt 5371, New Zealand"}},{"business_url":"http:\/\/www.cycleworkz.co.nz","yp_url":"https:\/\/yellow.co.nz\/y\/bishopdale-cycleworkz-bishopdale-court?src=name","addrInfo":{"lat":-43.5637508,"lng":172.6256306,"street_number":"93","locality":"Christchurch","administrative_area_level_1":"Canterbury","country_code":"NZ","country":"New Zealand","postal_code":"8024","route":"93 Barrington St","formatted_address":"93 Barrington St, Somerfield, Christchurch 8024, New Zealand"}},{"business_url":"http:\/\/www.villagecycles.co.nz\/","yp_url":"https:\/\/yellow.co.nz\/y\/village-cycles-queen-3?src=name","addrInfo":{"lat":-41.3374387,"lng":173.1823009,"street_number":"301","locality":"Richmond","administrative_area_level_1":"Tasman","country_code":"NZ","country":"New Zealand","postal_code":"7020","route":"301 Queen St","formatted_address":"301 Queen St, Richmond 7020, New Zealand"}},{"business_url":"http:\/\/tarbottoncontractors.co.nz\/","yp_url":"https:\/\/yellow.co.nz\/y\/stuart-tarbotton-tarbottons-road-2?src=name","addrInfo":{"lat":-43.9163706,"lng":171.7120065,"street_number":"163","locality":"Ashburton","administrative_area_level_1":"Canterbury","country_code":"NZ","country":"New Zealand","postal_code":"7700","route":"163 Tarbottons Rd","formatted_address":"163 Tarbottons Rd, Tinwald, Ashburton 7700, New Zealand"}},{"business_url":"http:\/\/www.daytona.co.nz","yp_url":"https:\/\/yellow.co.nz\/y\/daytona-indoor-go?src=name","addrInfo":{"lat":-40.3423281,"lng":175.5953704,"street_number":"23C","locality":"Palmerston North","administrative_area_level_1":"Manawatu-Wanganui","country_code":"NZ","country":"New Zealand","postal_code":"4412","route":"23C Bennett St","formatted_address":"23C Bennett St, Cloverlea, Palmerston North 4412, New Zealand"}},{"business_url":"http:\/\/tarbottoncontractors.co.nz\/","yp_url":"https:\/\/yellow.co.nz\/y\/stuart-r-tarbotton-tinwald?src=name","addrInfo":{"lat":-43.9171936,"lng":171.6882355,"street_number":"203","locality":"Ashburton","administrative_area_level_1":"Canterbury","country_code":"NZ","country":"New Zealand","postal_code":"7778","route":"203 Frasers Rd","formatted_address":"203 Frasers Rd, Tinwald, Ashburton 7778, New Zealand"}}]