[{"business_url":"http:\/\/www.echonorth.co.nz\/","yp_url":"https:\/\/yellow.co.nz\/y\/echonorth?src=name&c=10040","addrInfo":{"lat":-35.7090172,"lng":174.3219922,"street_number":"56","locality":"Whangarei","administrative_area_level_1":"Northland","country_code":"NZ","country":"New Zealand","postal_code":"0112","route":"56 Kamo Rd","formatted_address":"56 Kamo Rd, Kensington, Whangarei 0112, New Zealand"}},{"business_url":"http:\/\/www.radiology.co.nz\/","yp_url":"https:\/\/yellow.co.nz\/y\/mercy-pet-epsom?src=name&c=10040","addrInfo":{"lat":-36.8734782,"lng":174.7697868,"street_number":"100","locality":"Auckland","administrative_area_level_1":"Auckland","country_code":"NZ","country":"New Zealand","postal_code":"1023","route":"100 Mountain Rd","formatted_address":"100 Mountain Rd, Epsom, Auckland 1023, New Zealand"}},{"business_url":"http:\/\/www.radiology.co.nz","yp_url":"https:\/\/yellow.co.nz\/y\/mercy-radiology-northpark?src=name&c=10040","addrInfo":{"lat":-36.9223969,"lng":174.9137004,"street_number":"260","locality":"Auckland","administrative_area_level_1":"Auckland","country_code":"NZ","country":"New Zealand","postal_code":"2013","route":"260 Botany Rd","formatted_address":"260 Botany Rd, Golflands, Auckland 2013, New Zealand"}},{"business_url":"http:\/\/www.aucklandxray.co.nz","yp_url":"https:\/\/yellow.co.nz\/y\/auckland-x-ray?src=name&c=10040","addrInfo":{"lat":-36.8774381,"lng":174.7507881,"street_number":"290","locality":"Auckland","administrative_area_level_1":"Auckland","country_code":"NZ","country":"New Zealand","postal_code":"1024","route":"290 Dominion Rd","formatted_address":"290 Dominion Rd, Mount Eden, Auckland 1024, New Zealand"}},{"business_url":"http:\/\/www.radiology.co.nz","yp_url":"https:\/\/yellow.co.nz\/y\/mercy-hospital-epsom?src=name&c=10040","addrInfo":{"lat":-36.8733367,"lng":174.7699663,"street_number":"98","locality":"Auckland","administrative_area_level_1":"Auckland","country_code":"NZ","country":"New Zealand","postal_code":"1023","route":"98 Mountain Rd","formatted_address":"98 Mountain Rd, Epsom, Auckland 1023, New Zealand"}},{"business_url":"http:\/\/www.radiology.co.nz","yp_url":"https:\/\/yellow.co.nz\/y\/mercy-radiology-takapuna?src=name&c=10040","addrInfo":{"lat":-36.7912102,"lng":174.763653,"street_number":"2","locality":"Auckland","administrative_area_level_1":"Auckland","country_code":"NZ","country":"New Zealand","postal_code":"0622","route":"2 Fred Thomas Dr","formatted_address":"2 Fred Thomas Dr, Takapuna, Auckland 0622, New Zealand"}},{"business_url":"http:\/\/www.eastmedradiology.co.nz","yp_url":"https:\/\/yellow.co.nz\/y\/eastmed-radiology-saint?src=name&c=10040","addrInfo":{"lat":-36.8621229,"lng":174.8588211,"street_number":"188","locality":"Auckland","administrative_area_level_1":"Auckland","country_code":"NZ","country":"New Zealand","postal_code":"1071","route":"188 St Heliers Bay Rd","formatted_address":"188 St Heliers Bay Rd, St Heliers, Auckland 1071, New Zealand"}},{"business_url":"http:\/\/www.radiology.co.nz","yp_url":"https:\/\/yellow.co.nz\/y\/mercy-hospital?src=name&c=10040","addrInfo":{"lat":-36.8733367,"lng":174.7699663,"street_number":"98","locality":"Auckland","administrative_area_level_1":"Auckland","country_code":"NZ","country":"New Zealand","postal_code":"1023","route":"98 Mountain Rd","formatted_address":"98 Mountain Rd, Epsom, Auckland 1023, New Zealand"}},{"business_url":"http:\/\/www.radiology.co.nz","yp_url":"https:\/\/yellow.co.nz\/y\/mercy-radiology-auckland-central?src=name&c=10040","addrInfo":{"lat":-36.8448541,"lng":174.7654108,"street_number":"8","locality":"Auckland","administrative_area_level_1":"Auckland","country_code":"NZ","country":"New Zealand","postal_code":"1010","route":"8 Albert St","formatted_address":"8 Albert St, Auckland, Auckland 1010, New Zealand"}},{"business_url":"http:\/\/www.radiology.co.nz","yp_url":"https:\/\/yellow.co.nz\/y\/mercy-radiology-sunnynook?src=name&c=10040","addrInfo":{"lat":-36.7647583,"lng":174.7198379,"street_number":"7","locality":"Auckland","administrative_area_level_1":"Auckland","country_code":"NZ","country":"New Zealand","postal_code":"0632","route":"7 Sunset Rd","formatted_address":"325\/7 Sunset Rd, Totara Vale, Auckland 0632, New Zealand"}},{"business_url":"http:\/\/www.xrayprofessionals.co.nz","yp_url":"https:\/\/yellow.co.nz\/y\/x-ray-professionals-northcote?src=name&c=10040","addrInfo":{"lat":-36.8021848,"lng":174.7460804,"street_number":"16-18","locality":"Auckland","administrative_area_level_1":"Auckland","country_code":"NZ","country":"New Zealand","postal_code":"0627","route":"16-18 College Rd","formatted_address":"16-18 College Rd, Northcote, Auckland 0627, New Zealand"}}]