[{"business_url":"http:\/\/www.terrysautoservices.co.nz\/","yp_url":"https:\/\/yellow.co.nz\/y\/terrys-auto-services?src=name","addrInfo":{"lat":-35.7561663,"lng":174.3133914,"street_number":"18","locality":"Whangarei","administrative_area_level_1":"Northland","country_code":"NZ","country":"New Zealand","postal_code":"0110","route":"18 Dyer St","formatted_address":"18 Dyer St, Raumanga, Whangarei 0110, New Zealand"}},{"business_url":"http:\/\/www.aedixauto.co.nz","yp_url":"https:\/\/yellow.co.nz\/y\/ae-dix-automotive-specialists?src=name","addrInfo":{"lat":-35.7286849,"lng":174.325242,"street_number":"158","locality":"Whangarei","administrative_area_level_1":"Northland","country_code":"NZ","country":"New Zealand","postal_code":"0110","route":"158 Lower Cameron St","formatted_address":"158 Lower Cameron St, Whangarei, Whangarei 0110, New Zealand"}},{"business_url":"http:\/\/www.autocare.co.nz","yp_url":"https:\/\/yellow.co.nz\/y\/autocare-service-centre-dent?src=name","addrInfo":{"lat":-35.7263835,"lng":174.3274515,"street_number":"116","locality":"Whangarei","administrative_area_level_1":"Northland","country_code":"NZ","country":"New Zealand","postal_code":"0110","route":"116 Lower Dent St","formatted_address":"116 Lower Dent St, Whangarei, Whangarei 0110, New Zealand"}},{"business_url":"http:\/\/www.trevorfrenchradiators.co.nz","yp_url":"https:\/\/yellow.co.nz\/y\/trevor-french-radiators-huia?src=name","addrInfo":{"lat":-36.94253,"lng":174.8364705,"street_number":"40","locality":"Auckland","administrative_area_level_1":"Auckland","country_code":"NZ","country":"New Zealand","postal_code":"1062","route":"40 Huia Rd","formatted_address":"40 Huia Rd, Otahuhu, Auckland 1062, New Zealand"}},{"business_url":"http:\/\/www.luxurysports.co.nz","yp_url":"https:\/\/yellow.co.nz\/y\/luxury-sports?src=name","addrInfo":{"lat":-36.9255353,"lng":174.8026596,"street_number":"266","locality":"Auckland","administrative_area_level_1":"Auckland","country_code":"NZ","country":"New Zealand","postal_code":"1061","route":"266 Neilson St","formatted_address":"266 Neilson St, Onehunga, Auckland 1061, New Zealand"}},{"business_url":"http:\/\/www.garnerholdings.co.nz","yp_url":"https:\/\/yellow.co.nz\/y\/garner-holdings?src=name","addrInfo":{"lat":-39.0648035,"lng":174.0267342,"street_number":"48","locality":"New Plymouth","administrative_area_level_1":"Taranaki","country_code":"NZ","country":"New Zealand","postal_code":"4310","route":"48 Paritutu Rd","formatted_address":"48 Paritutu Rd, Spotswood, New Plymouth 4310, New Zealand"}},{"business_url":"http:\/\/www.taurangaautorepairs.co.nz","yp_url":"https:\/\/yellow.co.nz\/y\/superior-automotive-services-ngatai?src=name","addrInfo":{"lat":-37.6677938,"lng":176.1544054,"street_number":"89","locality":"Tauranga","administrative_area_level_1":"Bay Of Plenty","country_code":"NZ","country":"New Zealand","postal_code":"3110","route":"89 Ngatai Rd","formatted_address":"89 Ngatai Rd, Otumoetai, Tauranga 3110, New Zealand"}},{"business_url":"http:\/\/www.hamiltonautomotive.co.nz","yp_url":"https:\/\/yellow.co.nz\/y\/hamilton-automotive-repairs?src=name","addrInfo":{"lat":-37.7945437,"lng":175.26183,"street_number":"82","locality":"Hamilton","administrative_area_level_1":"Waikato","country_code":"NZ","country":"New Zealand","postal_code":"3204","route":"82 Killarney Rd","formatted_address":"82 Killarney Rd, Frankton, Hamilton 3204, New Zealand"}},{"business_url":"http:\/\/www.japanesespares.co.nz","yp_url":"https:\/\/yellow.co.nz\/y\/japanese-spares-gordon-road?src=name","addrInfo":{"lat":-36.9416458,"lng":174.8425959,"street_number":"3","locality":"Auckland","administrative_area_level_1":"Auckland","country_code":"NZ","country":"New Zealand","postal_code":"1062","route":"3 Gordon Rd","formatted_address":"3\/3 Gordon Rd, Otahuhu, Auckland 1062, New Zealand"}},{"business_url":"http:\/\/www.hornbyradiatorshop.co.nz","yp_url":"https:\/\/yellow.co.nz\/y\/hornby-radiator-hornby?src=name","addrInfo":{"lat":-43.540523,"lng":172.5261414,"street_number":"8","locality":"Christchurch","administrative_area_level_1":"Canterbury","country_code":"NZ","country":"New Zealand","postal_code":"8042","route":"8 Smarts Rd","formatted_address":"8 Smarts Rd, Hornby, Christchurch 8042, New Zealand"}},{"business_url":"http:\/\/www.irelandmotorsgis.co.nz","yp_url":"https:\/\/yellow.co.nz\/y\/ireland-motors?src=name","addrInfo":{"lat":-38.6617509,"lng":178.0217898,"street_number":"79","locality":"Gisborne","administrative_area_level_1":"Gisborne","country_code":"NZ","country":"New Zealand","postal_code":"4010","route":"79 Cobden St","formatted_address":"79 Cobden St, Gisborne, Gisborne 4010, New Zealand"}},{"business_url":"http:\/\/www.capitalradiators.co.nz","yp_url":"https:\/\/yellow.co.nz\/y\/capital-radiators-douglas-street-3?src=name","addrInfo":{"lat":-41.3018703,"lng":174.7786289,"street_number":"12","locality":"Wellington","administrative_area_level_1":"Wellington","country_code":"NZ","country":"New Zealand","postal_code":"6021","route":"12 Douglas St","formatted_address":"12 Douglas St, Mount Cook, Wellington 6021, New Zealand"}},{"business_url":"http:\/\/www.millisautoengineering.co.nz","yp_url":"https:\/\/yellow.co.nz\/y\/millis-auto-alexandra?src=name","addrInfo":{"lat":-45.249174,"lng":169.3708088,"street_number":"58","locality":"Alexandra","administrative_area_level_1":"Otago","country_code":"NZ","country":"New Zealand","postal_code":"9320","route":"58 Boundary Rd","formatted_address":"58 Boundary Rd, Alexandra 9320, New Zealand"}},{"business_url":"http:\/\/www.townrowandsanko.co.nz","yp_url":"https:\/\/yellow.co.nz\/y\/townrow-and-sanko?src=name","addrInfo":{"lat":-39.6381179,"lng":176.8404778,"street_number":"406","locality":"Hastings","administrative_area_level_1":"Hawke's Bay","country_code":"NZ","country":"New Zealand","postal_code":"4122","route":"406 Queen St W","formatted_address":"406 Queen St W, Hastings, Hastings 4122, New Zealand"}},{"business_url":"http:\/\/www.a1automotivecooling.co.nz","yp_url":"https:\/\/yellow.co.nz\/y\/a1-automotive-cooling-christchurch?src=name","addrInfo":{"lat":-43.5366531,"lng":172.6469861,"street_number":"320","locality":"Christchurch","administrative_area_level_1":"Canterbury","country_code":"NZ","country":"New Zealand","postal_code":"8011","route":"320 St Asaph St","formatted_address":"318\/320 St Asaph St, Christchurch Central, Christchurch 8011, New Zealand"}},{"business_url":"http:\/\/www.automotiveonestop.co.nz","yp_url":"https:\/\/yellow.co.nz\/y\/aa-auto-bryant-street?src=name","addrInfo":{"lat":-40.3601524,"lng":175.5999388,"street_number":"79","locality":"Palmerston North","administrative_area_level_1":"Manawatu-Wanganui","country_code":"NZ","country":"New Zealand","postal_code":"4412","route":"79 Bryant St","formatted_address":"79 Bryant St, Takaro, Palmerston North 4412, New Zealand"}}]