[{"business_url":"http:\/\/www.debbieoliverrealty.co.nz","yp_url":"https:\/\/yellow.co.nz\/y\/debbie-oliver-realty?src=name","addrInfo":{"lat":-35.7306339,"lng":174.3428954,"street_number":"26","locality":"Whangarei","administrative_area_level_1":"Northland","country_code":"NZ","country":"New Zealand","postal_code":"0112","route":"26 Tanekaha Dr","formatted_address":"26 Tanekaha Dr, Parahaki, Whangarei 0112, New Zealand"}},{"business_url":"http:\/\/www.mikeperoorewa.co.nz\/","yp_url":"https:\/\/yellow.co.nz\/y\/mike-pero-orewa?src=name","addrInfo":{"lat":-36.5866953,"lng":174.6949487,"street_number":"8","locality":"Orewa","administrative_area_level_1":"Auckland","country_code":"NZ","country":"New Zealand","postal_code":"0931","route":"8 Moana Ave","formatted_address":"8 Moana Ave, Orewa 0931, New Zealand"}},{"business_url":"http:\/\/www.astuterealestate.co.nz","yp_url":"https:\/\/yellow.co.nz\/y\/astute-real-estate?src=name","addrInfo":{"lat":-36.7416578,"lng":174.7022199,"street_number":"331","locality":"Auckland","administrative_area_level_1":"Auckland","country_code":"NZ","country":"New Zealand","postal_code":"0632","route":"331 Rosedale Rd","formatted_address":"6\/331 Rosedale Rd, Albany, Auckland 0632, New Zealand"}},{"business_url":"http:\/\/rwtepuke.co.nz\/","yp_url":"https:\/\/yellow.co.nz\/y\/ray-white-te?src=name","addrInfo":{"lat":-37.7826578,"lng":176.3211447,"street_number":"175","locality":"Te Puke","administrative_area_level_1":"Bay Of Plenty","country_code":"NZ","country":"New Zealand","postal_code":"3119","route":"175 Jellicoe St","formatted_address":"175 Jellicoe St, Te Puke 3119, New Zealand"}},{"business_url":"http:\/\/www.cbre.co.nz","yp_url":"https:\/\/yellow.co.nz\/y\/cbre?src=name","addrInfo":{"lat":-36.8441397,"lng":174.7665449,"street_number":"21","locality":"Auckland","administrative_area_level_1":"Auckland","country_code":"NZ","country":"New Zealand","postal_code":"1010","route":"21 Queen St","formatted_address":"Zurich House 21 Queen St, Auckland, Auckland 1010, New Zealand"}},{"business_url":"http:\/\/www.nathanbuxton.raywhite.co.nz","yp_url":"https:\/\/yellow.co.nz\/y\/nathan-buxton-swanson?src=name","addrInfo":{"lat":-36.8661268,"lng":174.5861777,"street_number":"2","locality":"Auckland","administrative_area_level_1":"Auckland","country_code":"NZ","country":"New Zealand","postal_code":"0612","route":"2 O'Neills Rd","formatted_address":"2 O'Neills Rd, Swanson, Auckland 0612, New Zealand"}},{"business_url":"http:\/\/www.berryman.co.nz","yp_url":"https:\/\/yellow.co.nz\/y\/berryman-real-estate?src=name","addrInfo":{"lat":-36.9072146,"lng":174.6833887,"street_number":"3049","locality":"Auckland","administrative_area_level_1":"Auckland","country_code":"NZ","country":"New Zealand","postal_code":"0600","route":"3049 Great North Rd","formatted_address":"3049 Great North Rd, New Lynn, Auckland 0600, New Zealand"}},{"business_url":"http:\/\/www.bayleys.co.nz","yp_url":"https:\/\/yellow.co.nz\/y\/bayleys-real-auckland-central?src=name","addrInfo":{"lat":-36.8450739,"lng":174.7596864,"street_number":"4","locality":"Auckland","administrative_area_level_1":"Auckland","country_code":"NZ","country":"New Zealand","postal_code":"1010","route":"4 Viaduct Harbour Ave","formatted_address":"4 Viaduct Harbour Ave, Auckland, Auckland 1010, New Zealand"}},{"business_url":"http:\/\/www.ironbridge.co.nz","yp_url":"https:\/\/yellow.co.nz\/y\/iron-bridge-property-auburn?src=name","addrInfo":{"lat":-36.7895916,"lng":174.7690309,"street_number":"2","locality":"Auckland","administrative_area_level_1":"Auckland","country_code":"NZ","country":"New Zealand","postal_code":"0622","route":"2 Auburn St","formatted_address":"2 Auburn St, Takapuna, Auckland 0622, New Zealand"}},{"business_url":"http:\/\/www.lugtons.co.nz","yp_url":"https:\/\/yellow.co.nz\/y\/lugtons?src=name","addrInfo":{"lat":-37.7788779,"lng":175.275709,"street_number":"1010","locality":"Hamilton","administrative_area_level_1":"Waikato","country_code":"NZ","country":"New Zealand","postal_code":"3200","route":"1010 Victoria St","formatted_address":"1010 Victoria St, Whitiora, Hamilton 3200, New Zealand"}},{"business_url":"http:\/\/www.matthewsmith.co.nz","yp_url":"https:\/\/yellow.co.nz\/y\/ray-white-waiheke?src=name","addrInfo":{"lat":-36.7822279,"lng":175.0097378,"street_number":"147","locality":"Auckland","administrative_area_level_1":"Auckland","country_code":"NZ","country":"New Zealand","postal_code":"1081","route":"147 Oceanview Rd","formatted_address":"147 Oceanview Rd, Oneroa, Auckland 1081, New Zealand"}},{"business_url":"http:\/\/www.linkbusiness.co.nz","yp_url":"https:\/\/yellow.co.nz\/y\/link-business-broking-bay-of-plenty-waikato?src=name","addrInfo":{"lat":-37.69143,"lng":176.1662176,"street_number":"26","locality":"Tauranga","administrative_area_level_1":"Bay Of Plenty","country_code":"NZ","country":"New Zealand","postal_code":"3110","route":"26 Fourth Ave","formatted_address":"26 Fourth Ave, Tauranga, Tauranga 3110, New Zealand"}},{"business_url":"http:\/\/www.businesses4sale.co.nz","yp_url":"https:\/\/yellow.co.nz\/y\/business-brokers-nz-tauranga?src=name","addrInfo":{"lat":-37.6842596,"lng":176.1656308,"street_number":"147","locality":"Tauranga","administrative_area_level_1":"Bay Of Plenty","country_code":"NZ","country":"New Zealand","postal_code":"3110","route":"147 Cameron Rd","formatted_address":"147 Cameron Rd, Tauranga, Tauranga 3110, New Zealand"}},{"business_url":"http:\/\/www.clythbiz.co.nz","yp_url":"https:\/\/yellow.co.nz\/y\/clyth-macleod?src=name","addrInfo":{"lat":-36.8938972,"lng":174.7745777,"street_number":"460","locality":"Auckland","administrative_area_level_1":"Auckland","country_code":"NZ","country":"New Zealand","postal_code":"1023","route":"460 Manukau Rd","formatted_address":"460 Manukau Rd, Epsom, Auckland 1023, New Zealand"}},{"business_url":"http:\/\/www.tabak.co.nz","yp_url":"https:\/\/yellow.co.nz\/y\/tabak-business-sales-tauranga?src=name","addrInfo":{"lat":-37.6842596,"lng":176.1656308,"street_number":"147","locality":"Tauranga","administrative_area_level_1":"Bay Of Plenty","country_code":"NZ","country":"New Zealand","postal_code":"3110","route":"147 Cameron Rd","formatted_address":"147 Cameron Rd, Tauranga, Tauranga 3110, New Zealand"}},{"business_url":"http:\/\/www.bizbrokers.co.nz","yp_url":"https:\/\/yellow.co.nz\/y\/investor-business-brokers-newmarket?src=name","addrInfo":{"lat":-36.867545,"lng":174.7736993,"street_number":"7","locality":"Auckland","administrative_area_level_1":"Auckland","country_code":"NZ","country":"New Zealand","postal_code":"1023","route":"7 McColl St","formatted_address":"7 McColl St, Newmarket, Auckland 1023, New Zealand"}},{"business_url":"http:\/\/www.businessbrokers.co.nz","yp_url":"https:\/\/yellow.co.nz\/y\/christopher-brown-associates-cba?src=name","addrInfo":{"lat":-36.8452539,"lng":174.7645996,"street_number":"17","locality":"Auckland","administrative_area_level_1":"Auckland","country_code":"NZ","country":"New Zealand","postal_code":"1010","route":"17 Albert St","formatted_address":"9\/17 Albert St, Auckland, Auckland 1010, New Zealand"}},{"business_url":"http:\/\/mikepero.com\/Shona-Munro","yp_url":"https:\/\/yellow.co.nz\/y\/mike-pero-real-estate-browns?src=name","addrInfo":{"lat":-36.7164882,"lng":174.7467626,"street_number":"25","locality":"Auckland","administrative_area_level_1":"Auckland","country_code":"NZ","country":"New Zealand","postal_code":"0630","route":"25 Anzac Rd","formatted_address":"25 Anzac Rd, Browns Bay, Auckland 0630, New Zealand"}},{"business_url":"http:\/\/www.rented.org.nz","yp_url":"https:\/\/yellow.co.nz\/y\/rentedorgnz?src=name","addrInfo":{"lat":-39.0556419,"lng":174.080686,"street_number":"211","locality":"New Plymouth","administrative_area_level_1":"Taranaki","country_code":"NZ","country":"New Zealand","postal_code":"4310","route":"211 Devon St E","formatted_address":"211 Devon St E, New Plymouth 4310, New Zealand"}},{"business_url":"http:\/\/www.paylessfees.co.nz","yp_url":"https:\/\/yellow.co.nz\/y\/pay-less-fees?src=name","addrInfo":{"lat":-36.8455507,"lng":174.7697549,"street_number":"99","locality":"Auckland","administrative_area_level_1":"Auckland","country_code":"NZ","country":"New Zealand","postal_code":"1010","route":"99 Customs St E","formatted_address":"99 Customs St E, Auckland, Auckland 1010, New Zealand"}}]