[{"business_url":"http:\/\/www.naturalreflexology.co.nz","yp_url":"https:\/\/yellow.co.nz\/y\/reflexology-womens-health?src=name&c=10041","addrInfo":{"lat":-36.8465705,"lng":174.7416422,"street_number":"5","locality":"Auckland","administrative_area_level_1":"Auckland","country_code":"NZ","country":"New Zealand","postal_code":"1011","route":"5 Blake St","formatted_address":"5 Blake St, Ponsonby, Auckland 1011, New Zealand"}},{"business_url":"http:\/\/jrreflexology.co.nz","yp_url":"https:\/\/yellow.co.nz\/y\/squire-gibbons-jonas?src=name&c=10041","addrInfo":{"lat":-36.7956173,"lng":174.7237545,"street_number":"221","locality":"Auckland","administrative_area_level_1":"Auckland","country_code":"NZ","country":"New Zealand","postal_code":"0627","route":"221 Glenfield Rd","formatted_address":"221 Glenfield Rd, Hillcrest, Auckland 0627, New Zealand"}},{"business_url":"http:\/\/www.reflexforhealth.co.nz","yp_url":"https:\/\/yellow.co.nz\/y\/reflex-for-health-birkenhead?src=name&c=10041","addrInfo":{"lat":-36.8009932,"lng":174.7187418,"street_number":"15","locality":"Auckland","administrative_area_level_1":"Auckland","country_code":"NZ","country":"New Zealand","postal_code":"0626","route":"15 Ridgewood Cres","formatted_address":"15 Ridgewood Cres, Birkenhead, Auckland 0626, New Zealand"}},{"business_url":"http:\/\/www.reflexology.org.nz","yp_url":"https:\/\/yellow.co.nz\/y\/rnz-reflexology-new?src=name&c=10041","addrInfo":{"lat":-37.9723943,"lng":177.0630053,"street_number":"283","locality":"Ohope","administrative_area_level_1":"Bay Of Plenty","country_code":"NZ","country":"New Zealand","postal_code":"3121","route":"283 Pohutukawa Ave","formatted_address":"283 Pohutukawa Ave, Ohope 3121, New Zealand"}},{"business_url":"http:\/\/www.holisticatheart.co.nz","yp_url":"https:\/\/yellow.co.nz\/y\/carey-tanya-reflexology?src=name&c=10041","addrInfo":{"lat":-36.8294518,"lng":174.795785,"street_number":"32","locality":"Auckland","administrative_area_level_1":"Auckland","country_code":"NZ","country":"New Zealand","postal_code":"0624","route":"32 Clarence St","formatted_address":"32 Clarence St, Devonport, Auckland 0624, New Zealand"}},{"business_url":"http:\/\/www.reflexologytraining.co.nz","yp_url":"https:\/\/yellow.co.nz\/y\/holistic-reflexology-training?src=name&c=10041","addrInfo":{"lat":-43.5769769,"lng":172.7648115,"street_number":"66","locality":"Christchurch","administrative_area_level_1":"Canterbury","country_code":"NZ","country":"New Zealand","postal_code":"8081","route":"66 Colenso St","formatted_address":"66 Colenso St, Sumner, Christchurch 8081, New Zealand"}},{"business_url":"http:\/\/www.natpages.co.nz\/therapist\/402","yp_url":"https:\/\/yellow.co.nz\/y\/maria-white-reflexologist?src=name&c=10041","addrInfo":{"lat":-43.4746876,"lng":172.5963952,"street_number":"87","locality":"Christchurch","administrative_area_level_1":"Canterbury","country_code":"NZ","country":"New Zealand","postal_code":"8051","route":"87 Claridges Rd","formatted_address":"87 Claridges Rd, Casebrook, Christchurch 8051, New Zealand"}}]