[{"business_url":"http:\/\/www.whangareibus.co.nz","yp_url":"https:\/\/yellow.co.nz\/y\/whangarei-bus-services?src=name","addrInfo":{"lat":-35.7541907,"lng":174.3160217,"street_number":"18","locality":"Whangarei","administrative_area_level_1":"Northland","country_code":"NZ","country":"New Zealand","postal_code":"0110","route":"18 Te Waiiti Pl","formatted_address":"18 Te Waiiti Pl, Raumanga, Whangarei 0110, New Zealand"}},{"business_url":"http:\/\/www.russellrentatruck.com","yp_url":"https:\/\/yellow.co.nz\/y\/russell-rent-a?src=name","addrInfo":{"lat":-39.015865,"lng":174.175359,"street_number":"147","locality":"New Plymouth","administrative_area_level_1":"Taranaki","country_code":"NZ","country":"New Zealand","postal_code":"4373","route":"147 Airport Dr","formatted_address":"147 Airport Dr, New Plymouth Airport, New Plymouth 4373, New Zealand"}},{"business_url":"http:\/\/www.airportshuttles2006.co.nz","yp_url":"https:\/\/yellow.co.nz\/y\/airport-shuttles-tours?src=name","addrInfo":{"lat":-36.7306344,"lng":174.7515527,"street_number":"492","locality":"Auckland","administrative_area_level_1":"Auckland","country_code":"NZ","country":"New Zealand","postal_code":"0630","route":"492 Beach Rd","formatted_address":"492 Beach Rd, Murrays Bay, Auckland 0630, New Zealand"}},{"business_url":"http:\/\/www.apnoutdoor.co.nz\/","yp_url":"https:\/\/yellow.co.nz\/y\/apn-outdoor-parnell?src=name","addrInfo":{"lat":-36.8508787,"lng":174.7825545,"street_number":"117","locality":"Auckland","administrative_area_level_1":"Auckland","country_code":"NZ","country":"New Zealand","postal_code":"1052","route":"117 St Georges Bay Rd","formatted_address":"117 St Georges Bay Rd, Parnell, Auckland 1052, New Zealand"}},{"business_url":"http:\/\/www.metrolinkbus.co.nz","yp_url":"https:\/\/yellow.co.nz\/y\/metrolink-gaunt-street?src=name","addrInfo":{"lat":-36.9258633,"lng":174.7911114,"street_number":"140","locality":"Auckland","administrative_area_level_1":"Auckland","country_code":"NZ","country":"New Zealand","postal_code":"1061","route":"140 Neilson St","formatted_address":"140 Neilson St, Onehunga, Auckland 1061, New Zealand"}},{"business_url":"http:\/\/www.americanlimos.co.nz","yp_url":"https:\/\/yellow.co.nz\/y\/american-limousines?src=name","addrInfo":{"lat":-36.9449376,"lng":174.8343925,"street_number":"44A","locality":"Auckland","administrative_area_level_1":"Auckland","country_code":"NZ","country":"New Zealand","postal_code":"1062","route":"44A Saleyards Rd","formatted_address":"44A Saleyards Rd, Otahuhu, Auckland 1062, New Zealand"}},{"business_url":"http:\/\/www.greatlaketaxis.co.nz","yp_url":"https:\/\/yellow.co.nz\/y\/great-lake-taxis?src=name","addrInfo":{"lat":-38.6852385,"lng":176.0726808,"street_number":"126","locality":"Taupo","administrative_area_level_1":"Waikato","country_code":"NZ","country":"New Zealand","postal_code":"3330","route":"126 Ruapehu St","formatted_address":"126 Ruapehu St, Taupo 3330, New Zealand"}},{"business_url":"http:\/\/www.withers.co.nz","yp_url":"https:\/\/yellow.co.nz\/y\/wirs-coachlines-omata?src=name","addrInfo":{"lat":-39.0923872,"lng":174.0203324,"street_number":"414","locality":"Omata","administrative_area_level_1":"Taranaki","country_code":"NZ","country":"New Zealand","postal_code":"4374","route":"414 South Rd","formatted_address":"414 South Rd, Omata 4374, New Zealand"}},{"business_url":"http:\/\/www.surfshuttle.co.nz","yp_url":"https:\/\/yellow.co.nz\/y\/airport-shuttle-west?src=name","addrInfo":{"lat":-36.9298262,"lng":174.7236479,"street_number":"27","locality":"Auckland","administrative_area_level_1":"Auckland","country_code":"NZ","country":"New Zealand","postal_code":"1042","route":"27 Caronia Cres","formatted_address":"27 Caronia Cres, Lynfield, Auckland 1042, New Zealand"}},{"business_url":"http:\/\/www.auckland-airport.co.nz","yp_url":"https:\/\/yellow.co.nz\/y\/auckland-airport?src=name","addrInfo":{"lat":-36.9859009,"lng":174.7892806,"street_number":"46","locality":"Auckland","administrative_area_level_1":"Auckland","country_code":"NZ","country":"New Zealand","postal_code":"2022","route":"46 Verissimo Dr","formatted_address":"Auckland Airport 46 Verissimo Dr, Mangere, Auckland 2022, New Zealand"}},{"business_url":"http:\/\/www.metrolinkbus.co.nz","yp_url":"https:\/\/yellow.co.nz\/y\/metrolink?src=name","addrInfo":{"lat":-36.8448656,"lng":174.7567731,"street_number":"1","locality":"Auckland","administrative_area_level_1":"Auckland","country_code":"NZ","country":"New Zealand","postal_code":"1010","route":"1 Gaunt St","formatted_address":"1 Gaunt St, Auckland, Auckland 1010, New Zealand"}}]