[{"business_url":"http:\/\/www.cvsuccess.co.nz","yp_url":"https:\/\/yellow.co.nz\/y\/cv-success-onerahi?src=name","addrInfo":{"lat":-35.7519626,"lng":174.3680634,"street_number":"142","locality":"Whangarei","administrative_area_level_1":"Northland","country_code":"NZ","country":"New Zealand","postal_code":"0110","route":"142 Onerahi Rd","formatted_address":"142 Onerahi Rd, Onerahi, Whangarei 0110, New Zealand"}},{"business_url":"http:\/\/www.successfulresumes.co.nz","yp_url":"https:\/\/yellow.co.nz\/y\/successful-resumes-new?src=name","addrInfo":{"lat":-36.8571962,"lng":174.84095,"street_number":"49","locality":"Auckland","administrative_area_level_1":"Auckland","country_code":"NZ","country":"New Zealand","postal_code":"1071","route":"49 Hawera Rd","formatted_address":"49 Hawera Rd, Kohimarama, Auckland 1071, New Zealand"}},{"business_url":"http:\/\/www.techtorium.co.nz","yp_url":"https:\/\/yellow.co.nz\/y\/techtorium-nziit?src=name","addrInfo":{"lat":-36.8684458,"lng":174.7783158,"street_number":"182","locality":"Auckland","administrative_area_level_1":"Auckland","country_code":"NZ","country":"New Zealand","postal_code":"1023","route":"182 Broadway","formatted_address":"182 Broadway, Newmarket, Auckland 1023, New Zealand"}},{"business_url":"http:\/\/www.servcorp.co.nz","yp_url":"https:\/\/yellow.co.nz\/y\/servcorp-virtual-office-quay?src=name","addrInfo":{"lat":-36.8433112,"lng":174.7652305,"street_number":"188","locality":"Auckland","administrative_area_level_1":"Auckland","country_code":"NZ","country":"New Zealand","postal_code":"1010","route":"188 Quay St","formatted_address":"PwC Tower 188 Quay St, Auckland, Auckland 1010, New Zealand"}},{"business_url":"http:\/\/www.careerteam.co.nz","yp_url":"https:\/\/yellow.co.nz\/y\/career-team?src=name","addrInfo":{"lat":-36.7928846,"lng":174.7755643,"street_number":"388","locality":"Auckland","administrative_area_level_1":"Auckland","country_code":"NZ","country":"New Zealand","postal_code":"0622","route":"388 Lake Rd","formatted_address":"388 Lake Rd, Takapuna, Auckland 0622, New Zealand"}},{"business_url":"http:\/\/www.quinnstaff.co.nz\/","yp_url":"https:\/\/yellow.co.nz\/y\/quinn-recruitment?src=name","addrInfo":{"lat":-36.8482922,"lng":174.7653296,"street_number":"187","locality":"Auckland","administrative_area_level_1":"Auckland","country_code":"NZ","country":"New Zealand","postal_code":"1010","route":"187 Queen St","formatted_address":"7\/187 Queen St, Auckland, Auckland 1010, New Zealand"}},{"business_url":"http:\/\/www.jpc-nz.com\/","yp_url":"https:\/\/yellow.co.nz\/y\/job-placement-consultants?src=name","addrInfo":{"lat":-36.8989702,"lng":174.825119,"street_number":"7","locality":"Auckland","administrative_area_level_1":"Auckland","country_code":"NZ","country":"New Zealand","postal_code":"1060","route":"7 Harrison Rd","formatted_address":"7 Harrison Rd, Mount Wellington, Auckland 1060, New Zealand"}}]