[{"business_url":"http:\/\/www.whangaroahealth.co.nz","yp_url":"https:\/\/yellow.co.nz\/y\/kauri-lodge?src=name&c=1401","addrInfo":{"lat":-35.1093614,"lng":173.7645352,"street_number":"180","locality":"Kaeo","administrative_area_level_1":"Northland","country_code":"NZ","country":"New Zealand","postal_code":"0479","route":"180 Omaunu Rd","formatted_address":"180 Omaunu Rd, Kaeo 0479, New Zealand"}},{"business_url":"http:\/\/www.kamohome.co.nz","yp_url":"https:\/\/yellow.co.nz\/y\/kamo-home-village?src=name&c=1401","addrInfo":{"lat":-35.6814552,"lng":174.2949876,"street_number":"31","locality":"Whangarei","administrative_area_level_1":"Northland","country_code":"NZ","country":"New Zealand","postal_code":"0112","route":"31 Ford Ave","formatted_address":"31 Ford Ave, Kamo, Whangarei 0112, New Zealand"}},{"business_url":"http:\/\/pcrh.co.nz\/","yp_url":"https:\/\/yellow.co.nz\/y\/puriri-court-rest?src=name&c=1401","addrInfo":{"lat":-35.6950133,"lng":174.3123315,"street_number":"204","locality":"Whangarei","administrative_area_level_1":"Northland","country_code":"NZ","country":"New Zealand","postal_code":"0112","route":"204 Kamo Rd","formatted_address":"202\/204 Kamo Rd, Whau Valley, Whangarei 0112, New Zealand"}},{"business_url":"http:\/\/www.fallsestate.co.nz","yp_url":"https:\/\/yellow.co.nz\/y\/falls-lifestyle-estate?src=name&c=1407","addrInfo":{"lat":-35.6867642,"lng":174.3343385,"street_number":"94","locality":"Whangarei","administrative_area_level_1":"Northland","country_code":"NZ","country":"New Zealand","postal_code":"0112","route":"94 Boundary Rd","formatted_address":"94 Boundary Rd, Tikipunga, Whangarei 0112, New Zealand"}},{"business_url":"http:\/\/www.rymanhealthcare.co.nz","yp_url":"https:\/\/yellow.co.nz\/y\/jane-mander-retirement?src=name&c=1401","addrInfo":{"lat":-35.689604,"lng":174.2940751,"street_number":"262","locality":"Whangarei","administrative_area_level_1":"Northland","country_code":"NZ","country":"New Zealand","postal_code":"0112","route":"262 Fairway Dr","formatted_address":"262 Fairway Dr, Kamo, Whangarei 0112, New Zealand"}},{"business_url":"http:\/\/www.metlifecare.co.nz","yp_url":"https:\/\/yellow.co.nz\/y\/oakridge-villas-metlifecare-retirement?src=name&c=1407","addrInfo":{"lat":-35.2318561,"lng":173.9503978,"street_number":"30","locality":"Kerikeri","administrative_area_level_1":"Northland","country_code":"NZ","country":"New Zealand","postal_code":"0230","route":"30 Oakridge Dr","formatted_address":"30 Oakridge Dr, Kerikeri 0230, New Zealand"}},{"business_url":"http:\/\/www.the-palms.net.nz","yp_url":"https:\/\/yellow.co.nz\/y\/palms-lifestyle-village-tikipunga?src=name&c=1407","addrInfo":{"lat":-35.6809123,"lng":174.3292352,"street_number":"45","locality":"Whangarei","administrative_area_level_1":"Northland","country_code":"NZ","country":"New Zealand","postal_code":"0112","route":"45 Reed St","formatted_address":"79\/45 Reed St, Tikipunga, Whangarei 0112, New Zealand"}},{"business_url":"http:\/\/www.selwyncare.org.nz","yp_url":"https:\/\/yellow.co.nz\/y\/selwyn-park-village?src=name&c=1401","addrInfo":{"lat":-35.7391334,"lng":174.2850921,"street_number":"15","locality":"Whangarei","administrative_area_level_1":"Northland","country_code":"NZ","country":"New Zealand","postal_code":"0110","route":"15 Puriri Park Rd","formatted_address":"15 Puriri Park Rd, Maunu, Whangarei 0110, New Zealand"}},{"business_url":"http:\/\/www.shalomagedcare.co.nz","yp_url":"https:\/\/yellow.co.nz\/y\/shalom-aged-care?src=name&c=1401","addrInfo":{"lat":-35.7097999,"lng":174.3250643,"street_number":"62","locality":"Whangarei","administrative_area_level_1":"Northland","country_code":"NZ","country":"New Zealand","postal_code":"0112","route":"62 Mill Rd","formatted_address":"62 Mill Rd, Kensington, Whangarei 0112, New Zealand"}},{"business_url":"http:\/\/www.whangaroahealth.co.nz","yp_url":"https:\/\/yellow.co.nz\/y\/whangaroa-health-service?src=name&c=1401","addrInfo":{"lat":-35.1093614,"lng":173.7645352,"street_number":"180","locality":"Kaeo","administrative_area_level_1":"Northland","country_code":"NZ","country":"New Zealand","postal_code":"0479","route":"180 Omaunu Rd","formatted_address":"180 Omaunu Rd, Kaeo 0479, New Zealand"}},{"business_url":"http:\/\/www.radiusresidential.co.nz","yp_url":"https:\/\/yellow.co.nz\/y\/radius-rimu-park-whau?src=name&c=1401","addrInfo":{"lat":-35.6940663,"lng":174.311135,"street_number":"297","locality":"Whangarei","administrative_area_level_1":"Northland","country_code":"NZ","country":"New Zealand","postal_code":"0112","route":"297 Kamo Rd","formatted_address":"297 Kamo Rd, Whau Valley, Whangarei 0112, New Zealand"}},{"business_url":"http:\/\/www.ultimatecare.co.nz","yp_url":"https:\/\/yellow.co.nz\/y\/ranburn-lifecare?src=name&c=1401","addrInfo":{"lat":-35.9841126,"lng":174.447226,"street_number":"7","locality":"Waipu","administrative_area_level_1":"Northland","country_code":"NZ","country":"New Zealand","postal_code":"0510","route":"7 Nova Scotia Dr","formatted_address":"7 Nova Scotia Dr, Waipu 0510, New Zealand"}},{"business_url":"http:\/\/www.radiusresidential.co.nz","yp_url":"https:\/\/yellow.co.nz\/y\/radius-potter-home?src=name&c=1401","addrInfo":{"lat":-35.7178776,"lng":174.3225992,"street_number":"174","locality":"Whangarei","administrative_area_level_1":"Northland","country_code":"NZ","country":"New Zealand","postal_code":"0112","route":"174 Bank St","formatted_address":"174 Bank St, Regent, Whangarei 0112, New Zealand"}}]