[{"business_url":"http:\/\/www.northcotetigers.sportingpulse.net","yp_url":"https:\/\/yellow.co.nz\/y\/northcote-birkenhead-tigers?src=name","addrInfo":{"lat":-36.8117372,"lng":174.7259515,"street_number":"12-14","locality":"Auckland","administrative_area_level_1":"Auckland","country_code":"NZ","country":"New Zealand","postal_code":"0626","route":"12-14 Birkenhead Ave","formatted_address":"12-14 Birkenhead Ave, Birkenhead, Auckland 0626, New Zealand"}},{"business_url":"http:\/\/www.nzrl.co.nz","yp_url":"https:\/\/yellow.co.nz\/y\/new-zealand-rugby-league-inc?src=name","addrInfo":{"lat":-36.9189623,"lng":174.8145275,"street_number":"7","locality":"Auckland","administrative_area_level_1":"Auckland","country_code":"NZ","country":"New Zealand","postal_code":"1061","route":"7 Beasley Ave","formatted_address":"7 Beasley Ave, Penrose, Auckland 1061, New Zealand"}},{"business_url":"http:\/\/www.sportek.co.nz","yp_url":"https:\/\/yellow.co.nz\/y\/sportek-pakuranga?src=name","addrInfo":{"lat":-36.9248033,"lng":174.8749383,"street_number":"82","locality":"Auckland","administrative_area_level_1":"Auckland","country_code":"NZ","country":"New Zealand","postal_code":"2010","route":"82 Edgewater Dr","formatted_address":"82 Edgewater Dr, Pakuranga, Auckland 2010, New Zealand"}},{"business_url":"http:\/\/www.southlandrugbyleague.co.nz","yp_url":"https:\/\/yellow.co.nz\/y\/southland-district-rugby-appleby?src=name","addrInfo":{"lat":-46.4208477,"lng":168.3603657,"street_number":"136","locality":"Invercargill","administrative_area_level_1":"Southland","country_code":"NZ","country":"New Zealand","postal_code":"9812","route":"136 Ness St","formatted_address":"136 Ness St, Appleby, Invercargill 9812, New Zealand"}},{"business_url":"http:\/\/www.canterburyleague.co.nz","yp_url":"https:\/\/yellow.co.nz\/y\/canterbury-rugby-league?src=name","addrInfo":{"lat":-43.5362212,"lng":172.5549784,"street_number":"8","locality":"Christchurch","administrative_area_level_1":"Canterbury","country_code":"NZ","country":"New Zealand","postal_code":"8042","route":"8 Takaro Ave","formatted_address":"8 Takaro Ave, Sockburn, Christchurch 8042, New Zealand"}}]