[{"business_url":"http:\/\/www.gasc.co.nz","yp_url":"https:\/\/yellow.co.nz\/y\/goodyear-auto-service-kerikeri?src=name","addrInfo":{"lat":-35.2292186,"lng":173.950476,"street_number":"57","locality":"Kerikeri","administrative_area_level_1":"Northland","country_code":"NZ","country":"New Zealand","postal_code":"0230","route":"57 Hobson Ave","formatted_address":"57 Hobson Ave, Kerikeri 0230, New Zealand"}},{"business_url":"http:\/\/www.northcitycaravans.co.nz","yp_url":"https:\/\/yellow.co.nz\/y\/northcity-caravans-piano?src=name","addrInfo":{"lat":-35.7293549,"lng":174.3409284,"street_number":"1","locality":"Whangarei","administrative_area_level_1":"Northland","country_code":"NZ","country":"New Zealand","postal_code":"0112","route":"1 Kauri Pl","formatted_address":"1 Kauri Pl, Parahaki, Whangarei 0112, New Zealand"}},{"business_url":"http:\/\/www.ezycabinz.co.nz","yp_url":"https:\/\/yellow.co.nz\/y\/ezycabinz?src=name","addrInfo":{"lat":-35.6791676,"lng":174.2968427,"street_number":"12","locality":"Whangarei","administrative_area_level_1":"Northland","country_code":"NZ","country":"New Zealand","postal_code":"0112","route":"12 Butler Pl","formatted_address":"12 Butler Pl, Kamo, Whangarei 0112, New Zealand"}},{"business_url":"http:\/\/www.citymotorhomes.co.nz","yp_url":"https:\/\/yellow.co.nz\/y\/city-motorhomes-caravans?src=name","addrInfo":{"lat":-35.7493979,"lng":174.3091528,"street_number":"8","locality":"Whangarei","administrative_area_level_1":"Northland","country_code":"NZ","country":"New Zealand","postal_code":"0110","route":"8 Southend Ave","formatted_address":"8 Southend Ave, Raumanga, Whangarei 0110, New Zealand"}},{"business_url":"http:\/\/www.meritrv.co.nz","yp_url":"https:\/\/yellow.co.nz\/y\/merit-rv?src=name","addrInfo":{"lat":-39.0610975,"lng":174.0631704,"street_number":"263","locality":"New Plymouth","administrative_area_level_1":"Taranaki","country_code":"NZ","country":"New Zealand","postal_code":"4310","route":"263 Devon St W","formatted_address":"263 Devon St W, New Plymouth 4310, New Zealand"}},{"business_url":"http:\/\/www.gasc.co.nz","yp_url":"https:\/\/yellow.co.nz\/y\/goodyear-auto-service-fitzroy?src=name","addrInfo":{"lat":-39.0498451,"lng":174.0999764,"street_number":"41","locality":"New Plymouth","administrative_area_level_1":"Taranaki","country_code":"NZ","country":"New Zealand","postal_code":"4312","route":"41 Beach St","formatted_address":"41 Beach St, Fitzroy, New Plymouth 4312, New Zealand"}},{"business_url":"http:\/\/www.RnRV.co.nz","yp_url":"https:\/\/yellow.co.nz\/y\/rnrv-rv-sales-silverdale?src=name","addrInfo":{"lat":-36.6295386,"lng":174.6633635,"street_number":"66","locality":"Silverdale","administrative_area_level_1":"Auckland","country_code":"NZ","country":"New Zealand","postal_code":"0992","route":"66 Small Rd","formatted_address":"66 Small Rd, Silverdale 0992, New Zealand"}},{"business_url":"http:\/\/www.acecaravans.co.nz","yp_url":"https:\/\/yellow.co.nz\/y\/ace-caravans-rentals?src=name","addrInfo":{"lat":-38.1253577,"lng":176.2282672,"street_number":"50","locality":"Rotorua","administrative_area_level_1":"Bay Of Plenty","country_code":"NZ","country":"New Zealand","postal_code":"3015","route":"50 Clayton Rd","formatted_address":"50 Clayton Rd, Mangakakahi, Rotorua 3015, New Zealand"}},{"business_url":"http:\/\/www.whiteheather.co.nz","yp_url":"https:\/\/yellow.co.nz\/y\/white-hear-caravans?src=name","addrInfo":{"lat":-39.5481207,"lng":174.2743219,"street_number":"347","locality":"Normanby","administrative_area_level_1":"Taranaki","country_code":"NZ","country":"New Zealand","postal_code":"4614","route":"347 State Highway 3","formatted_address":"347 State Highway 3, Normanby 4614, New Zealand"}},{"business_url":"http:\/\/www.leisureline.co.nz","yp_url":"https:\/\/yellow.co.nz\/y\/new-plymouth-caravan-centre?src=name","addrInfo":{"lat":-39.0515304,"lng":174.109538,"street_number":"632","locality":"New Plymouth","administrative_area_level_1":"Taranaki","country_code":"NZ","country":"New Zealand","postal_code":"4312","route":"632 Devon Rd","formatted_address":"632 Devon Rd, Waiwhakaiho, New Plymouth 4312, New Zealand"}},{"business_url":"http:\/\/www.a1portablecabins.co.nz","yp_url":"https:\/\/yellow.co.nz\/y\/a1-portable-cabins?src=name","addrInfo":{"lat":-37.6583904,"lng":175.5161497,"street_number":"7","locality":"Morrinsville","administrative_area_level_1":"Waikato","country_code":"NZ","country":"New Zealand","postal_code":"3372","route":"7 Keith Camp Pl","formatted_address":"7 Keith Camp Pl, Morrinsville 3372, New Zealand"}},{"business_url":"http:\/\/www.rvshop.co.nz","yp_url":"https:\/\/yellow.co.nz\/y\/rv-shop?src=name","addrInfo":{"lat":-37.6659694,"lng":176.196265,"street_number":"109","locality":"Tauranga","administrative_area_level_1":"Bay Of Plenty","country_code":"NZ","country":"New Zealand","postal_code":"3116","route":"109 Hewletts Rd","formatted_address":"109 Hewletts Rd, Mount Maunganui, Tauranga 3116, New Zealand"}},{"business_url":"http:\/\/www.cmw.co.nz","yp_url":"https:\/\/yellow.co.nz\/y\/caravan-motorhome-world-riverlea?src=name","addrInfo":{"lat":-37.8113552,"lng":175.3284626,"street_number":"111","locality":"Hamilton","administrative_area_level_1":"Waikato","country_code":"NZ","country":"New Zealand","postal_code":"3216","route":"111 Riverlea Rd","formatted_address":"111 Riverlea Rd, Riverlea, Hamilton 3216, New Zealand"}},{"business_url":"http:\/\/www.baylifestyles.co.nz","yp_url":"https:\/\/yellow.co.nz\/y\/bay-lifestyles-rv-shop?src=name","addrInfo":{"lat":-37.6659694,"lng":176.196265,"street_number":"109","locality":"Tauranga","administrative_area_level_1":"Bay Of Plenty","country_code":"NZ","country":"New Zealand","postal_code":"3116","route":"109 Hewletts Rd","formatted_address":"109 Hewletts Rd, Mount Maunganui, Tauranga 3116, New Zealand"}},{"business_url":"http:\/\/www.centralrv.co.nz","yp_url":"https:\/\/yellow.co.nz\/y\/central-rv-taupo?src=name","addrInfo":{"lat":-38.6903835,"lng":176.104335,"street_number":"19","locality":"Taupo","administrative_area_level_1":"Waikato","country_code":"NZ","country":"New Zealand","postal_code":"3330","route":"19 Miro St","formatted_address":"19 Miro St, Tauhara, Taupo 3330, New Zealand"}},{"business_url":"http:\/\/www.homeplus.co.nz","yp_url":"https:\/\/yellow.co.nz\/y\/homeplus-waikato?src=name","addrInfo":{"lat":-37.7917528,"lng":175.2634786,"street_number":"3","locality":"Hamilton","administrative_area_level_1":"Waikato","country_code":"NZ","country":"New Zealand","postal_code":"3204","route":"3 Bandon St","formatted_address":"3 Bandon St, Frankton, Hamilton 3204, New Zealand"}},{"business_url":"http:\/\/www.portacabinz.co.nz","yp_url":"https:\/\/yellow.co.nz\/y\/portacabinz-pyes-pa?src=name","addrInfo":{"lat":-37.8012215,"lng":176.1224462,"street_number":"770","locality":"Pyes Pa","administrative_area_level_1":"Bay Of Plenty","country_code":"NZ","country":"New Zealand","postal_code":"3173","route":"770 Pyes Pa Rd","formatted_address":"770 Pyes Pa Rd, Pyes Pa 3173, New Zealand"}},{"business_url":"http:\/\/coastalmotorhomes.co.nz","yp_url":"https:\/\/yellow.co.nz\/y\/coastal-motorhomes-caravans?src=name","addrInfo":{"lat":-37.9524006,"lng":176.9566644,"street_number":"23","locality":"Coastlands","administrative_area_level_1":"Bay Of Plenty","country_code":"NZ","country":"New Zealand","postal_code":"3191","route":"23 Mill Rd","formatted_address":"23 Mill Rd, Coastlands 3191, New Zealand"}},{"business_url":"http:\/\/www.hamiltoncaravanhire.co.nz","yp_url":"https:\/\/yellow.co.nz\/y\/hamilton-caravan-hire?src=name","addrInfo":{"lat":-37.8015808,"lng":175.2581462,"street_number":"90","locality":"Hamilton","administrative_area_level_1":"Waikato","country_code":"NZ","country":"New Zealand","postal_code":"3204","route":"90 Duke St","formatted_address":"90 Duke St, Frankton, Hamilton 3204, New Zealand"}},{"business_url":"http:\/\/www.diamondmotorhomes.co.nz","yp_url":"https:\/\/yellow.co.nz\/y\/boothys-diamond-motorhomes?src=name","addrInfo":{"lat":-37.8018786,"lng":175.2595916,"street_number":"80","locality":"Hamilton","administrative_area_level_1":"Waikato","country_code":"NZ","country":"New Zealand","postal_code":"3204","route":"80 Duke St","formatted_address":"80 Duke St, Frankton, Hamilton 3204, New Zealand"}},{"business_url":"http:\/\/www.frontiermotorhomes.co.nz","yp_url":"https:\/\/yellow.co.nz\/y\/frontier-motorhomes?src=name","addrInfo":{"lat":-36.6939396,"lng":174.6496776,"street_number":"174","locality":"Dairy Flat","administrative_area_level_1":"Auckland","country_code":"NZ","country":"New Zealand","postal_code":"0792","route":"174 Green Rd","formatted_address":"174 Green Rd, Dairy Flat 0792, New Zealand"}},{"business_url":"http:\/\/www.fitzroycaravans.co.nz","yp_url":"https:\/\/yellow.co.nz\/y\/fitzroy-caravans-new-plymouth?src=name","addrInfo":{"lat":-39.1247012,"lng":173.9871356,"street_number":"255","locality":"Koru","administrative_area_level_1":"Taranaki","country_code":"NZ","country":"New Zealand","postal_code":"4374","route":"255 Koru Rd","formatted_address":"4\/255 Koru Rd, Koru 4374, New Zealand"}},{"business_url":"http:\/\/www.ovaland.co.nz","yp_url":"https:\/\/yellow.co.nz\/y\/ovaland-motorhomes-frankton-hamilton?src=name","addrInfo":{"lat":-37.8033486,"lng":175.2574543,"street_number":"27","locality":"Hamilton","administrative_area_level_1":"Waikato","country_code":"NZ","country":"New Zealand","postal_code":"3204","route":"27 Green St","formatted_address":"27 Green St, Frankton, Hamilton 3204, New Zealand"}},{"business_url":"http:\/\/www.ovc.co.nz","yp_url":"https:\/\/yellow.co.nz\/y\/ocean-view-cabins?src=name","addrInfo":{"lat":-37.8051981,"lng":175.2669918,"street_number":"8A","locality":"Hamilton","administrative_area_level_1":"Waikato","country_code":"NZ","country":"New Zealand","postal_code":"3204","route":"8A Quail Pl","formatted_address":"8A Quail Pl, Hamilton Lake, Hamilton 3204, New Zealand"}},{"business_url":"http:\/\/www.almgroup.co.nz","yp_url":"https:\/\/yellow.co.nz\/y\/alm-group?src=name","addrInfo":{"lat":-37.7402369,"lng":175.2246947,"street_number":"10","locality":"Hamilton","administrative_area_level_1":"Waikato","country_code":"NZ","country":"New Zealand","postal_code":"3200","route":"10 Udy Pl","formatted_address":"10 Udy Pl, Te Rapa Park, Hamilton 3200, New Zealand"}},{"business_url":"http:\/\/www.almgroup.co.nz\/","yp_url":"https:\/\/yellow.co.nz\/y\/jurgens-caravans?src=name","addrInfo":{"lat":-37.7402369,"lng":175.2246947,"street_number":"10","locality":"Hamilton","administrative_area_level_1":"Waikato","country_code":"NZ","country":"New Zealand","postal_code":"3200","route":"10 Udy Pl","formatted_address":"10 Udy Pl, Te Rapa Park, Hamilton 3200, New Zealand"}},{"business_url":"http:\/\/www.almgroup.co.nz\/","yp_url":"https:\/\/yellow.co.nz\/y\/allisee-autohomes?src=name","addrInfo":{"lat":-37.7402369,"lng":175.2246947,"street_number":"10","locality":"Hamilton","administrative_area_level_1":"Waikato","country_code":"NZ","country":"New Zealand","postal_code":"3200","route":"10 Udy Pl","formatted_address":"10 Udy Pl, Te Rapa Park, Hamilton 3200, New Zealand"}},{"business_url":"http:\/\/www.almgroup.co.nz\/","yp_url":"https:\/\/yellow.co.nz\/y\/avida-hamilton-te?src=name","addrInfo":{"lat":-37.7402369,"lng":175.2246947,"street_number":"10","locality":"Hamilton","administrative_area_level_1":"Waikato","country_code":"NZ","country":"New Zealand","postal_code":"3200","route":"10 Udy Pl","formatted_address":"10 Udy Pl, Te Rapa Park, Hamilton 3200, New Zealand"}},{"business_url":"http:\/\/www.baygas.co.nz","yp_url":"https:\/\/yellow.co.nz\/y\/bay-gas-fifteenth?src=name","addrInfo":{"lat":-37.7095401,"lng":176.1631653,"street_number":"50","locality":"Tauranga","administrative_area_level_1":"Bay Of Plenty","country_code":"NZ","country":"New Zealand","postal_code":"3112","route":"50 Fifteenth Ave","formatted_address":"50 Fifteenth Ave, Tauranga South, Tauranga 3112, New Zealand"}},{"business_url":"http:\/\/www.probars.co.nz","yp_url":"https:\/\/yellow.co.nz\/y\/pro-bars-high-street-2?src=name","addrInfo":{"lat":-37.7869498,"lng":175.2684713,"street_number":"28","locality":"Hamilton","administrative_area_level_1":"Waikato","country_code":"NZ","country":"New Zealand","postal_code":"3204","route":"28 King St","formatted_address":"28 King St, Frankton, Hamilton 3204, New Zealand"}},{"business_url":"http:\/\/www.gasc.co.nz","yp_url":"https:\/\/yellow.co.nz\/y\/goodyear-auto-cryers-road?src=name","addrInfo":{"lat":-36.9345161,"lng":174.8865848,"street_number":"33","locality":"Auckland","administrative_area_level_1":"Auckland","country_code":"NZ","country":"New Zealand","postal_code":"2013","route":"33 Cryers Rd","formatted_address":"3\/33 Cryers Rd, East Tamaki, Auckland 2013, New Zealand"}},{"business_url":"http:\/\/www.autocraftengineering.co.nz","yp_url":"https:\/\/yellow.co.nz\/y\/autocraft-engineering?src=name","addrInfo":{"lat":-37.7176566,"lng":175.3322068,"street_number":"447","locality":"Puketaha","administrative_area_level_1":"Waikato","country_code":"NZ","country":"New Zealand","postal_code":"3281","route":"447 Puketaha Rd","formatted_address":"447 Puketaha Rd, Puketaha 3281, New Zealand"}},{"business_url":"http:\/\/www.classic-campers.com","yp_url":"https:\/\/yellow.co.nz\/y\/classic-campers-vw?src=name","addrInfo":{"lat":-36.6276091,"lng":174.6852158,"street_number":"105","locality":"Stillwater","administrative_area_level_1":"Auckland","country_code":"NZ","country":"New Zealand","postal_code":"0993","route":"105 Newman Rd","formatted_address":"105 Newman Rd, Stillwater 0993, New Zealand"}},{"business_url":"http:\/\/www.mountcaravans.co.nz","yp_url":"https:\/\/yellow.co.nz\/y\/mount-maunganui-motorhomes-mount?src=name","addrInfo":{"lat":-37.657856,"lng":176.1943854,"street_number":"47","locality":"Tauranga","administrative_area_level_1":"Bay Of Plenty","country_code":"NZ","country":"New Zealand","postal_code":"3116","route":"47 Portside Dr","formatted_address":"47 Portside Dr, Mount Maunganui, Tauranga 3116, New Zealand"}},{"business_url":"http:\/\/www.leisureline.co.nz","yp_url":"https:\/\/yellow.co.nz\/y\/leisureline-caravans?src=name","addrInfo":{"lat":-37.7542406,"lng":175.2328403,"street_number":"23","locality":"Hamilton","administrative_area_level_1":"Waikato","country_code":"NZ","country":"New Zealand","postal_code":"3200","route":"23 Tasman Rd","formatted_address":"23 Tasman Rd, Avalon, Hamilton 3200, New Zealand"}},{"business_url":"http:\/\/www.countiescaravanrentals.co.nz","yp_url":"https:\/\/yellow.co.nz\/y\/counties-caravan-rentals?src=name","addrInfo":{"lat":-37.2117676,"lng":174.7485416,"street_number":"377","locality":"Glenbrook","administrative_area_level_1":"Auckland","country_code":"NZ","country":"New Zealand","postal_code":"2681","route":"377 Glenbrook-Waiuku Rd","formatted_address":"1\/377 Glenbrook-Waiuku Rd, Glenbrook 2681, New Zealand"}},{"business_url":"http:\/\/www.dekkocaravans.co.nz","yp_url":"https:\/\/yellow.co.nz\/y\/dekko-caravan-hire-glasgow?src=name","addrInfo":{"lat":-36.9942091,"lng":174.8612914,"street_number":"10","locality":"Auckland","administrative_area_level_1":"Auckland","country_code":"NZ","country":"New Zealand","postal_code":"2104","route":"10 Glasgow Ave","formatted_address":"10 Glasgow Ave, Papatoetoe, Auckland 2104, New Zealand"}},{"business_url":"http:\/\/www.caravanz.co.nz","yp_url":"https:\/\/yellow.co.nz\/y\/caravans4u?src=name","addrInfo":{"lat":-37.7327734,"lng":176.1196533,"street_number":"2","locality":"Tauranga","administrative_area_level_1":"Bay Of Plenty","country_code":"NZ","country":"New Zealand","postal_code":"3112","route":"2 Marshall Ave","formatted_address":"2 Marshall Ave, Greerton, Tauranga 3112, New Zealand"}},{"business_url":"http:\/\/www.roomstomove.co.nz","yp_url":"https:\/\/yellow.co.nz\/y\/rooms-to-move-cabin?src=name","addrInfo":{"lat":-37.0109903,"lng":174.8560013,"street_number":"2","locality":"Auckland","administrative_area_level_1":"Auckland","country_code":"NZ","country":"New Zealand","postal_code":"2104","route":"2 Ha Cres","formatted_address":"2 Ha Cres, Wiri, Auckland 2104, New Zealand"}},{"business_url":"http:\/\/www.AutoCabin.co.nz","yp_url":"https:\/\/yellow.co.nz\/y\/autocabin-swanson?src=name","addrInfo":{"lat":-36.8647918,"lng":174.5867165,"street_number":"645","locality":"Auckland","administrative_area_level_1":"Auckland","country_code":"NZ","country":"New Zealand","postal_code":"0612","route":"645 Swanson Rd","formatted_address":"1\/645 Swanson Rd, Swanson, Auckland 0612, New Zealand"}},{"business_url":"http:\/\/www.vancomotorhomes.co.nz","yp_url":"https:\/\/yellow.co.nz\/y\/vanco-motorhomes?src=name","addrInfo":{"lat":-37.017443,"lng":174.991902,"street_number":"130","locality":"Auckland","administrative_area_level_1":"Auckland","country_code":"NZ","country":"New Zealand","postal_code":"2582","route":"130 Clevedon-Takanini Rd","formatted_address":"130 Clevedon-Takanini Rd, Clevedon, Auckland 2582, New Zealand"}},{"business_url":"http:\/\/www.tokio.co.nz","yp_url":"https:\/\/yellow.co.nz\/y\/tokio-car-motor?src=name","addrInfo":{"lat":-36.5862233,"lng":174.6929091,"street_number":"10","locality":"Orewa","administrative_area_level_1":"Auckland","country_code":"NZ","country":"New Zealand","postal_code":"0931","route":"10 George Lowe Pl","formatted_address":"10 George Lowe Pl, Orewa 0931, New Zealand"}},{"business_url":"http:\/\/www.cabinsnzltd.co.nz","yp_url":"https:\/\/yellow.co.nz\/y\/cabins-nz-darjon?src=name","addrInfo":{"lat":-37.6602653,"lng":175.5189532,"street_number":"22","locality":"Morrinsville","administrative_area_level_1":"Waikato","country_code":"NZ","country":"New Zealand","postal_code":"3300","route":"22 Anderson St","formatted_address":"22 Anderson St, Morrinsville 3300, New Zealand"}},{"business_url":"http:\/\/www.facebook.com\/savillcoachwork.nz?fref=ts","yp_url":"https:\/\/yellow.co.nz\/y\/savill-sport-trailers?src=name","addrInfo":{"lat":-37.7144118,"lng":176.1501461,"street_number":"4","locality":"Tauranga","administrative_area_level_1":"Bay Of Plenty","country_code":"NZ","country":"New Zealand","postal_code":"3112","route":"4 Brook St","formatted_address":"d\/4 Brook St, Parkvale, Tauranga 3112, New Zealand"}},{"business_url":"http:\/\/www.adventurecampers.co.nz","yp_url":"https:\/\/yellow.co.nz\/y\/adventure-motorhome-rentals-otahuhu?src=name","addrInfo":{"lat":-36.9478382,"lng":174.8258451,"street_number":"2","locality":"Auckland","administrative_area_level_1":"Auckland","country_code":"NZ","country":"New Zealand","postal_code":"2024","route":"2 Beach Rd","formatted_address":"2 Beach Rd, Otahuhu, Auckland 2024, New Zealand"}},{"business_url":"http:\/\/www.iconicmotorhomes.com","yp_url":"https:\/\/yellow.co.nz\/y\/iconic-motorhomes-new-mangere?src=name","addrInfo":{"lat":-36.9781998,"lng":174.7811405,"street_number":"26","locality":"Auckland","administrative_area_level_1":"Auckland","country_code":"NZ","country":"New Zealand","postal_code":"2022","route":"26 Rennie Dr","formatted_address":"26 Rennie Dr, Mangere, Auckland 2022, New Zealand"}},{"business_url":"http:\/\/www.budget-campers.co.nz","yp_url":"https:\/\/yellow.co.nz\/y\/budget-campers?src=name","addrInfo":{"lat":-36.9690174,"lng":174.8136222,"street_number":"142","locality":"Auckland","administrative_area_level_1":"Auckland","country_code":"NZ","country":"New Zealand","postal_code":"2024","route":"142 Robertson Rd","formatted_address":"142 Robertson Rd, Mangere East, Auckland 2024, New Zealand"}},{"business_url":"http:\/\/www.andysmotorhomeservices.co.nz","yp_url":"https:\/\/yellow.co.nz\/y\/andys-motorhome-services?src=name","addrInfo":{"lat":-36.9031942,"lng":174.6842398,"street_number":"1","locality":"Auckland","administrative_area_level_1":"Auckland","country_code":"NZ","country":"New Zealand","postal_code":"0600","route":"1 Binsted Rd","formatted_address":"4\/1 Binsted Rd, New Lynn, Auckland 0600, New Zealand"}},{"business_url":"http:\/\/www.smiley.co.nz\/","yp_url":"https:\/\/yellow.co.nz\/y\/smiley-caravan-saleyards?src=name","addrInfo":{"lat":-36.9406749,"lng":174.834153,"street_number":"14","locality":"Auckland","administrative_area_level_1":"Auckland","country_code":"NZ","country":"New Zealand","postal_code":"1062","route":"14 Saleyards Rd","formatted_address":"14 Saleyards Rd, Otahuhu, Auckland 1062, New Zealand"}},{"business_url":"http:\/\/www.cvana.co.nz","yp_url":"https:\/\/yellow.co.nz\/y\/awnings-covers-judea?src=name","addrInfo":{"lat":-37.6996676,"lng":176.1429255,"street_number":"95","locality":"Tauranga","administrative_area_level_1":"Bay Of Plenty","country_code":"NZ","country":"New Zealand","postal_code":"3110","route":"95 Birch Ave","formatted_address":"6\/95 Birch Ave, Judea, Tauranga 3110, New Zealand"}},{"business_url":"http:\/\/www.abccaravans.co.nz","yp_url":"https:\/\/yellow.co.nz\/y\/auckland-abc-caravans?src=name","addrInfo":{"lat":-37.12595,"lng":174.9528495,"street_number":"1186","locality":"Runciman","administrative_area_level_1":"Auckland","country_code":"NZ","country":"New Zealand","postal_code":"2578","route":"1186 Great South Rd","formatted_address":"1186 Great South Rd, Runciman 2578, New Zealand"}},{"business_url":"http:\/\/www.spaceships.tv","yp_url":"https:\/\/yellow.co.nz\/y\/spaceships-rental-vehicles?src=name","addrInfo":{"lat":-36.8460893,"lng":174.7690671,"street_number":"50","locality":"Auckland","administrative_area_level_1":"Auckland","country_code":"NZ","country":"New Zealand","postal_code":"1010","route":"50 Fort St","formatted_address":"50 Fort St, Auckland, Auckland 1010, New Zealand"}},{"business_url":"http:\/\/www.woodscaravans.co.nz","yp_url":"https:\/\/yellow.co.nz\/y\/woods-caravan-motor?src=name","addrInfo":{"lat":-36.743401,"lng":174.7199361,"street_number":"20","locality":"Auckland","administrative_area_level_1":"Auckland","country_code":"NZ","country":"New Zealand","postal_code":"0632","route":"20 Cowley Pl","formatted_address":"20 Cowley Pl, Rosedale, Auckland 0632, New Zealand"}},{"business_url":"http:\/\/www.tuicampers.co.nz","yp_url":"https:\/\/yellow.co.nz\/y\/tui-campers?src=name","addrInfo":{"lat":-36.9690174,"lng":174.8136222,"street_number":"142","locality":"Auckland","administrative_area_level_1":"Auckland","country_code":"NZ","country":"New Zealand","postal_code":"2024","route":"142 Robertson Rd","formatted_address":"142 Robertson Rd, Mangere East, Auckland 2024, New Zealand"}},{"business_url":"http:\/\/www.newzealandfrontiers.com","yp_url":"https:\/\/yellow.co.nz\/y\/new-zealand-frontiers?src=name","addrInfo":{"lat":-37.0649646,"lng":174.955309,"street_number":"30","locality":"Papakura","administrative_area_level_1":"Auckland","country_code":"NZ","country":"New Zealand","postal_code":"2110","route":"30 Laurie Ave","formatted_address":"30 Laurie Ave, Papakura, Papakura 2110, New Zealand"}},{"business_url":"http:\/\/www.countiescaravanrentals.co.nz","yp_url":"https:\/\/yellow.co.nz\/y\/counties-caravan-glenbrook-waiuku?src=name","addrInfo":{"lat":-37.2117676,"lng":174.7485416,"street_number":"377","locality":"Glenbrook","administrative_area_level_1":"Auckland","country_code":"NZ","country":"New Zealand","postal_code":"2681","route":"377 Glenbrook-Waiuku Rd","formatted_address":"377 Glenbrook-Waiuku Rd, Glenbrook 2681, New Zealand"}},{"business_url":"http:\/\/www.luckyrentals.co.nz","yp_url":"https:\/\/yellow.co.nz\/y\/lucky-rentals-abros-place-2?src=name","addrInfo":{"lat":-36.9724785,"lng":174.7768019,"street_number":"5","locality":"Auckland","administrative_area_level_1":"Auckland","country_code":"NZ","country":"New Zealand","postal_code":"2022","route":"5 Aintree Ave","formatted_address":"5 Aintree Ave, Mangere, Auckland 2022, New Zealand"}},{"business_url":"http:\/\/www.caravancentre.co.nz","yp_url":"https:\/\/yellow.co.nz\/y\/south-auckland-caravans?src=name","addrInfo":{"lat":-36.9478716,"lng":174.8925276,"street_number":"53","locality":"Auckland","administrative_area_level_1":"Auckland","country_code":"NZ","country":"New Zealand","postal_code":"2013","route":"53 Springs Rd","formatted_address":"53 Springs Rd, East Tamaki, Auckland 2013, New Zealand"}},{"business_url":"http:\/\/www.camec.co.nz","yp_url":"https:\/\/yellow.co.nz\/y\/camec?src=name","addrInfo":{"lat":-36.9819551,"lng":174.7825291,"street_number":"44","locality":"Auckland","administrative_area_level_1":"Auckland","country_code":"NZ","country":"New Zealand","postal_code":"2022","route":"44 Montgomerie Rd","formatted_address":"44 Montgomerie Rd, Mangere, Auckland 2022, New Zealand"}},{"business_url":"http:\/\/www.northaucklandcaravans.co.nz\/","yp_url":"https:\/\/yellow.co.nz\/y\/north-auckland-caravans?src=name","addrInfo":{"lat":-36.7614374,"lng":174.5792494,"street_number":"267","locality":"Riverhead","administrative_area_level_1":"Auckland","country_code":"NZ","country":"New Zealand","postal_code":"0892","route":"267 Riverhead Rd","formatted_address":"267 Riverhead Rd, Riverhead 0892, New Zealand"}},{"business_url":"http:\/\/aacaravans.co.nz","yp_url":"https:\/\/yellow.co.nz\/y\/aa-caravans-rental?src=name","addrInfo":{"lat":-37.2059459,"lng":174.8721727,"street_number":"79","locality":"Pukekohe","administrative_area_level_1":"Auckland","country_code":"NZ","country":"New Zealand","postal_code":"2676","route":"79 Russell Rd","formatted_address":"1\/79 Russell Rd, Pukekohe 2676, New Zealand"}},{"business_url":"http:\/\/www.starfishinteriors.co.nz","yp_url":"https:\/\/yellow.co.nz\/y\/starfish-interiors?src=name","addrInfo":{"lat":-36.882308,"lng":174.6818698,"street_number":"9","locality":"Auckland","administrative_area_level_1":"Auckland","country_code":"NZ","country":"New Zealand","postal_code":"1026","route":"9 Copsey Pl","formatted_address":"9 Copsey Pl, Avondale, Auckland 1026, New Zealand"}},{"business_url":"http:\/\/www.highlanderaccommodation.co.nz","yp_url":"https:\/\/yellow.co.nz\/y\/highlander-accommodation-dairy?src=name","addrInfo":{"lat":-36.6885529,"lng":174.6261266,"street_number":"47","locality":"Dairy Flat","administrative_area_level_1":"Auckland","country_code":"NZ","country":"New Zealand","postal_code":"0794","route":"47 Escott Rd","formatted_address":"47 Escott Rd, Dairy Flat 0794, New Zealand"}},{"business_url":"http:\/\/www.campervanrent.co.nz\/","yp_url":"https:\/\/yellow.co.nz\/y\/tauranga-leisure-rentals?src=name","addrInfo":{"lat":-37.6642511,"lng":176.0593127,"street_number":"20","locality":"Whakamarama","administrative_area_level_1":"Bay Of Plenty","country_code":"NZ","country":"New Zealand","postal_code":"3172","route":"20 Lindoch Ave","formatted_address":"20 Lindoch Ave, Whakamarama 3172, New Zealand"}},{"business_url":"http:\/\/www.dekkocaravans.co.nz","yp_url":"https:\/\/yellow.co.nz\/y\/dekko-caravan-hire?src=name","addrInfo":{"lat":-36.9942091,"lng":174.8612914,"street_number":"10","locality":"Auckland","administrative_area_level_1":"Auckland","country_code":"NZ","country":"New Zealand","postal_code":"2104","route":"10 Glasgow Ave","formatted_address":"10 Glasgow Ave, Papatoetoe, Auckland 2104, New Zealand"}},{"business_url":"http:\/\/www.frontiermotorhomes.co.nz","yp_url":"https:\/\/yellow.co.nz\/y\/frontier-motorhomes-dairy?src=name","addrInfo":{"lat":-36.6939396,"lng":174.6496776,"street_number":"174","locality":"Dairy Flat","administrative_area_level_1":"Auckland","country_code":"NZ","country":"New Zealand","postal_code":"0792","route":"174 Green Rd","formatted_address":"174 Green Rd, Dairy Flat 0792, New Zealand"}},{"business_url":"http:\/\/www.roomstomove.co.nz","yp_url":"https:\/\/yellow.co.nz\/y\/rooms-to-move?src=name","addrInfo":{"lat":-36.7732205,"lng":174.7307888,"street_number":"21","locality":"Auckland","administrative_area_level_1":"Auckland","country_code":"NZ","country":"New Zealand","postal_code":"0627","route":"21 Ashfield Rd","formatted_address":"21 Ashfield Rd, Wairau Valley, Auckland 0627, New Zealand"}},{"business_url":"http:\/\/www.lewisgray.com","yp_url":"https:\/\/yellow.co.nz\/y\/lewis-gray?src=name","addrInfo":{"lat":-36.7443284,"lng":174.696917,"street_number":"40","locality":"Auckland","administrative_area_level_1":"Auckland","country_code":"NZ","country":"New Zealand","postal_code":"0632","route":"40 William Pickering Dr","formatted_address":"40 William Pickering Dr, Rosedale, Auckland 0632, New Zealand"}},{"business_url":"http:\/\/www.caravansandmotorhomes.co.nz","yp_url":"https:\/\/yellow.co.nz\/y\/trail-lite-caravan?src=name","addrInfo":{"lat":-37.18475,"lng":174.9002287,"street_number":"77","locality":"Pukekohe","administrative_area_level_1":"Auckland","country_code":"NZ","country":"New Zealand","postal_code":"2120","route":"77 Paerata Rd","formatted_address":"77 Paerata Rd, Pukekohe 2120, New Zealand"}},{"business_url":"http:\/\/www.aucklandcaravans.com","yp_url":"https:\/\/yellow.co.nz\/y\/auckland-caravans-east?src=name","addrInfo":{"lat":-36.9690655,"lng":174.8219325,"street_number":"411","locality":"Auckland","administrative_area_level_1":"Auckland","country_code":"NZ","country":"New Zealand","postal_code":"2024","route":"411 Massey Rd","formatted_address":"411 Massey Rd, Mangere East, Auckland 2024, New Zealand"}},{"business_url":"http:\/\/www.freedomcampers.co.nz","yp_url":"https:\/\/yellow.co.nz\/y\/freedom-campers?src=name","addrInfo":{"lat":-36.9690174,"lng":174.8136222,"street_number":"142","locality":"Auckland","administrative_area_level_1":"Auckland","country_code":"NZ","country":"New Zealand","postal_code":"2024","route":"142 Robertson Rd","formatted_address":"142 Robertson Rd, Mangere East, Auckland 2024, New Zealand"}},{"business_url":"http:\/\/cheapacampa.co.nz","yp_url":"https:\/\/yellow.co.nz\/y\/cheapa-campa-mangere?src=name","addrInfo":{"lat":-36.985234,"lng":174.790653,"street_number":"20","locality":"Auckland","administrative_area_level_1":"Auckland","country_code":"NZ","country":"New Zealand","postal_code":"2022","route":"20 Verissimo Dr","formatted_address":"2\/20 Verissimo Dr, Mangere, Auckland 2022, New Zealand"}},{"business_url":"http:\/\/apollocamper.co.nz","yp_url":"https:\/\/yellow.co.nz\/y\/apollo-motorhome-holidays-mangere?src=name","addrInfo":{"lat":-36.985234,"lng":174.790653,"street_number":"20","locality":"Auckland","administrative_area_level_1":"Auckland","country_code":"NZ","country":"New Zealand","postal_code":"2022","route":"20 Verissimo Dr","formatted_address":"2\/20 Verissimo Dr, Mangere, Auckland 2022, New Zealand"}},{"business_url":"http:\/\/smiley.co.nz","yp_url":"https:\/\/yellow.co.nz\/y\/smiley-caravan-saleyards-road-6?src=name","addrInfo":{"lat":-36.9405072,"lng":174.8341925,"street_number":"12","locality":"Auckland","administrative_area_level_1":"Auckland","country_code":"NZ","country":"New Zealand","postal_code":"1062","route":"12 Saleyards Rd","formatted_address":"12 Saleyards Rd, Otahuhu, Auckland 1062, New Zealand"}},{"business_url":"http:\/\/www.hippiecamper.co.nz","yp_url":"https:\/\/yellow.co.nz\/y\/hippie-camper-mangere?src=name","addrInfo":{"lat":-36.985234,"lng":174.790653,"street_number":"20","locality":"Auckland","administrative_area_level_1":"Auckland","country_code":"NZ","country":"New Zealand","postal_code":"2022","route":"20 Verissimo Dr","formatted_address":"2\/20 Verissimo Dr, Mangere, Auckland 2022, New Zealand"}},{"business_url":"http:\/\/www.rse.co.nz","yp_url":"https:\/\/yellow.co.nz\/y\/rse-nz?src=name","addrInfo":{"lat":-37.0342597,"lng":174.919456,"street_number":"78","locality":"Takanini","administrative_area_level_1":"Auckland","country_code":"NZ","country":"New Zealand","postal_code":"2105","route":"78 Spartan Rd","formatted_address":"78 Spartan Rd, Takanini 2105, New Zealand"}},{"business_url":"http:\/\/www.auckland-drainage.co.nz","yp_url":"https:\/\/yellow.co.nz\/y\/arcus-caravans?src=name","addrInfo":{"lat":-36.9592801,"lng":174.7971983,"street_number":"69","locality":"Auckland","administrative_area_level_1":"Auckland","country_code":"NZ","country":"New Zealand","postal_code":"2022","route":"69 Hall Ave","formatted_address":"69 Hall Ave, Mangere, Auckland 2022, New Zealand"}}]