[{"business_url":"http:\/\/www.bridon.co.nz","yp_url":"https:\/\/yellow.co.nz\/y\/bridon-new-bell-block?src=name","addrInfo":{"lat":-39.0384031,"lng":174.1635885,"street_number":"75","locality":"New Plymouth","administrative_area_level_1":"Taranaki","country_code":"NZ","country":"New Zealand","postal_code":"4373","route":"75 Corbett Rd","formatted_address":"75 Corbett Rd, Bell Block, New Plymouth 4373, New Zealand"}},{"business_url":"http:\/\/www.bridon.co.nz","yp_url":"https:\/\/yellow.co.nz\/y\/bridon-new-tauranga?src=name","addrInfo":{"lat":-37.6755487,"lng":176.1689112,"street_number":"1","locality":"Tauranga","administrative_area_level_1":"Bay Of Plenty","country_code":"NZ","country":"New Zealand","postal_code":"3110","route":"1 Marsh St","formatted_address":"1 Marsh St, Tauranga, Tauranga 3110, New Zealand"}},{"business_url":"http:\/\/www.bridon.co.nz","yp_url":"https:\/\/yellow.co.nz\/y\/bridon-new-east-tamaki?src=name","addrInfo":{"lat":-36.9346951,"lng":174.8980392,"street_number":"10","locality":"Auckland","administrative_area_level_1":"Auckland","country_code":"NZ","country":"New Zealand","postal_code":"2013","route":"10 Greenmount Dr","formatted_address":"6\/10 Greenmount Dr, East Tamaki, Auckland 2013, New Zealand"}},{"business_url":"http:\/\/www.industrialfootwear.co.nz","yp_url":"https:\/\/yellow.co.nz\/y\/industrial-footwear-safety?src=name","addrInfo":{"lat":-37.6972394,"lng":176.1596595,"street_number":"503","locality":"Tauranga","administrative_area_level_1":"Bay Of Plenty","country_code":"NZ","country":"New Zealand","postal_code":"3110","route":"503 Cameron Rd","formatted_address":"503 Cameron Rd, Tauranga, Tauranga 3110, New Zealand"}},{"business_url":"http:\/\/www.mattsonjoinery.co.nz","yp_url":"https:\/\/yellow.co.nz\/y\/mattson-joinery?src=name","addrInfo":{"lat":-36.9953002,"lng":174.8647726,"street_number":"6","locality":"Auckland","administrative_area_level_1":"Auckland","country_code":"NZ","country":"New Zealand","postal_code":"2104","route":"6 Orb Ave","formatted_address":"6 Orb Ave, Manukau, Auckland 2104, New Zealand"}},{"business_url":"http:\/\/www.mattsonjoinery.co.nz","yp_url":"https:\/\/yellow.co.nz\/y\/mattson-joinery-orb?src=name","addrInfo":{"lat":-36.9953002,"lng":174.8647726,"street_number":"6","locality":"Auckland","administrative_area_level_1":"Auckland","country_code":"NZ","country":"New Zealand","postal_code":"2104","route":"6 Orb Ave","formatted_address":"6 Orb Ave, Manukau, Auckland 2104, New Zealand"}},{"business_url":"http:\/\/www.dexters.co.nz","yp_url":"https:\/\/yellow.co.nz\/y\/dexters-warehouse-equipment?src=name","addrInfo":{"lat":-36.9244277,"lng":174.782922,"street_number":"32","locality":"Auckland","administrative_area_level_1":"Auckland","country_code":"NZ","country":"New Zealand","postal_code":"1061","route":"32 Selwyn St","formatted_address":"32 Selwyn St, Onehunga, Auckland 1061, New Zealand"}},{"business_url":"http:\/\/www.speedwall.co.nz","yp_url":"https:\/\/yellow.co.nz\/y\/speedwall-nz?src=name","addrInfo":{"lat":-37.7566417,"lng":175.249586,"street_number":"22","locality":"Hamilton","administrative_area_level_1":"Waikato","country_code":"NZ","country":"New Zealand","postal_code":"3200","route":"22 Norris Ave","formatted_address":"22 Norris Ave, Te Rapa, Hamilton 3200, New Zealand"}},{"business_url":"http:\/\/www.digitalweld.co.nz","yp_url":"https:\/\/yellow.co.nz\/y\/digitalweld?src=name","addrInfo":{"lat":-37.0019008,"lng":174.8732971,"street_number":"17","locality":"Auckland","administrative_area_level_1":"Auckland","country_code":"NZ","country":"New Zealand","postal_code":"2104","route":"17 Hobill Ave","formatted_address":"d\/17 Hobill Ave, Wiri, Auckland 2104, New Zealand"}},{"business_url":"http:\/\/www.ellis.co.nz","yp_url":"https:\/\/yellow.co.nz\/y\/ellis-company-ellisco-mount?src=name","addrInfo":{"lat":-36.8875312,"lng":174.8491406,"street_number":"105","locality":"Auckland","administrative_area_level_1":"Auckland","country_code":"NZ","country":"New Zealand","postal_code":"1072","route":"105 Morrin Rd","formatted_address":"105 Morrin Rd, St Johns, Auckland 1072, New Zealand"}}]