[{"business_url":"http:\/\/www.mulcomcarpetcleaning.co.nz","yp_url":"https:\/\/yellow.co.nz\/y\/mulcom-miracle-maid-morningside?src=name","addrInfo":{"lat":-35.7353859,"lng":174.3211673,"street_number":"54A","locality":"Whangarei","administrative_area_level_1":"Northland","country_code":"NZ","country":"New Zealand","postal_code":"0110","route":"54A Morningside Rd","formatted_address":"54A Morningside Rd, Morningside, Whangarei 0110, New Zealand"}},{"business_url":"http:\/\/www.superloo.co.nz\/online\/portaloo_hire_auckland.csn","yp_url":"https:\/\/yellow.co.nz\/y\/super-loo-sanitation?src=name","addrInfo":{"lat":-36.9991679,"lng":174.8679902,"street_number":"115","locality":"Auckland","administrative_area_level_1":"Auckland","country_code":"NZ","country":"New Zealand","postal_code":"2104","route":"115 Plunket Ave","formatted_address":"115 Plunket Ave, Manukau, Auckland 2104, New Zealand"}},{"business_url":"http:\/\/www.theservice.co.nz","yp_url":"https:\/\/yellow.co.nz\/y\/proclean-reward-mount-wellington?src=name","addrInfo":{"lat":-36.9126922,"lng":174.8491648,"street_number":"10","locality":"Auckland","administrative_area_level_1":"Auckland","country_code":"NZ","country":"New Zealand","postal_code":"1060","route":"10 Donnor Pl","formatted_address":"10 Donnor Pl, Mount Wellington, Auckland 1060, New Zealand"}},{"business_url":"http:\/\/www.hirequipevents.co.nz\/events-types\/sanitation-and-waste","yp_url":"https:\/\/yellow.co.nz\/y\/hirepool-events-penrose?src=name","addrInfo":{"lat":-36.9125124,"lng":174.8214643,"street_number":"4","locality":"Auckland","administrative_area_level_1":"Auckland","country_code":"NZ","country":"New Zealand","postal_code":"1061","route":"4 Holloway Pl","formatted_address":"4 Holloway Pl, Penrose, Auckland 1061, New Zealand"}},{"business_url":"http:\/\/www.hirepool.co.nz","yp_url":"https:\/\/yellow.co.nz\/y\/hirepool-holloway-2?src=name","addrInfo":{"lat":-36.9125124,"lng":174.8214643,"street_number":"4","locality":"Auckland","administrative_area_level_1":"Auckland","country_code":"NZ","country":"New Zealand","postal_code":"1061","route":"4 Holloway Pl","formatted_address":"4 Holloway Pl, Penrose, Auckland 1061, New Zealand"}},{"business_url":"http:\/\/www.hirepool.co.nz","yp_url":"https:\/\/yellow.co.nz\/y\/hirepool-vehicle-rentals-hirepool?src=name","addrInfo":{"lat":-36.9125124,"lng":174.8214643,"street_number":"4","locality":"Auckland","administrative_area_level_1":"Auckland","country_code":"NZ","country":"New Zealand","postal_code":"1061","route":"4 Holloway Pl","formatted_address":"4 Holloway Pl, Penrose, Auckland 1061, New Zealand"}},{"business_url":"http:\/\/www.otago.chemdry.co.nz","yp_url":"https:\/\/yellow.co.nz\/y\/chem-dry-south-dunedin?src=name","addrInfo":{"lat":-45.894263,"lng":170.5002849,"street_number":"57","locality":"Dunedin","administrative_area_level_1":"Otago","country_code":"NZ","country":"New Zealand","postal_code":"9012","route":"57 Rankeilor St","formatted_address":"57 Rankeilor St, South Dunedin, Dunedin 9012, New Zealand"}},{"business_url":"http:\/\/www.chemdryotago.co.nz","yp_url":"https:\/\/yellow.co.nz\/y\/chem-dry-otago-rankeilor?src=name","addrInfo":{"lat":-45.894263,"lng":170.5002849,"street_number":"57","locality":"Dunedin","administrative_area_level_1":"Otago","country_code":"NZ","country":"New Zealand","postal_code":"9012","route":"57 Rankeilor St","formatted_address":"57 Rankeilor St, South Dunedin, Dunedin 9012, New Zealand"}},{"business_url":"http:\/\/www.chemdryotago.co.nz","yp_url":"https:\/\/yellow.co.nz\/y\/chem-dry-rankeilor?src=name","addrInfo":{"lat":-45.894263,"lng":170.5002849,"street_number":"57","locality":"Dunedin","administrative_area_level_1":"Otago","country_code":"NZ","country":"New Zealand","postal_code":"9012","route":"57 Rankeilor St","formatted_address":"57 Rankeilor St, South Dunedin, Dunedin 9012, New Zealand"}},{"business_url":"http:\/\/www.hirepool.co.nz","yp_url":"https:\/\/yellow.co.nz\/y\/hirepool-events-quarantine-road-6?src=name","addrInfo":{"lat":-41.2996199,"lng":173.2393397,"street_number":"110","locality":"Nelson","administrative_area_level_1":"Nelson","country_code":"NZ","country":"New Zealand","postal_code":"7011","route":"110 Quarantine Rd","formatted_address":"110 Quarantine Rd, Annesbrook, Nelson 7011, New Zealand"}},{"business_url":"http:\/\/www.portaloo.co.nz","yp_url":"https:\/\/yellow.co.nz\/y\/hirepool-events-portables-glenda?src=name","addrInfo":{"lat":-45.006723,"lng":168.7506308,"street_number":"45","locality":"Queenstown","administrative_area_level_1":"Otago","country_code":"NZ","country":"New Zealand","postal_code":"9371","route":"45 Glenda Dr","formatted_address":"45 Glenda Dr, Frankton, Queenstown 9371, New Zealand"}},{"business_url":"http:\/\/www.portaloo.co.nz","yp_url":"https:\/\/yellow.co.nz\/y\/hirepool-events-portables-cumberland?src=name","addrInfo":{"lat":-45.8837166,"lng":170.5023459,"street_number":"66","locality":"Dunedin","administrative_area_level_1":"Otago","country_code":"NZ","country":"New Zealand","postal_code":"9016","route":"66 Cumberland St","formatted_address":"66 Cumberland St, Dunedin, Dunedin 9016, New Zealand"}},{"business_url":"http:\/\/www.hirequipevents.co.nz\/events-types\/sanitation-and-waste","yp_url":"https:\/\/yellow.co.nz\/y\/hirepool-events-hei-hei?src=name","addrInfo":{"lat":-43.5381225,"lng":172.5325583,"street_number":"144","locality":"Christchurch","administrative_area_level_1":"Canterbury","country_code":"NZ","country":"New Zealand","postal_code":"8042","route":"144 Waterloo Rd","formatted_address":"144 Waterloo Rd, Hornby, Christchurch 8042, New Zealand"}},{"business_url":"http:\/\/www.theservice.co.nz","yp_url":"https:\/\/yellow.co.nz\/y\/service-company-sydney-street-20?src=name","addrInfo":{"lat":-41.2215428,"lng":174.8766922,"street_number":"70","locality":"Lower Hutt","administrative_area_level_1":"Wellington","country_code":"NZ","country":"New Zealand","postal_code":"5012","route":"70 Fitzherbert St","formatted_address":"70 Fitzherbert St, Petone, Lower Hutt 5012, New Zealand"}},{"business_url":"http:\/\/www.theservice.co.nz","yp_url":"https:\/\/yellow.co.nz\/y\/service-company-middleton?src=name","addrInfo":{"lat":-43.5376284,"lng":172.599589,"street_number":"125","locality":"Christchurch","administrative_area_level_1":"Canterbury","country_code":"NZ","country":"New Zealand","postal_code":"8041","route":"125 Blenheim Rd","formatted_address":"125 Blenheim Rd, Riccarton, Christchurch 8041, New Zealand"}},{"business_url":"http:\/\/www.theservice.co.nz","yp_url":"https:\/\/yellow.co.nz\/y\/service-company-2?src=name","addrInfo":{"lat":-41.2215428,"lng":174.8766922,"street_number":"70","locality":"Lower Hutt","administrative_area_level_1":"Wellington","country_code":"NZ","country":"New Zealand","postal_code":"5012","route":"70 Fitzherbert St","formatted_address":"70 Fitzherbert St, Petone, Lower Hutt 5012, New Zealand"}},{"business_url":"http:\/\/www.ecospringspools.co.nz\/","yp_url":"https:\/\/yellow.co.nz\/y\/eco-springs-pools?src=name","addrInfo":{"lat":-36.6175999,"lng":174.6780443,"street_number":"14","locality":"Silverdale","administrative_area_level_1":"Auckland","country_code":"NZ","country":"New Zealand","postal_code":"0932","route":"14 Agency Ln","formatted_address":"14 Agency Ln, Silverdale 0932, New Zealand"}}]