[{"business_url":"http:\/\/www.rentons.co.nz","yp_url":"https:\/\/yellow.co.nz\/y\/renton-motors-1976-kaikohe?src=name","addrInfo":{"lat":-35.40712,"lng":173.7994287,"street_number":"3","locality":"Kaikohe","administrative_area_level_1":"Northland","country_code":"NZ","country":"New Zealand","postal_code":"0405","route":"3 Clifford St","formatted_address":"3 Clifford St, Kaikohe 0405, New Zealand"}},{"business_url":"http:\/\/www.pacificmotorgroup.co.nz","yp_url":"https:\/\/yellow.co.nz\/y\/suzuki-porowini-avenue?src=name","addrInfo":{"lat":-35.7325643,"lng":174.322421,"street_number":"70","locality":"Whangarei","administrative_area_level_1":"Northland","country_code":"NZ","country":"New Zealand","postal_code":"0110","route":"70 Porowini Ave","formatted_address":"70 Porowini Ave, Morningside, Whangarei 0110, New Zealand"}},{"business_url":"http:\/\/www.haurakiplainsmotors.co.nz","yp_url":"https:\/\/yellow.co.nz\/y\/hauraki-plains-motors?src=name","addrInfo":{"lat":-37.2757146,"lng":175.4886422,"street_number":"1","locality":"Ngatea","administrative_area_level_1":"Waikato","country_code":"NZ","country":"New Zealand","postal_code":"3503","route":"1 Pipiroa Rd","formatted_address":"1 Pipiroa Rd, Ngatea 3503, New Zealand"}},{"business_url":"http:\/\/www.mobilitymanawatu.co.nz","yp_url":"https:\/\/yellow.co.nz\/y\/mobility-manawatu?src=name","addrInfo":{"lat":-40.3470141,"lng":175.6271435,"street_number":"222","locality":"Palmerston North","administrative_area_level_1":"Manawatu-Wanganui","country_code":"NZ","country":"New Zealand","postal_code":"4414","route":"222 Ruahine St","formatted_address":"222 Ruahine St, Roslyn, Palmerston North 4414, New Zealand"}},{"business_url":"http:\/\/www.plasticrepairchristchurch.co.nz\/","yp_url":"https:\/\/yellow.co.nz\/y\/plastec-plastic-repair-clinic?src=name","addrInfo":{"lat":-43.5461611,"lng":172.6429214,"street_number":"28","locality":"Christchurch","administrative_area_level_1":"Canterbury","country_code":"NZ","country":"New Zealand","postal_code":"8023","route":"28 Gasson St","formatted_address":"28 Gasson St, Sydenham, Christchurch 8023, New Zealand"}},{"business_url":"http:\/\/www.msford.co.nz","yp_url":"https:\/\/yellow.co.nz\/y\/ms-ford-service-lane?src=name","addrInfo":{"lat":-41.2667262,"lng":173.2763076,"street_number":"157","locality":"Nelson","administrative_area_level_1":"Nelson","country_code":"NZ","country":"New Zealand","postal_code":"7010","route":"157 Haven Rd","formatted_address":"157 Haven Rd, Beachville, Nelson 7010, New Zealand"}}]