[{"business_url":"http:\/\/www.arcsecuritysolutions.co.nz","yp_url":"https:\/\/yellow.co.nz\/y\/arc-security-solutions?src=name","addrInfo":{"lat":-35.683226,"lng":174.2992554,"street_number":"1E","locality":"Whangarei","administrative_area_level_1":"Northland","country_code":"NZ","country":"New Zealand","postal_code":"0112","route":"1E Clark Rd","formatted_address":"1E Clark Rd, Kamo, Whangarei 0112, New Zealand"}},{"business_url":"http:\/\/www.sutherlandsecurity.co.nz","yp_url":"https:\/\/yellow.co.nz\/y\/sutherland-security-centre?src=name","addrInfo":{"lat":-35.7412892,"lng":174.3332107,"street_number":"17","locality":"Whangarei","administrative_area_level_1":"Northland","country_code":"NZ","country":"New Zealand","postal_code":"0110","route":"17 Kioreroa Rd","formatted_address":"17 Kioreroa Rd, Port Whangarei, Whangarei 0110, New Zealand"}},{"business_url":"http:\/\/www.firstsecurity.co.nz","yp_url":"https:\/\/yellow.co.nz\/y\/first-security-guard-mount?src=name","addrInfo":{"lat":-36.9164669,"lng":174.8460708,"street_number":"2","locality":"Auckland","administrative_area_level_1":"Auckland","country_code":"NZ","country":"New Zealand","postal_code":"1060","route":"2 Arthur Brown Pl","formatted_address":"2 Arthur Brown Pl, Mount Wellington, Auckland 1060, New Zealand"}},{"business_url":"http:\/\/www.watchdog.co.nz","yp_url":"https:\/\/yellow.co.nz\/y\/watchdog-security-services?src=name","addrInfo":{"lat":-38.1378568,"lng":176.2480298,"street_number":"1274","locality":"Rotorua","administrative_area_level_1":"Bay Of Plenty","country_code":"NZ","country":"New Zealand","postal_code":"3010","route":"1274 Hinemoa St","formatted_address":"1274 Hinemoa St, Rotorua 3010, New Zealand"}},{"business_url":"http:\/\/www.prestigeprotection.co.nz","yp_url":"https:\/\/yellow.co.nz\/y\/prestige-protection-prestige?src=name","addrInfo":{"lat":-36.8612669,"lng":174.7494539,"street_number":"11","locality":"Auckland","administrative_area_level_1":"Auckland","country_code":"NZ","country":"New Zealand","postal_code":"1021","route":"11 Mackelvie St","formatted_address":"9\/11 Mackelvie St, Grey Lynn, Auckland 1021, New Zealand"}},{"business_url":"http:\/\/www.24-7security.net.nz","yp_url":"https:\/\/yellow.co.nz\/y\/247-security-services-great?src=name","addrInfo":{"lat":-36.9088743,"lng":174.6804404,"street_number":"3097","locality":"Auckland","administrative_area_level_1":"Auckland","country_code":"NZ","country":"New Zealand","postal_code":"0600","route":"3097 Great North Rd","formatted_address":"3097 Great North Rd, New Lynn, Auckland 0600, New Zealand"}},{"business_url":"http:\/\/www.onguard.co.nz","yp_url":"https:\/\/yellow.co.nz\/y\/on-guard-security-solutions?src=name","addrInfo":{"lat":-37.788803,"lng":175.2688483,"street_number":"34","locality":"Hamilton","administrative_area_level_1":"Waikato","country_code":"NZ","country":"New Zealand","postal_code":"3204","route":"34 Somerset St","formatted_address":"34 Somerset St, Frankton, Hamilton 3204, New Zealand"}},{"business_url":"http:\/\/www.laserelectrical.co.nz\/m\/electrician-whangamata","yp_url":"https:\/\/yellow.co.nz\/y\/laser-electrical-aiken-road?src=name","addrInfo":{"lat":-37.2014471,"lng":175.8659464,"street_number":"318","locality":"Whangamata","administrative_area_level_1":"Waikato","country_code":"NZ","country":"New Zealand","postal_code":"3620","route":"318 Aickin Rd","formatted_address":"318 Aickin Rd, Whangamata 3620, New Zealand"}},{"business_url":"http:\/\/www.guardsman.co.nz","yp_url":"https:\/\/yellow.co.nz\/y\/guardsman-security-services?src=name","addrInfo":{"lat":-36.9128772,"lng":174.8490402,"street_number":"8D","locality":"Auckland","administrative_area_level_1":"Auckland","country_code":"NZ","country":"New Zealand","postal_code":"1060","route":"8D Donnor Pl","formatted_address":"8D Donnor Pl, Mount Wellington, Auckland 1060, New Zealand"}},{"business_url":"http:\/\/www.bishopward.co.nz","yp_url":"https:\/\/yellow.co.nz\/y\/bishop-ward-electrical?src=name","addrInfo":{"lat":-38.6874945,"lng":176.1043544,"street_number":"10","locality":"Taupo","administrative_area_level_1":"Waikato","country_code":"NZ","country":"New Zealand","postal_code":"3330","route":"10 Matai St","formatted_address":"2\/10 Matai St, Tauhara, Taupo 3330, New Zealand"}},{"business_url":"http:\/\/www.securityco.co.nz","yp_url":"https:\/\/yellow.co.nz\/y\/security-company?src=name","addrInfo":{"lat":-36.7478743,"lng":174.7306965,"street_number":"7","locality":"Auckland","administrative_area_level_1":"Auckland","country_code":"NZ","country":"New Zealand","postal_code":"0632","route":"7 Vega Pl","formatted_address":"7 Vega Pl, Rosedale, Auckland 0632, New Zealand"}},{"business_url":"http:\/\/www.adtsecurity.co.nz","yp_url":"https:\/\/yellow.co.nz\/y\/adt-security-te-rapa?src=name","addrInfo":{"lat":-37.7580041,"lng":175.2502332,"street_number":"27","locality":"Hamilton","administrative_area_level_1":"Waikato","country_code":"NZ","country":"New Zealand","postal_code":"3200","route":"27 Euclid Ave","formatted_address":"27 Euclid Ave, Te Rapa, Hamilton 3200, New Zealand"}},{"business_url":"http:\/\/www.fortlock.co.nz","yp_url":"https:\/\/yellow.co.nz\/y\/fortlock-security-systems-2008?src=name","addrInfo":{"lat":-36.9186445,"lng":174.8052359,"street_number":"4","locality":"Auckland","administrative_area_level_1":"Auckland","country_code":"NZ","country":"New Zealand","postal_code":"1061","route":"4 Henderson Pl","formatted_address":"4 Henderson Pl, Onehunga, Auckland 1061, New Zealand"}},{"business_url":"http:\/\/www.zanden.co.nz","yp_url":"https:\/\/yellow.co.nz\/y\/zanden-locksmiths-security?src=name","addrInfo":{"lat":-37.6594866,"lng":176.2024265,"street_number":"75","locality":"Tauranga","administrative_area_level_1":"Bay Of Plenty","country_code":"NZ","country":"New Zealand","postal_code":"3116","route":"75 Newton St","formatted_address":"75 Newton St, Mount Maunganui, Tauranga 3116, New Zealand"}},{"business_url":"http:\/\/www.ezygate.co.nz","yp_url":"https:\/\/yellow.co.nz\/y\/gate-automation?src=name","addrInfo":{"lat":-36.9446796,"lng":174.8803802,"street_number":"5E","locality":"Auckland","administrative_area_level_1":"Auckland","country_code":"NZ","country":"New Zealand","postal_code":"2013","route":"5E Lorien Pl","formatted_address":"5E Lorien Pl, East Tamaki, Auckland 2013, New Zealand"}},{"business_url":"http:\/\/www.guardsman.co.nz","yp_url":"https:\/\/yellow.co.nz\/y\/guardsman-security-mount-wellington?src=name","addrInfo":{"lat":-36.9128772,"lng":174.8490402,"street_number":"8D","locality":"Auckland","administrative_area_level_1":"Auckland","country_code":"NZ","country":"New Zealand","postal_code":"1060","route":"8D Donnor Pl","formatted_address":"8D Donnor Pl, Mount Wellington, Auckland 1060, New Zealand"}}]