[{"business_url":"http:\/\/www.homeplus.co.nz","yp_url":"https:\/\/yellow.co.nz\/y\/homeplus-northland-albert-street-3?src=name","addrInfo":{"lat":-35.7284111,"lng":174.3238756,"street_number":"34","locality":"Whangarei","administrative_area_level_1":"Northland","country_code":"NZ","country":"New Zealand","postal_code":"0110","route":"34 Albert St","formatted_address":"34 Albert St, Whangarei, Whangarei 0110, New Zealand"}},{"business_url":"http:\/\/www.a1budget.co.nz","yp_url":"https:\/\/yellow.co.nz\/y\/a1-budget-locksmiths-fiona?src=name","addrInfo":{"lat":-37.7991022,"lng":175.239249,"street_number":"5","locality":"Hamilton","administrative_area_level_1":"Waikato","country_code":"NZ","country":"New Zealand","postal_code":"3204","route":"5 Fiona Pl","formatted_address":"5 Fiona Pl, Dinsdale, Hamilton 3204, New Zealand"}},{"business_url":"http:\/\/www.sunray.co.nz\/","yp_url":"https:\/\/yellow.co.nz\/y\/sunray-products-waihi-kenny?src=name","addrInfo":{"lat":-37.3914956,"lng":175.8434615,"street_number":"71","locality":"Waihi","administrative_area_level_1":"Waikato","country_code":"NZ","country":"New Zealand","postal_code":"3610","route":"71 Kenny St","formatted_address":"71 Kenny St, Waihi 3610, New Zealand"}},{"business_url":"http:\/\/www.alexisit.co.nz\/services.html","yp_url":"https:\/\/yellow.co.nz\/y\/alexis-infotech-management-hamilton?src=name","addrInfo":{"lat":-37.7885756,"lng":175.2688019,"street_number":"34A-34D","locality":"Hamilton","administrative_area_level_1":"Waikato","country_code":"NZ","country":"New Zealand","postal_code":"3204","route":"34A-34D Somerset St","formatted_address":"34A-34D Somerset St, Frankton, Hamilton 3204, New Zealand"}},{"business_url":"http:\/\/www.cctv-auckland.com","yp_url":"https:\/\/yellow.co.nz\/y\/kiwi-antennas-west?src=name","addrInfo":{"lat":-36.811251,"lng":174.6360947,"street_number":"38","locality":"Auckland","administrative_area_level_1":"Auckland","country_code":"NZ","country":"New Zealand","postal_code":"0618","route":"38 Whiting Grove","formatted_address":"38 Whiting Grove, West Harbour, Auckland 0618, New Zealand"}},{"business_url":"http:\/\/www.simmsautoelectrical.co.nz","yp_url":"https:\/\/yellow.co.nz\/y\/simms-electrical-services-penrose?src=name","addrInfo":{"lat":-36.9186263,"lng":174.8244844,"street_number":"440","locality":"Auckland","administrative_area_level_1":"Auckland","country_code":"NZ","country":"New Zealand","postal_code":"1061","route":"440 Church St E","formatted_address":"440 Church St E, Penrose, Auckland 1061, New Zealand"}},{"business_url":"http:\/\/nexusbusinesssolutions.co.nz\/","yp_url":"https:\/\/yellow.co.nz\/y\/nexus-business-solutions?src=name","addrInfo":{"lat":-36.9040457,"lng":174.8095951,"street_number":"694","locality":"Auckland","administrative_area_level_1":"Auckland","country_code":"NZ","country":"New Zealand","postal_code":"1061","route":"694 Great South Rd","formatted_address":"694 Great South Rd, Penrose, Auckland 1061, New Zealand"}},{"business_url":"http:\/\/www.homeplus.co.nz","yp_url":"https:\/\/yellow.co.nz\/y\/homeplus-waikato-frankton?src=name","addrInfo":{"lat":-37.7917528,"lng":175.2634786,"street_number":"3","locality":"Hamilton","administrative_area_level_1":"Waikato","country_code":"NZ","country":"New Zealand","postal_code":"3204","route":"3 Bandon St","formatted_address":"3 Bandon St, Frankton, Hamilton 3204, New Zealand"}},{"business_url":"http:\/\/www.weathermasterpn.co.nz","yp_url":"https:\/\/yellow.co.nz\/y\/wearmaster-palmerston-north?src=name","addrInfo":{"lat":-40.3413199,"lng":175.60696,"street_number":"656","locality":"Palmerston North","administrative_area_level_1":"Manawatu-Wanganui","country_code":"NZ","country":"New Zealand","postal_code":"4410","route":"656 Tremaine Ave","formatted_address":"656 Tremaine Ave, Palmerston North, Palmerston North 4410, New Zealand"}},{"business_url":"http:\/\/www.autosound.co.nz\/","yp_url":"https:\/\/yellow.co.nz\/y\/auto-sound-security-cnr?src=name","addrInfo":{"lat":-43.5454869,"lng":172.6422631,"street_number":"37","locality":"Christchurch","administrative_area_level_1":"Canterbury","country_code":"NZ","country":"New Zealand","postal_code":"8023","route":"37 Gasson St","formatted_address":"37 Gasson St, Sydenham, Christchurch 8023, New Zealand"}},{"business_url":"http:\/\/sis-ltd.co.nz","yp_url":"https:\/\/yellow.co.nz\/y\/security-installation-services-cloverlea?src=name","addrInfo":{"lat":-40.3404567,"lng":175.594408,"street_number":"6","locality":"Palmerston North","administrative_area_level_1":"Manawatu-Wanganui","country_code":"NZ","country":"New Zealand","postal_code":"4412","route":"6 Bisley St","formatted_address":"6 Bisley St, Cloverlea, Palmerston North 4412, New Zealand"}},{"business_url":"http:\/\/www.pomss.co.nz","yp_url":"https:\/\/yellow.co.nz\/y\/peace-of-mind-security?src=name","addrInfo":{"lat":-41.0810933,"lng":175.4592891,"street_number":"130","locality":"Greytown","administrative_area_level_1":"Wellington","country_code":"NZ","country":"New Zealand","postal_code":"5712","route":"130 Main St","formatted_address":"130 Main St, Greytown 5712, New Zealand"}},{"business_url":"http:\/\/www.pomss.co.nz","yp_url":"https:\/\/yellow.co.nz\/y\/peace-of-mind-security-screens?src=name","addrInfo":{"lat":-41.1241632,"lng":175.0790605,"street_number":"34","locality":"Upper Hutt","administrative_area_level_1":"Wellington","country_code":"NZ","country":"New Zealand","postal_code":"5018","route":"34 Park St","formatted_address":"34 Park St, Kingsley Heights, Upper Hutt 5018, New Zealand"}},{"business_url":"http:\/\/www.weathermaster.co.nz","yp_url":"https:\/\/yellow.co.nz\/y\/wearmaster?src=name","addrInfo":{"lat":-39.4978679,"lng":176.8780802,"street_number":"100","locality":"Napier","administrative_area_level_1":"Hawke's Bay","country_code":"NZ","country":"New Zealand","postal_code":"4110","route":"100 Austin St","formatted_address":"100 Austin St, Onekawa, Napier 4110, New Zealand"}},{"business_url":"http:\/\/www.homeplus.co.nz","yp_url":"https:\/\/yellow.co.nz\/y\/homeplus-grey-street-2?src=name","addrInfo":{"lat":-38.66051,"lng":178.0175315,"street_number":"390","locality":"Gisborne","administrative_area_level_1":"Gisborne","country_code":"NZ","country":"New Zealand","postal_code":"4010","route":"390 Gladstone Rd","formatted_address":"390 Gladstone Rd, Gisborne, Gisborne 4010, New Zealand"}},{"business_url":"http:\/\/www.ansinandmonteith.co.nz","yp_url":"https:\/\/yellow.co.nz\/y\/ansin-monteith-2005?src=name","addrInfo":{"lat":-39.6394854,"lng":176.848813,"street_number":"508A","locality":"Hastings","administrative_area_level_1":"Hawke's Bay","country_code":"NZ","country":"New Zealand","postal_code":"4122","route":"508A Karamu Rd N","formatted_address":"508A Karamu Rd N, Hastings, Hastings 4122, New Zealand"}},{"business_url":"http:\/\/www.homeplus.co.nz","yp_url":"https:\/\/yellow.co.nz\/y\/homeplus-wellington-alicetown?src=name","addrInfo":{"lat":-41.2142472,"lng":174.8949707,"street_number":"60A","locality":"Lower Hutt","administrative_area_level_1":"Wellington","country_code":"NZ","country":"New Zealand","postal_code":"5010","route":"60A Victoria St","formatted_address":"60A Victoria St, Alicetown, Lower Hutt 5010, New Zealand"}},{"business_url":"http:\/\/www.homeplus.co.nz","yp_url":"https:\/\/yellow.co.nz\/y\/homeplus-timaru?src=name","addrInfo":{"lat":-44.351459,"lng":171.2322071,"street_number":"11","locality":"Timaru","administrative_area_level_1":"Canterbury","country_code":"NZ","country":"New Zealand","postal_code":"7910","route":"11 Martin St","formatted_address":"11 Martin St, Washdyke, Timaru 7910, New Zealand"}},{"business_url":"http:\/\/www.homeplus.co.nz","yp_url":"https:\/\/yellow.co.nz\/y\/homeplus-blenheim?src=name","addrInfo":{"lat":-41.5103637,"lng":173.9588593,"street_number":"10","locality":"Blenheim","administrative_area_level_1":"Marlborough","country_code":"NZ","country":"New Zealand","postal_code":"7201","route":"10 Grove Rd","formatted_address":"10 Grove Rd, Mayfield, Blenheim 7201, New Zealand"}}]