[{"business_url":"http:\/\/www.totalspan.co.nz","yp_url":"https:\/\/yellow.co.nz\/y\/totalspan-steel-north-road?src=name","addrInfo":{"lat":-35.0954813,"lng":173.2570956,"street_number":"138","locality":"Kaitaia","administrative_area_level_1":"Northland","country_code":"NZ","country":"New Zealand","postal_code":"0482","route":"138 North Rd","formatted_address":"138 North Rd, Kaitaia 0482, New Zealand"}},{"business_url":"http:\/\/www.versatile.co.nz","yp_url":"https:\/\/yellow.co.nz\/y\/versatile-homes-and-waipapa?src=name","addrInfo":{"lat":-35.2071464,"lng":173.9271627,"street_number":"331","locality":"Waipapa","administrative_area_level_1":"Northland","country_code":"NZ","country":"New Zealand","postal_code":"0295","route":"331 Waipapa Rd","formatted_address":"331 Waipapa Rd, Waipapa 0295, New Zealand"}},{"business_url":"http:\/\/www.bettershedz.co.nz","yp_url":"https:\/\/yellow.co.nz\/y\/bettershedz-puketona?src=name","addrInfo":{"lat":-35.3017365,"lng":173.9618479,"street_number":"1258","locality":"Oromahoe","administrative_area_level_1":"Northland","country_code":"NZ","country":"New Zealand","postal_code":"0293","route":"1258 Black Bridge Rd","formatted_address":"3\/1258 Black Bridge Rd, Oromahoe 0293, New Zealand"}},{"business_url":"http:\/\/www.totalspan.co.nz","yp_url":"https:\/\/yellow.co.nz\/y\/totalspan-steel-buildings-kerikeri?src=name","addrInfo":{"lat":-35.2696302,"lng":173.9417466,"street_number":"1235","locality":"Kerikeri","administrative_area_level_1":"Northland","country_code":"NZ","country":"New Zealand","postal_code":"0293","route":"1235 State Highway 10","formatted_address":"1235 State Highway 10, Kerikeri 0293, New Zealand"}},{"business_url":"http:\/\/www.roddouglasconstruction.co.nz","yp_url":"https:\/\/yellow.co.nz\/y\/rod-douglas-construction-gumdigger?src=name","addrInfo":{"lat":-35.7508964,"lng":174.3129735,"street_number":"14","locality":"Whangarei","administrative_area_level_1":"Northland","country_code":"NZ","country":"New Zealand","postal_code":"0110","route":"14 Gumdigger Pl","formatted_address":"14 Gumdigger Pl, Raumanga, Whangarei 0110, New Zealand"}},{"business_url":"http:\/\/www.versatile.co.nz","yp_url":"https:\/\/yellow.co.nz\/y\/versatile-homes-and-port?src=name","addrInfo":{"lat":-35.7484223,"lng":174.30903,"street_number":"3","locality":"Whangarei","administrative_area_level_1":"Northland","country_code":"NZ","country":"New Zealand","postal_code":"0110","route":"3 Southend Ave","formatted_address":"3 Southend Ave, Raumanga, Whangarei 0110, New Zealand"}},{"business_url":"http:\/\/www.skylinegarages.co.nz","yp_url":"https:\/\/yellow.co.nz\/y\/skyline-buildings-morningside?src=name","addrInfo":{"lat":-35.7316406,"lng":174.3200236,"street_number":"38A","locality":"Whangarei","administrative_area_level_1":"Northland","country_code":"NZ","country":"New Zealand","postal_code":"0110","route":"38A Porowini Ave","formatted_address":"38A Porowini Ave, Morningside, Whangarei 0110, New Zealand"}},{"business_url":"http:\/\/www.skylinegarages.co.nz","yp_url":"https:\/\/yellow.co.nz\/y\/skyline-buildings-normanby?src=name","addrInfo":{"lat":-35.9432263,"lng":173.8665872,"street_number":"14","locality":"Dargaville","administrative_area_level_1":"Northland","country_code":"NZ","country":"New Zealand","postal_code":"0310","route":"14 Normanby St","formatted_address":"14 Normanby St, Dargaville 0310, New Zealand"}},{"business_url":"http:\/\/steelshedshamilton.co.nz","yp_url":"https:\/\/yellow.co.nz\/y\/steel-shed-systems-central?src=name","addrInfo":{"lat":-35.727371,"lng":174.315942,"street_number":"3","locality":"Whangarei","administrative_area_level_1":"Northland","country_code":"NZ","country":"New Zealand","postal_code":"0110","route":"3 Central Ave","formatted_address":"3 Central Ave, Avenues, Whangarei 0110, New Zealand"}},{"business_url":"http:\/\/www.totalspan.co.nz","yp_url":"https:\/\/yellow.co.nz\/y\/totalspan-steel-buildings-maungakaramea?src=name","addrInfo":{"lat":-35.7944529,"lng":174.2948248,"street_number":"780","locality":"Puwera","administrative_area_level_1":"Northland","country_code":"NZ","country":"New Zealand","postal_code":"0178","route":"780 State Highway 1","formatted_address":"780 State Highway 1, Puwera 0178, New Zealand"}}]