[{"business_url":"http:\/\/www.rossinsulation.co.nz\/","yp_url":"https:\/\/yellow.co.nz\/y\/ross-insulation?src=name","addrInfo":{"lat":-35.7436814,"lng":174.3447084,"street_number":"265","locality":"Whangarei","administrative_area_level_1":"Northland","country_code":"NZ","country":"New Zealand","postal_code":"0110","route":"265 Port Rd","formatted_address":"265 Port Rd, Port Whangarei, Whangarei 0110, New Zealand"}},{"business_url":"http:\/\/www.trufold.co.nz","yp_url":"https:\/\/yellow.co.nz\/y\/tru-fold-tauranga?src=name","addrInfo":{"lat":-37.7350987,"lng":176.128449,"street_number":"120","locality":"Tauranga","administrative_area_level_1":"Bay Of Plenty","country_code":"NZ","country":"New Zealand","postal_code":"3112","route":"120 Maleme St","formatted_address":"120 Maleme St, Greerton, Tauranga 3112, New Zealand"}},{"business_url":"http:\/\/www.marshalls.co.nz","yp_url":"https:\/\/yellow.co.nz\/y\/marshall-industries?src=name","addrInfo":{"lat":-46.4147655,"lng":168.3398321,"street_number":"189","locality":"Invercargill","administrative_area_level_1":"Southland","country_code":"NZ","country":"New Zealand","postal_code":"9810","route":"189 Bond St","formatted_address":"189 Bond St, West Invercargill, Invercargill 9810, New Zealand"}},{"business_url":"http:\/\/www.ggdon.co.nz","yp_url":"https:\/\/yellow.co.nz\/y\/gg-don?src=name","addrInfo":{"lat":-43.4744766,"lng":172.609914,"street_number":"73","locality":"Christchurch","administrative_area_level_1":"Canterbury","country_code":"NZ","country":"New Zealand","postal_code":"8051","route":"73 Sturrocks Rd","formatted_address":"73 Sturrocks Rd, Casebrook, Christchurch 8051, New Zealand"}},{"business_url":"http:\/\/www.nzroofing.co.nz","yp_url":"https:\/\/yellow.co.nz\/y\/idiens-sheetmetal?src=name","addrInfo":{"lat":-43.5345401,"lng":172.6514439,"street_number":"7","locality":"Christchurch","administrative_area_level_1":"Canterbury","country_code":"NZ","country":"New Zealand","postal_code":"8011","route":"7 Livingstone St","formatted_address":"7 Livingstone St, Phillipstown, Christchurch 8011, New Zealand"}},{"business_url":"http:\/\/www.pyers.co.nz","yp_url":"https:\/\/yellow.co.nz\/y\/pyers-services-psl?src=name","addrInfo":{"lat":-41.2750653,"lng":173.2765017,"street_number":"16","locality":"Nelson","administrative_area_level_1":"Nelson","country_code":"NZ","country":"New Zealand","postal_code":"7010","route":"16 Natalie St","formatted_address":"16 Natalie St, Toi Toi, Nelson 7010, New Zealand"}},{"business_url":"http:\/\/www.morganplumbing.co.nz","yp_url":"https:\/\/yellow.co.nz\/y\/morgan-plumbing-springlands?src=name","addrInfo":{"lat":-41.5102423,"lng":173.93986,"street_number":"11","locality":"Blenheim","administrative_area_level_1":"Marlborough","country_code":"NZ","country":"New Zealand","postal_code":"7201","route":"11 Purkiss St","formatted_address":"11 Purkiss St, Springlands, Blenheim 7201, New Zealand"}},{"business_url":"http:\/\/www.brockelsby.co.nz","yp_url":"https:\/\/yellow.co.nz\/y\/brockelsby-plumbing-gasfitting?src=name","addrInfo":{"lat":-41.2321014,"lng":174.8914005,"street_number":"10","locality":"Lower Hutt","administrative_area_level_1":"Wellington","country_code":"NZ","country":"New Zealand","postal_code":"5012","route":"10 Waione St","formatted_address":"10 Waione St, Petone, Lower Hutt 5012, New Zealand"}},{"business_url":"http:\/\/www.bennettsplumbers.co.nz","yp_url":"https:\/\/yellow.co.nz\/y\/bennetts-plumbers?src=name","addrInfo":{"lat":-41.2741896,"lng":173.2783881,"street_number":"48","locality":"Nelson","administrative_area_level_1":"Nelson","country_code":"NZ","country":"New Zealand","postal_code":"7010","route":"48 Vanguard St","formatted_address":"48 Vanguard St, Nelson, Nelson 7010, New Zealand"}},{"business_url":"http:\/\/www.cartertonplumbers.co.nz","yp_url":"https:\/\/yellow.co.nz\/y\/carterton-plumbers?src=name","addrInfo":{"lat":-41.0751093,"lng":175.5622143,"street_number":"253","locality":"Kokotau","administrative_area_level_1":"Wellington","country_code":"NZ","country":"New Zealand","postal_code":"5792","route":"253 Kokotau Rd","formatted_address":"2\/253 Kokotau Rd, Kokotau 5792, New Zealand"}},{"business_url":"http:\/\/www.blackmorefencing.co.nz","yp_url":"https:\/\/yellow.co.nz\/y\/blackmore-fencing-blenheim?src=name","addrInfo":{"lat":-41.472033,"lng":173.9021115,"street_number":"358","locality":"Rapaura","administrative_area_level_1":"Marlborough","country_code":"NZ","country":"New Zealand","postal_code":"7273","route":"358 Hammerichs Rd","formatted_address":"358 Hammerichs Rd, Rapaura 7273, New Zealand"}}]