[{"business_url":"http:\/\/www.uit.co.nz","yp_url":"https:\/\/yellow.co.nz\/y\/uit?src=name","addrInfo":{"lat":-35.7276447,"lng":174.3259773,"street_number":"9","locality":"Whangarei","administrative_area_level_1":"Northland","country_code":"NZ","country":"New Zealand","postal_code":"0110","route":"9 Reyburn St","formatted_address":"7\/9 Reyburn St, Whangarei, Whangarei 0110, New Zealand"}},{"business_url":"http:\/\/www.fishcity.co.nz","yp_url":"https:\/\/yellow.co.nz\/y\/fish-city-hamilton?src=name","addrInfo":{"lat":-37.8059569,"lng":175.261498,"street_number":"265","locality":"Hamilton","administrative_area_level_1":"Waikato","country_code":"NZ","country":"New Zealand","postal_code":"3204","route":"265 Kahikatea Dr","formatted_address":"265 Kahikatea Dr, Frankton, Hamilton 3204, New Zealand"}},{"business_url":"http:\/\/www.fullframe.co.nz","yp_url":"https:\/\/yellow.co.nz\/y\/full-frame-photography?src=name","addrInfo":{"lat":-38.1066178,"lng":176.2396792,"street_number":"49","locality":"Rotorua","administrative_area_level_1":"Bay Of Plenty","country_code":"NZ","country":"New Zealand","postal_code":"3010","route":"49 Grand Vue Rd","formatted_address":"49 Grand Vue Rd, Kawaha Point, Rotorua 3010, New Zealand"}},{"business_url":"http:\/\/www.arrow-lighting.co.nz","yp_url":"https:\/\/yellow.co.nz\/y\/arrow-automation-mount?src=name","addrInfo":{"lat":-36.9283284,"lng":174.8338466,"street_number":"1066","locality":"Auckland","administrative_area_level_1":"Auckland","country_code":"NZ","country":"New Zealand","postal_code":"1060","route":"1066 Great South Rd","formatted_address":"1066 Great South Rd, Mount Wellington, Auckland 1060, New Zealand"}},{"business_url":"http:\/\/www.grantjohnstone.co.nz","yp_url":"https:\/\/yellow.co.nz\/y\/grant-johnstone-nissan-rotorua?src=name","addrInfo":{"lat":-38.1229335,"lng":176.2292347,"street_number":"26","locality":"Rotorua","administrative_area_level_1":"Bay Of Plenty","country_code":"NZ","country":"New Zealand","postal_code":"3015","route":"26 Fairy Springs Rd","formatted_address":"26 Fairy Springs Rd, Fairy Springs, Rotorua 3015, New Zealand"}},{"business_url":"http:\/\/www.rockup.co.nz","yp_url":"https:\/\/yellow.co.nz\/y\/rockup-hunua?src=name","addrInfo":{"lat":-37.0822985,"lng":175.0868537,"street_number":"35","locality":"Hunua","administrative_area_level_1":"Auckland","country_code":"NZ","country":"New Zealand","postal_code":"2583","route":"35 Wattie Rd","formatted_address":"3\/35 Wattie Rd, Hunua 2583, New Zealand"}},{"business_url":"http:\/\/www.pacificsawmilleng.com","yp_url":"https:\/\/yellow.co.nz\/y\/pacific-sawmill-engineering?src=name","addrInfo":{"lat":-37.6984802,"lng":176.1471088,"street_number":"17","locality":"Tauranga","administrative_area_level_1":"Bay Of Plenty","country_code":"NZ","country":"New Zealand","postal_code":"3110","route":"17 Barberry St","formatted_address":"17 Barberry St, Judea, Tauranga 3110, New Zealand"}},{"business_url":"http:\/\/www.archerydirect.co.nz","yp_url":"https:\/\/yellow.co.nz\/y\/archery-direct?src=name","addrInfo":{"lat":-37.7398309,"lng":175.2280335,"street_number":"18","locality":"Hamilton","administrative_area_level_1":"Waikato","country_code":"NZ","country":"New Zealand","postal_code":"3200","route":"18 Maui St","formatted_address":"18 Maui St, Pukete, Hamilton 3200, New Zealand"}},{"business_url":"http:\/\/www.rockup.co.nz","yp_url":"https:\/\/yellow.co.nz\/y\/rockup-mobile-rockclimbing-wall?src=name","addrInfo":{"lat":-37.0822985,"lng":175.0868537,"street_number":"35","locality":"Hunua","administrative_area_level_1":"Auckland","country_code":"NZ","country":"New Zealand","postal_code":"2583","route":"35 Wattie Rd","formatted_address":"3\/35 Wattie Rd, Hunua 2583, New Zealand"}},{"business_url":"http:\/\/www.rockup.co.nz","yp_url":"https:\/\/yellow.co.nz\/y\/rockup-adventure-team-hunua?src=name","addrInfo":{"lat":-37.0822985,"lng":175.0868537,"street_number":"35","locality":"Hunua","administrative_area_level_1":"Auckland","country_code":"NZ","country":"New Zealand","postal_code":"2583","route":"35 Wattie Rd","formatted_address":"3\/35 Wattie Rd, Hunua 2583, New Zealand"}},{"business_url":"http:\/\/www.redalertpaintball.co.nz","yp_url":"https:\/\/yellow.co.nz\/y\/red-alert-paintball?src=name","addrInfo":{"lat":-36.9868983,"lng":175.0195082,"street_number":"123","locality":"Auckland","administrative_area_level_1":"Auckland","country_code":"NZ","country":"New Zealand","postal_code":"2582","route":"123 Twilight Rd","formatted_address":"123 Twilight Rd, Clevedon, Auckland 2582, New Zealand"}},{"business_url":"http:\/\/www.aoteaelectric.co.nz","yp_url":"https:\/\/yellow.co.nz\/y\/aotea-electric-sourn?src=name","addrInfo":{"lat":-45.8954782,"lng":170.503858,"street_number":"23","locality":"Dunedin","administrative_area_level_1":"Otago","country_code":"NZ","country":"New Zealand","postal_code":"9012","route":"23 Macandrew Rd","formatted_address":"23 Macandrew Rd, South Dunedin, Dunedin 9012, New Zealand"}},{"business_url":"http:\/\/aoteaelectric.co.nz","yp_url":"https:\/\/yellow.co.nz\/y\/aotea-timaru?src=name","addrInfo":{"lat":-44.3910009,"lng":171.2212197,"street_number":"277","locality":"Timaru","administrative_area_level_1":"Canterbury","country_code":"NZ","country":"New Zealand","postal_code":"7910","route":"277 Otipua Rd","formatted_address":"277 Otipua Rd, Highfield, Timaru 7910, New Zealand"}},{"business_url":"http:\/\/www.absfit.co.nz","yp_url":"https:\/\/yellow.co.nz\/y\/absolute-health-fitness?src=name","addrInfo":{"lat":-45.8955125,"lng":170.5007991,"street_number":"250","locality":"Dunedin","administrative_area_level_1":"Otago","country_code":"NZ","country":"New Zealand","postal_code":"9012","route":"250 King Edward St","formatted_address":"250 King Edward St, South Dunedin, Dunedin 9012, New Zealand"}},{"business_url":"http:\/\/willisyork.co.nz","yp_url":"https:\/\/yellow.co.nz\/y\/willis-york-hairdressing?src=name","addrInfo":{"lat":-41.2954732,"lng":174.7774753,"street_number":"119","locality":"Wellington","administrative_area_level_1":"Wellington","country_code":"NZ","country":"New Zealand","postal_code":"6011","route":"119 Taranaki St","formatted_address":"119 Taranaki St, Te Aro, Wellington 6011, New Zealand"}}]