[{"business_url":"http:\/\/www.poolwarehouse.co.nz","yp_url":"https:\/\/yellow.co.nz\/y\/pool-warehouse?src=name","addrInfo":{"lat":-35.2273041,"lng":173.9492554,"street_number":"81","locality":"Kerikeri","administrative_area_level_1":"Northland","country_code":"NZ","country":"New Zealand","postal_code":"0230","route":"81 Kerikeri Rd","formatted_address":"81 Kerikeri Rd, Kerikeri 0230, New Zealand"}},{"business_url":"http:\/\/spapoolboi.co.nz\/","yp_url":"https:\/\/yellow.co.nz\/y\/poolside-spa-pool?src=name","addrInfo":{"lat":-35.2286583,"lng":173.9500945,"street_number":"13","locality":"Kerikeri","administrative_area_level_1":"Northland","country_code":"NZ","country":"New Zealand","postal_code":"0230","route":"13 Cobham Rd","formatted_address":"13 Cobham Rd, Kerikeri 0230, New Zealand"}},{"business_url":"http:\/\/www.mcquinnpumps.co.nz","yp_url":"https:\/\/yellow.co.nz\/y\/mcquinn-pumps-port?src=name","addrInfo":{"lat":-35.7430913,"lng":174.3296253,"street_number":"72","locality":"Whangarei","administrative_area_level_1":"Northland","country_code":"NZ","country":"New Zealand","postal_code":"0110","route":"72 Kioreroa Rd","formatted_address":"72 Kioreroa Rd, Port Whangarei, Whangarei 0110, New Zealand"}},{"business_url":"http:\/\/www.plumbin.co.nz","yp_url":"https:\/\/yellow.co.nz\/y\/plumb-in-bathroom?src=name","addrInfo":{"lat":-35.7485503,"lng":174.311699,"street_number":"33","locality":"Whangarei","administrative_area_level_1":"Northland","country_code":"NZ","country":"New Zealand","postal_code":"0110","route":"33 Southend Ave","formatted_address":"33 Southend Ave, Raumanga, Whangarei 0110, New Zealand"}},{"business_url":"http:\/\/www.mico.co.nz","yp_url":"https:\/\/yellow.co.nz\/y\/mico-bathrooms-whangarei?src=name","addrInfo":{"lat":-35.729452,"lng":174.3235566,"street_number":"17","locality":"Whangarei","administrative_area_level_1":"Northland","country_code":"NZ","country":"New Zealand","postal_code":"0110","route":"17 Commerce St","formatted_address":"17 Commerce St, Whangarei, Whangarei 0110, New Zealand"}},{"business_url":"http:\/\/www.plumbingworld.co.nz","yp_url":"https:\/\/yellow.co.nz\/y\/plumbing-world-whangarei?src=name","addrInfo":{"lat":-35.7309254,"lng":174.3262458,"street_number":"16","locality":"Whangarei","administrative_area_level_1":"Northland","country_code":"NZ","country":"New Zealand","postal_code":"0110","route":"16 Okara Dr","formatted_address":"16 Okara Dr, Whangarei, Whangarei 0110, New Zealand"}},{"business_url":"http:\/\/www.sundancespas.co.nz","yp_url":"https:\/\/yellow.co.nz\/y\/sundance-spas-mount-wellington?src=name","addrInfo":{"lat":-36.8927375,"lng":174.8367084,"street_number":"50","locality":"Auckland","administrative_area_level_1":"Auckland","country_code":"NZ","country":"New Zealand","postal_code":"1072","route":"50 Lunn Ave","formatted_address":"50 Lunn Ave, Mount Wellington, Auckland 1072, New Zealand"}},{"business_url":"http:\/\/www.maurices.co.nz","yp_url":"https:\/\/yellow.co.nz\/y\/maurices-pools-spas-cambridge?src=name","addrInfo":{"lat":-37.8918412,"lng":175.4752059,"street_number":"25","locality":"Cambridge","administrative_area_level_1":"Waikato","country_code":"NZ","country":"New Zealand","postal_code":"3434","route":"25 Albert St","formatted_address":"25 Albert St, Cambridge 3434, New Zealand"}},{"business_url":"http:\/\/www.zodiac.co.nz\/","yp_url":"https:\/\/yellow.co.nz\/y\/zodiac-group-nz?src=name","addrInfo":{"lat":-36.7446145,"lng":174.6999699,"street_number":"13","locality":"Auckland","administrative_area_level_1":"Auckland","country_code":"NZ","country":"New Zealand","postal_code":"0632","route":"13 Douglas Alexander Parade","formatted_address":"13 Douglas Alexander Parade, Rosedale, Auckland 0632, New Zealand"}},{"business_url":"http:\/\/www.aquatechnics.co.nz","yp_url":"https:\/\/yellow.co.nz\/y\/aqua-technics-pool?src=name","addrInfo":{"lat":-36.8490018,"lng":174.6344223,"street_number":"27","locality":"Auckland","administrative_area_level_1":"Auckland","country_code":"NZ","country":"New Zealand","postal_code":"0610","route":"27 The Concourse","formatted_address":"27 The Concourse, Henderson, Auckland 0610, New Zealand"}},{"business_url":"http:\/\/www.poolmasta.co.nz","yp_url":"https:\/\/yellow.co.nz\/y\/pool-masta-nz?src=name","addrInfo":{"lat":-36.9336068,"lng":174.9018828,"street_number":"35","locality":"Auckland","administrative_area_level_1":"Auckland","country_code":"NZ","country":"New Zealand","postal_code":"2013","route":"35 Greenmount Dr","formatted_address":"3a\/35 Greenmount Dr, East Tamaki, Auckland 2013, New Zealand"}},{"business_url":"http:\/\/www.leisurerite.co.nz","yp_url":"https:\/\/yellow.co.nz\/y\/big-brand-leisure-hillcrest?src=name","addrInfo":{"lat":-36.7829195,"lng":174.7420047,"street_number":"48","locality":"Auckland","administrative_area_level_1":"Auckland","country_code":"NZ","country":"New Zealand","postal_code":"0627","route":"48 Porana Rd","formatted_address":"48 Porana Rd, Wairau Valley, Auckland 0627, New Zealand"}},{"business_url":"http:\/\/www.paramountpools.co.nz","yp_url":"https:\/\/yellow.co.nz\/y\/paramount-pools-spas-onehunga?src=name","addrInfo":{"lat":-36.9252017,"lng":174.8046366,"street_number":"282","locality":"Auckland","administrative_area_level_1":"Auckland","country_code":"NZ","country":"New Zealand","postal_code":"1061","route":"282 Neilson St","formatted_address":"282 Neilson St, Onehunga, Auckland 1061, New Zealand"}},{"business_url":"http:\/\/www.swimmingpoolshop.co.nz\/","yp_url":"https:\/\/yellow.co.nz\/y\/swimming-pool-shop?src=name","addrInfo":{"lat":-37.738107,"lng":175.2527438,"street_number":"1158","locality":"Hamilton","administrative_area_level_1":"Waikato","country_code":"NZ","country":"New Zealand","postal_code":"3210","route":"1158 River Rd","formatted_address":"9\/1158 River Rd, Flagstaff, Hamilton 3210, New Zealand"}},{"business_url":"http:\/\/www.spapool.co.nz","yp_url":"https:\/\/yellow.co.nz\/y\/spa-international-industry-road-2?src=name","addrInfo":{"lat":-36.9207435,"lng":174.8246782,"street_number":"7","locality":"Auckland","administrative_area_level_1":"Auckland","country_code":"NZ","country":"New Zealand","postal_code":"1061","route":"7 Industry Rd","formatted_address":"7 Industry Rd, Penrose, Auckland 1061, New Zealand"}},{"business_url":"http:\/\/www.spa-pools.co.nz","yp_url":"https:\/\/yellow.co.nz\/y\/hot-spring-spas-tauranga?src=name","addrInfo":{"lat":-37.6765009,"lng":176.166185,"street_number":"34","locality":"Tauranga","administrative_area_level_1":"Bay Of Plenty","country_code":"NZ","country":"New Zealand","postal_code":"3110","route":"34 Chapel St","formatted_address":"34 Chapel St, Tauranga, Tauranga 3110, New Zealand"}},{"business_url":"http:\/\/www.bluestonepools.co.nz","yp_url":"https:\/\/yellow.co.nz\/y\/bluestone-pools-wakelin?src=name","addrInfo":{"lat":-36.8835938,"lng":174.9972695,"street_number":"30","locality":"Auckland","administrative_area_level_1":"Auckland","country_code":"NZ","country":"New Zealand","postal_code":"2018","route":"30 Wakelin Rd","formatted_address":"30 Wakelin Rd, Beachlands, Auckland 2018, New Zealand"}},{"business_url":"http:\/\/www.freedompools.co.nz","yp_url":"https:\/\/yellow.co.nz\/y\/freedom-pools-lifestyle-newmarket?src=name","addrInfo":{"lat":-36.8822841,"lng":174.7858571,"street_number":"58","locality":"Auckland","administrative_area_level_1":"Auckland","country_code":"NZ","country":"New Zealand","postal_code":"1051","route":"58 Market Rd","formatted_address":"58 Market Rd, Epsom, Auckland 1051, New Zealand"}},{"business_url":"http:\/\/www.hpps.co.nz","yp_url":"https:\/\/yellow.co.nz\/y\/pool-patio-heating-new?src=name","addrInfo":{"lat":-36.9096152,"lng":174.6870175,"street_number":"18","locality":"Auckland","administrative_area_level_1":"Auckland","country_code":"NZ","country":"New Zealand","postal_code":"0600","route":"18 Clark St","formatted_address":"18 Clark St, New Lynn, Auckland 0600, New Zealand"}},{"business_url":"http:\/\/www.relaxspa.co.nz","yp_url":"https:\/\/yellow.co.nz\/y\/relax-spa-pool?src=name","addrInfo":{"lat":-38.1504036,"lng":176.2627581,"street_number":"34","locality":"Rotorua","administrative_area_level_1":"Bay Of Plenty","country_code":"NZ","country":"New Zealand","postal_code":"3010","route":"34 White St","formatted_address":"34 White St, Fenton Park, Rotorua 3010, New Zealand"}},{"business_url":"http:\/\/www.heatingsystems.co.nz","yp_url":"https:\/\/yellow.co.nz\/y\/heating-systems-birch?src=name","addrInfo":{"lat":-37.6999049,"lng":176.1417543,"street_number":"120","locality":"Tauranga","administrative_area_level_1":"Bay Of Plenty","country_code":"NZ","country":"New Zealand","postal_code":"3110","route":"120 Birch Ave","formatted_address":"120 Birch Ave, Judea, Tauranga 3110, New Zealand"}},{"business_url":"http:\/\/www.maurices.co.nz","yp_url":"https:\/\/yellow.co.nz\/y\/maurices-pools-spas-cambridge?src=name","addrInfo":{"lat":-37.8918412,"lng":175.4752059,"street_number":"25","locality":"Cambridge","administrative_area_level_1":"Waikato","country_code":"NZ","country":"New Zealand","postal_code":"3434","route":"25 Albert St","formatted_address":"25 Albert St, Cambridge 3434, New Zealand"}},{"business_url":"http:\/\/www.zodiac.co.nz\/","yp_url":"https:\/\/yellow.co.nz\/y\/zodiac-group-nz?src=name","addrInfo":{"lat":-36.7446145,"lng":174.6999699,"street_number":"13","locality":"Auckland","administrative_area_level_1":"Auckland","country_code":"NZ","country":"New Zealand","postal_code":"0632","route":"13 Douglas Alexander Parade","formatted_address":"13 Douglas Alexander Parade, Rosedale, Auckland 0632, New Zealand"}},{"business_url":"http:\/\/www.aquatechnics.co.nz","yp_url":"https:\/\/yellow.co.nz\/y\/aqua-technics-pool?src=name","addrInfo":{"lat":-36.8490018,"lng":174.6344223,"street_number":"27","locality":"Auckland","administrative_area_level_1":"Auckland","country_code":"NZ","country":"New Zealand","postal_code":"0610","route":"27 The Concourse","formatted_address":"27 The Concourse, Henderson, Auckland 0610, New Zealand"}},{"business_url":"http:\/\/www.poolmasta.co.nz","yp_url":"https:\/\/yellow.co.nz\/y\/pool-masta-nz?src=name","addrInfo":{"lat":-36.9336068,"lng":174.9018828,"street_number":"35","locality":"Auckland","administrative_area_level_1":"Auckland","country_code":"NZ","country":"New Zealand","postal_code":"2013","route":"35 Greenmount Dr","formatted_address":"3a\/35 Greenmount Dr, East Tamaki, Auckland 2013, New Zealand"}},{"business_url":"http:\/\/www.leisurerite.co.nz","yp_url":"https:\/\/yellow.co.nz\/y\/big-brand-leisure-hillcrest?src=name","addrInfo":{"lat":-36.7829195,"lng":174.7420047,"street_number":"48","locality":"Auckland","administrative_area_level_1":"Auckland","country_code":"NZ","country":"New Zealand","postal_code":"0627","route":"48 Porana Rd","formatted_address":"48 Porana Rd, Wairau Valley, Auckland 0627, New Zealand"}},{"business_url":"http:\/\/www.paramountpools.co.nz","yp_url":"https:\/\/yellow.co.nz\/y\/paramount-pools-spas-onehunga?src=name","addrInfo":{"lat":-36.9252017,"lng":174.8046366,"street_number":"282","locality":"Auckland","administrative_area_level_1":"Auckland","country_code":"NZ","country":"New Zealand","postal_code":"1061","route":"282 Neilson St","formatted_address":"282 Neilson St, Onehunga, Auckland 1061, New Zealand"}},{"business_url":"http:\/\/www.swimmingpoolshop.co.nz\/","yp_url":"https:\/\/yellow.co.nz\/y\/swimming-pool-shop?src=name","addrInfo":{"lat":-37.738107,"lng":175.2527438,"street_number":"1158","locality":"Hamilton","administrative_area_level_1":"Waikato","country_code":"NZ","country":"New Zealand","postal_code":"3210","route":"1158 River Rd","formatted_address":"9\/1158 River Rd, Flagstaff, Hamilton 3210, New Zealand"}},{"business_url":"http:\/\/www.spapool.co.nz","yp_url":"https:\/\/yellow.co.nz\/y\/spa-international-industry-road-2?src=name","addrInfo":{"lat":-36.9207435,"lng":174.8246782,"street_number":"7","locality":"Auckland","administrative_area_level_1":"Auckland","country_code":"NZ","country":"New Zealand","postal_code":"1061","route":"7 Industry Rd","formatted_address":"7 Industry Rd, Penrose, Auckland 1061, New Zealand"}},{"business_url":"http:\/\/www.spa-pools.co.nz","yp_url":"https:\/\/yellow.co.nz\/y\/hot-spring-spas-tauranga?src=name","addrInfo":{"lat":-37.6765009,"lng":176.166185,"street_number":"34","locality":"Tauranga","administrative_area_level_1":"Bay Of Plenty","country_code":"NZ","country":"New Zealand","postal_code":"3110","route":"34 Chapel St","formatted_address":"34 Chapel St, Tauranga, Tauranga 3110, New Zealand"}},{"business_url":"http:\/\/www.bluestonepools.co.nz","yp_url":"https:\/\/yellow.co.nz\/y\/bluestone-pools-wakelin?src=name","addrInfo":{"lat":-36.8835938,"lng":174.9972695,"street_number":"30","locality":"Auckland","administrative_area_level_1":"Auckland","country_code":"NZ","country":"New Zealand","postal_code":"2018","route":"30 Wakelin Rd","formatted_address":"30 Wakelin Rd, Beachlands, Auckland 2018, New Zealand"}},{"business_url":"http:\/\/www.freedompools.co.nz","yp_url":"https:\/\/yellow.co.nz\/y\/freedom-pools-lifestyle-newmarket?src=name","addrInfo":{"lat":-36.8822841,"lng":174.7858571,"street_number":"58","locality":"Auckland","administrative_area_level_1":"Auckland","country_code":"NZ","country":"New Zealand","postal_code":"1051","route":"58 Market Rd","formatted_address":"58 Market Rd, Epsom, Auckland 1051, New Zealand"}},{"business_url":"http:\/\/www.hpps.co.nz","yp_url":"https:\/\/yellow.co.nz\/y\/pool-patio-heating-new?src=name","addrInfo":{"lat":-36.9096152,"lng":174.6870175,"street_number":"18","locality":"Auckland","administrative_area_level_1":"Auckland","country_code":"NZ","country":"New Zealand","postal_code":"0600","route":"18 Clark St","formatted_address":"18 Clark St, New Lynn, Auckland 0600, New Zealand"}},{"business_url":"http:\/\/www.relaxspa.co.nz","yp_url":"https:\/\/yellow.co.nz\/y\/relax-spa-pool?src=name","addrInfo":{"lat":-38.1504036,"lng":176.2627581,"street_number":"34","locality":"Rotorua","administrative_area_level_1":"Bay Of Plenty","country_code":"NZ","country":"New Zealand","postal_code":"3010","route":"34 White St","formatted_address":"34 White St, Fenton Park, Rotorua 3010, New Zealand"}},{"business_url":"http:\/\/www.heatingsystems.co.nz","yp_url":"https:\/\/yellow.co.nz\/y\/heating-systems-birch?src=name","addrInfo":{"lat":-37.6999049,"lng":176.1417543,"street_number":"120","locality":"Tauranga","administrative_area_level_1":"Bay Of Plenty","country_code":"NZ","country":"New Zealand","postal_code":"3110","route":"120 Birch Ave","formatted_address":"120 Birch Ave, Judea, Tauranga 3110, New Zealand"}},{"business_url":"http:\/\/www.spaandpool.co.nz","yp_url":"https:\/\/yellow.co.nz\/y\/spa-pool-factory?src=name","addrInfo":{"lat":-36.9134082,"lng":174.8205953,"street_number":"830","locality":"Auckland","administrative_area_level_1":"Auckland","country_code":"NZ","country":"New Zealand","postal_code":"1061","route":"830 Great South Rd","formatted_address":"830 Great South Rd, Penrose, Auckland 1061, New Zealand"}},{"business_url":"http:\/\/www.bigbrandleisure.co.nz","yp_url":"https:\/\/yellow.co.nz\/y\/spa-fix-hillcrest?src=name","addrInfo":{"lat":-36.7829195,"lng":174.7420047,"street_number":"48","locality":"Auckland","administrative_area_level_1":"Auckland","country_code":"NZ","country":"New Zealand","postal_code":"0627","route":"48 Porana Rd","formatted_address":"48 Porana Rd, Wairau Valley, Auckland 0627, New Zealand"}},{"business_url":"http:\/\/thepooldoctorltd.co.nz\/","yp_url":"https:\/\/yellow.co.nz\/y\/pool-doctor-leamington?src=name","addrInfo":{"lat":-37.9078043,"lng":175.4716403,"street_number":"42","locality":"Cambridge","administrative_area_level_1":"Waikato","country_code":"NZ","country":"New Zealand","postal_code":"3432","route":"42 Thompson St","formatted_address":"42 Thompson St, Leamington, Cambridge 3432, New Zealand"}},{"business_url":"http:\/\/www.leisurerite.co.nz","yp_url":"https:\/\/yellow.co.nz\/y\/big-brand-leisure?src=name","addrInfo":{"lat":-36.7829195,"lng":174.7420047,"street_number":"48","locality":"Auckland","administrative_area_level_1":"Auckland","country_code":"NZ","country":"New Zealand","postal_code":"0627","route":"48 Porana Rd","formatted_address":"48 Porana Rd, Wairau Valley, Auckland 0627, New Zealand"}},{"business_url":"http:\/\/www.lawnheat.co.nz\/","yp_url":"https:\/\/yellow.co.nz\/y\/lawn-heat-leisure?src=name","addrInfo":{"lat":-36.9161519,"lng":174.87252,"street_number":"64","locality":"Auckland","administrative_area_level_1":"Auckland","country_code":"NZ","country":"New Zealand","postal_code":"2010","route":"64 Ti Rakau Dr","formatted_address":"64 Ti Rakau Dr, Pakuranga, Auckland 2010, New Zealand"}},{"business_url":"http:\/\/www.barrierreefpools.co.nz\/","yp_url":"https:\/\/yellow.co.nz\/y\/barrier-reef-pools-moewai?src=name","addrInfo":{"lat":-36.8329875,"lng":175.6734849,"street_number":"5","locality":"Whitianga","administrative_area_level_1":"Waikato","country_code":"NZ","country":"New Zealand","postal_code":"3591","route":"5 Moewai Rd","formatted_address":"1\/5 Moewai Rd, Whitianga 3591, New Zealand"}},{"business_url":"http:\/\/www.poolsidenorthshore.com","yp_url":"https:\/\/yellow.co.nz\/y\/poolside-north-shore-cowley?src=name","addrInfo":{"lat":-36.7415319,"lng":174.7177387,"street_number":"1","locality":"Auckland","administrative_area_level_1":"Auckland","country_code":"NZ","country":"New Zealand","postal_code":"0632","route":"1 Cowley Pl","formatted_address":"1 Cowley Pl, Rosedale, Auckland 0632, New Zealand"}},{"business_url":"http:\/\/www.firehottubs.co.nz","yp_url":"https:\/\/yellow.co.nz\/y\/fire-hot-tubs?src=name","addrInfo":{"lat":-36.782635,"lng":174.7408838,"street_number":"53","locality":"Auckland","administrative_area_level_1":"Auckland","country_code":"NZ","country":"New Zealand","postal_code":"0627","route":"53 Porana Rd","formatted_address":"53 Porana Rd, Wairau Valley, Auckland 0627, New Zealand"}},{"business_url":"http:\/\/www.mayfairpools.co.nz","yp_url":"https:\/\/yellow.co.nz\/y\/mayfair-pools-spas?src=name","addrInfo":{"lat":-39.1217661,"lng":173.9409416,"street_number":"21","locality":"Oakura","administrative_area_level_1":"Taranaki","country_code":"NZ","country":"New Zealand","postal_code":"4314","route":"21 Kaitake Pl","formatted_address":"21 Kaitake Pl, Oakura 4314, New Zealand"}},{"business_url":"http:\/\/www.voguepools.co.nz","yp_url":"https:\/\/yellow.co.nz\/y\/vogue-pools?src=name","addrInfo":{"lat":-36.9991511,"lng":174.8686701,"street_number":"160","locality":"Auckland","administrative_area_level_1":"Auckland","country_code":"NZ","country":"New Zealand","postal_code":"2104","route":"160 Plunket Ave","formatted_address":"160 Plunket Ave, Manukau, Auckland 2104, New Zealand"}},{"business_url":"http:\/\/www.bmh.co.nz","yp_url":"https:\/\/yellow.co.nz\/y\/bmh-pool-covers?src=name","addrInfo":{"lat":-37.0286106,"lng":174.9173415,"street_number":"18","locality":"Takanini","administrative_area_level_1":"Auckland","country_code":"NZ","country":"New Zealand","postal_code":"2105","route":"18 Marphona Cres","formatted_address":"2141\/18 Marphona Cres, Takanini 2105, New Zealand"}},{"business_url":"http:\/\/www.freedompools.co.nz","yp_url":"https:\/\/yellow.co.nz\/y\/freedom-pools-lifestyle-epsom?src=name","addrInfo":{"lat":-36.8822841,"lng":174.7858571,"street_number":"58","locality":"Auckland","administrative_area_level_1":"Auckland","country_code":"NZ","country":"New Zealand","postal_code":"1051","route":"58 Market Rd","formatted_address":"58 Market Rd, Epsom, Auckland 1051, New Zealand"}},{"business_url":"http:\/\/www.leisurepools.co.nz\/","yp_url":"https:\/\/yellow.co.nz\/y\/leisure-pools-parnell?src=name","addrInfo":{"lat":-36.8493561,"lng":174.7829585,"street_number":"165","locality":"Auckland","administrative_area_level_1":"Auckland","country_code":"NZ","country":"New Zealand","postal_code":"1010","route":"165 The Strand","formatted_address":"165 The Strand, Parnell, Auckland 1010, New Zealand"}},{"business_url":"http:\/\/www.poolmagic.co.nz","yp_url":"https:\/\/yellow.co.nz\/y\/pool-magic?src=name","addrInfo":{"lat":-36.8927569,"lng":174.831712,"street_number":"183","locality":"Auckland","administrative_area_level_1":"Auckland","country_code":"NZ","country":"New Zealand","postal_code":"1051","route":"183 Marua Rd","formatted_address":"183 Marua Rd, Mount Wellington, Auckland 1051, New Zealand"}},{"business_url":"http:\/\/www.poolworld.co.nz","yp_url":"https:\/\/yellow.co.nz\/y\/taupo-poolworld?src=name","addrInfo":{"lat":-38.6966895,"lng":176.0899456,"street_number":"40","locality":"Taupo","administrative_area_level_1":"Waikato","country_code":"NZ","country":"New Zealand","postal_code":"3330","route":"40 Taharepa Rd","formatted_address":"40 Taharepa Rd, Hilltop, Taupo 3330, New Zealand"}},{"business_url":"http:\/\/www.4seasons.co.nz","yp_url":"https:\/\/yellow.co.nz\/y\/4-seasons-new?src=name","addrInfo":{"lat":-39.051734,"lng":174.095268,"street_number":"460","locality":"New Plymouth","administrative_area_level_1":"Taranaki","country_code":"NZ","country":"New Zealand","postal_code":"4312","route":"460 Devon St E","formatted_address":"460 Devon St E, Strandon, New Plymouth 4312, New Zealand"}},{"business_url":"http:\/\/www.spa-pools.co.nz","yp_url":"https:\/\/yellow.co.nz\/y\/ford-spa-pools-chapel?src=name","addrInfo":{"lat":-37.6765009,"lng":176.166185,"street_number":"34","locality":"Tauranga","administrative_area_level_1":"Bay Of Plenty","country_code":"NZ","country":"New Zealand","postal_code":"3110","route":"34 Chapel St","formatted_address":"34 Chapel St, Tauranga, Tauranga 3110, New Zealand"}},{"business_url":"http:\/\/www.swimart.co.nz","yp_url":"https:\/\/yellow.co.nz\/y\/swimart-pool-spa?src=name","addrInfo":{"lat":-36.7700273,"lng":174.7368482,"street_number":"178","locality":"Auckland","administrative_area_level_1":"Auckland","country_code":"NZ","country":"New Zealand","postal_code":"0627","route":"178 Wairau Rd","formatted_address":"178 Wairau Rd, Wairau Valley, Auckland 0627, New Zealand"}},{"business_url":"http:\/\/www.partridgepools.co.nz","yp_url":"https:\/\/yellow.co.nz\/y\/dimension-one-spas?src=name","addrInfo":{"lat":-37.025277,"lng":174.9001272,"street_number":"233","locality":"Auckland","administrative_area_level_1":"Auckland","country_code":"NZ","country":"New Zealand","postal_code":"2102","route":"233 Great South Rd","formatted_address":"233 Great South Rd, Manurewa, Auckland 2102, New Zealand"}},{"business_url":"http:\/\/www.westernpoolservices.co.nz","yp_url":"https:\/\/yellow.co.nz\/y\/western-pool-services?src=name","addrInfo":{"lat":-36.8636461,"lng":174.6317696,"street_number":"18","locality":"Auckland","administrative_area_level_1":"Auckland","country_code":"NZ","country":"New Zealand","postal_code":"0610","route":"18 Moselle Ave","formatted_address":"4\/18 Moselle Ave, Henderson, Auckland 0610, New Zealand"}},{"business_url":"http:\/\/www.freedompools.co.nz","yp_url":"https:\/\/yellow.co.nz\/y\/freedom-pools-market-road-3?src=name","addrInfo":{"lat":-36.8822841,"lng":174.7858571,"street_number":"58","locality":"Auckland","administrative_area_level_1":"Auckland","country_code":"NZ","country":"New Zealand","postal_code":"1051","route":"58 Market Rd","formatted_address":"58 Market Rd, Epsom, Auckland 1051, New Zealand"}},{"business_url":"http:\/\/www.poolpanthers.co.nz","yp_url":"https:\/\/yellow.co.nz\/y\/pool-panrs-takanini?src=name","addrInfo":{"lat":-37.0527711,"lng":174.9310166,"street_number":"327","locality":"Takanini","administrative_area_level_1":"Auckland","country_code":"NZ","country":"New Zealand","postal_code":"2112","route":"327 Great South Rd","formatted_address":"7\/327 Great South Rd, Takanini 2112, New Zealand"}},{"business_url":"http:\/\/www.spapool.co.nz","yp_url":"https:\/\/yellow.co.nz\/y\/spa-international-penrose?src=name","addrInfo":{"lat":-36.9207435,"lng":174.8246782,"street_number":"7","locality":"Auckland","administrative_area_level_1":"Auckland","country_code":"NZ","country":"New Zealand","postal_code":"1061","route":"7 Industry Rd","formatted_address":"7 Industry Rd, Penrose, Auckland 1061, New Zealand"}},{"business_url":"http:\/\/www.infuseddesign.co.nz","yp_url":"https:\/\/yellow.co.nz\/y\/infused-design?src=name","addrInfo":{"lat":-37.7136755,"lng":176.1876821,"street_number":"24","locality":"Tauranga","administrative_area_level_1":"Bay Of Plenty","country_code":"NZ","country":"New Zealand","postal_code":"3112","route":"24 Maihi Cres","formatted_address":"24 Maihi Cres, Maungatapu, Tauranga 3112, New Zealand"}},{"business_url":"http:\/\/www.poynters.co.nz","yp_url":"https:\/\/yellow.co.nz\/y\/poynters-poolshop?src=name","addrInfo":{"lat":-36.87607,"lng":174.7361552,"street_number":"10","locality":"Auckland","administrative_area_level_1":"Auckland","country_code":"NZ","country":"New Zealand","postal_code":"1025","route":"10 Morningside Dr","formatted_address":"10 Morningside Dr, Sandringham, Auckland 1025, New Zealand"}},{"business_url":"http:\/\/www.poolrite.com.au","yp_url":"https:\/\/yellow.co.nz\/y\/poolrite-equipment-nz?src=name","addrInfo":{"lat":-36.9245382,"lng":174.8298859,"street_number":"761","locality":"Auckland","administrative_area_level_1":"Auckland","country_code":"NZ","country":"New Zealand","postal_code":"1061","route":"761 Great South Rd","formatted_address":"22\/761 Great South Rd, Penrose, Auckland 1061, New Zealand"}},{"business_url":"http:\/\/www.cotec.co.nz","yp_url":"https:\/\/yellow.co.nz\/y\/epotec?src=name","addrInfo":{"lat":-36.8964457,"lng":174.6308344,"street_number":"16","locality":"Auckland","administrative_area_level_1":"Auckland","country_code":"NZ","country":"New Zealand","postal_code":"0612","route":"16 Aetna Pl","formatted_address":"16 Aetna Pl, Henderson, Auckland 0612, New Zealand"}},{"business_url":"http:\/\/www.livingoutdoors.co.nz","yp_url":"https:\/\/yellow.co.nz\/y\/living-outdoors?src=name","addrInfo":{"lat":-37.0603138,"lng":174.9432231,"street_number":"19","locality":"Papakura","administrative_area_level_1":"Auckland","country_code":"NZ","country":"New Zealand","postal_code":"2110","route":"19 Vernon St","formatted_address":"19 Vernon St, Papakura, Papakura 2110, New Zealand"}},{"business_url":"http:\/\/www.serenitypools.co.nz","yp_url":"https:\/\/yellow.co.nz\/y\/serenity-pools?src=name","addrInfo":{"lat":-36.9083964,"lng":174.687834,"street_number":"14","locality":"Auckland","administrative_area_level_1":"Auckland","country_code":"NZ","country":"New Zealand","postal_code":"0600","route":"14 Ward St","formatted_address":"14 Ward St, New Lynn, Auckland 0600, New Zealand"}},{"business_url":"http:\/\/www.landformers.co.nz","yp_url":"https:\/\/yellow.co.nz\/y\/landformers-claudelands?src=name","addrInfo":{"lat":-37.7738576,"lng":175.291781,"street_number":"54","locality":"Hamilton","administrative_area_level_1":"Waikato","country_code":"NZ","country":"New Zealand","postal_code":"3214","route":"54 Boundary Rd","formatted_address":"54 Boundary Rd, Claudelands, Hamilton 3214, New Zealand"}},{"business_url":"http:\/\/www.aquaclear.co.nz","yp_url":"https:\/\/yellow.co.nz\/y\/aqua-clear-products?src=name","addrInfo":{"lat":-36.930424,"lng":174.894952,"street_number":"135","locality":"Manukau","administrative_area_level_1":"Auckland","country_code":"NZ","country":"New Zealand","postal_code":"2013","route":"135 Cryers Rd","formatted_address":"1\/135 Cryers Rd, East Tamaki, Manukau 2013, New Zealand"}},{"business_url":"http:\/\/www.waterheating.co.nz","yp_url":"https:\/\/yellow.co.nz\/y\/hot-water-heat?src=name","addrInfo":{"lat":-36.8921025,"lng":174.6233391,"street_number":"3","locality":"Auckland","administrative_area_level_1":"Auckland","country_code":"NZ","country":"New Zealand","postal_code":"0612","route":"3 Corban Ave","formatted_address":"3 Corban Ave, Henderson, Auckland 0612, New Zealand"}},{"business_url":"http:\/\/www.visionliving.co.nz","yp_url":"https:\/\/yellow.co.nz\/y\/vision-living?src=name","addrInfo":{"lat":-39.0012982,"lng":174.2344524,"street_number":"38","locality":"Waitara","administrative_area_level_1":"Taranaki","country_code":"NZ","country":"New Zealand","postal_code":"4320","route":"38 Grey St","formatted_address":"38 Grey St, Waitara 4320, New Zealand"}},{"business_url":"http:\/\/www.aquatech.co.nz","yp_url":"https:\/\/yellow.co.nz\/y\/aqua-tech-industries?src=name","addrInfo":{"lat":-36.9252781,"lng":174.7809865,"street_number":"12","locality":"Auckland","administrative_area_level_1":"Auckland","country_code":"NZ","country":"New Zealand","postal_code":"1061","route":"12 Hill St","formatted_address":"12 Hill St, Onehunga, Auckland 1061, New Zealand"}},{"business_url":"http:\/\/www.spaceindustries.co.nz","yp_url":"https:\/\/yellow.co.nz\/y\/space-industries?src=name","addrInfo":{"lat":-36.9991511,"lng":174.8686701,"street_number":"160","locality":"Auckland","administrative_area_level_1":"Auckland","country_code":"NZ","country":"New Zealand","postal_code":"2104","route":"160 Plunket Ave","formatted_address":"160 Plunket Ave, Manukau, Auckland 2104, New Zealand"}},{"business_url":"http:\/\/www.cotec.co.nz","yp_url":"https:\/\/yellow.co.nz\/y\/coating-technologies-epotec?src=name","addrInfo":{"lat":-36.8964457,"lng":174.6308344,"street_number":"16","locality":"Auckland","administrative_area_level_1":"Auckland","country_code":"NZ","country":"New Zealand","postal_code":"0612","route":"16 Aetna Pl","formatted_address":"16 Aetna Pl, Henderson, Auckland 0612, New Zealand"}},{"business_url":"http:\/\/www.poolsidetaranaki.co.nz","yp_url":"https:\/\/yellow.co.nz\/y\/poolside-taranaki-gill?src=name","addrInfo":{"lat":-39.0558625,"lng":174.0781517,"street_number":"74","locality":"New Plymouth","administrative_area_level_1":"Taranaki","country_code":"NZ","country":"New Zealand","postal_code":"4310","route":"74 Gill St","formatted_address":"74 Gill St, New Plymouth 4310, New Zealand"}},{"business_url":"http:\/\/www.waikato-sandblasting.co.nz","yp_url":"https:\/\/yellow.co.nz\/y\/waikato-sandblasting-services?src=name","addrInfo":{"lat":-37.7535226,"lng":175.2381634,"street_number":"14","locality":"Hamilton","administrative_area_level_1":"Waikato","country_code":"NZ","country":"New Zealand","postal_code":"3200","route":"14 Manchester Pl","formatted_address":"14 Manchester Pl, Te Rapa, Hamilton 3200, New Zealand"}},{"business_url":"http:\/\/www.paramountpools.co.nz","yp_url":"https:\/\/yellow.co.nz\/y\/paramount-pools-spas-albany?src=name","addrInfo":{"lat":-36.739863,"lng":174.7276049,"street_number":"75","locality":"Auckland","administrative_area_level_1":"Auckland","country_code":"NZ","country":"New Zealand","postal_code":"0632","route":"75 Apollo Dr","formatted_address":"75 Apollo Dr, Rosedale, Auckland 0632, New Zealand"}},{"business_url":"http:\/\/www.passystems.co.nz","yp_url":"https:\/\/yellow.co.nz\/y\/pool-spa-systems?src=name","addrInfo":{"lat":-36.8497851,"lng":174.8689207,"street_number":"50","locality":"Auckland","administrative_area_level_1":"Auckland","country_code":"NZ","country":"New Zealand","postal_code":"1071","route":"50 Waimarie St","formatted_address":"50 Waimarie St, St Heliers, Auckland 1071, New Zealand"}},{"business_url":"http:\/\/thepooldoctorltd.co.nz\/","yp_url":"https:\/\/yellow.co.nz\/y\/pool-doctor-vosper?src=name","addrInfo":{"lat":-37.9027847,"lng":175.4630005,"street_number":"42","locality":"Cambridge","administrative_area_level_1":"Waikato","country_code":"NZ","country":"New Zealand","postal_code":"3495","route":"42 W Thompson St","formatted_address":"42 W Thompson St, Leamington, Cambridge 3495, New Zealand"}},{"business_url":"http:\/\/www.nakedpoolcompany.co.nz","yp_url":"https:\/\/yellow.co.nz\/y\/naked-pool-company?src=name","addrInfo":{"lat":-36.8678334,"lng":174.7731822,"street_number":"24","locality":"Auckland","administrative_area_level_1":"Auckland","country_code":"NZ","country":"New Zealand","postal_code":"1023","route":"24 McColl St","formatted_address":"24 McColl St, Newmarket, Auckland 1023, New Zealand"}},{"business_url":"http:\/\/www.pacepools.co.nz","yp_url":"https:\/\/yellow.co.nz\/y\/pace-pools?src=name","addrInfo":{"lat":-36.7643454,"lng":174.7220754,"street_number":"25","locality":"Auckland","administrative_area_level_1":"Auckland","country_code":"NZ","country":"New Zealand","postal_code":"0632","route":"25 Sunset Rd","formatted_address":"25 Sunset Rd, Totara Vale, Auckland 0632, New Zealand"}},{"business_url":"http:\/\/www.cascade.co.nz","yp_url":"https:\/\/yellow.co.nz\/y\/poolco-tauranga-welcome?src=name","addrInfo":{"lat":-37.7428889,"lng":176.1721774,"street_number":"74","locality":"Tauranga","administrative_area_level_1":"Bay Of Plenty","country_code":"NZ","country":"New Zealand","postal_code":"3175","route":"74 Panorama Dr","formatted_address":"74 Panorama Dr, Welcome Bay, Tauranga 3175, New Zealand"}},{"business_url":"http:\/\/www.cascaderefurbishments.com","yp_url":"https:\/\/yellow.co.nz\/y\/cascade-refurbishments-marua-road-2?src=name","addrInfo":{"lat":-36.892288,"lng":174.8268399,"street_number":"134","locality":"Auckland","administrative_area_level_1":"Auckland","country_code":"NZ","country":"New Zealand","postal_code":"1051","route":"134 Marua Rd","formatted_address":"134 Marua Rd, Mount Wellington, Auckland 1051, New Zealand"}},{"business_url":"http:\/\/www.trueformspas.co.nz","yp_url":"https:\/\/yellow.co.nz\/y\/trueform-products?src=name","addrInfo":{"lat":-36.6695576,"lng":174.4505907,"street_number":"7","locality":"Helensville","administrative_area_level_1":"Auckland","country_code":"NZ","country":"New Zealand","postal_code":"0800","route":"7 West St","formatted_address":"7 West St, Helensville 0800, New Zealand"}},{"business_url":"http:\/\/www.executivepools.co.nz","yp_url":"https:\/\/yellow.co.nz\/y\/executive-poolshop?src=name","addrInfo":{"lat":-36.9106822,"lng":174.8727644,"street_number":"118","locality":"Auckland","administrative_area_level_1":"Auckland","country_code":"NZ","country":"New Zealand","postal_code":"2010","route":"118 Pakuranga Rd","formatted_address":"118 Pakuranga Rd, Pakuranga, Auckland 2010, New Zealand"}},{"business_url":"http:\/\/www.redstagtauranga.co.nz","yp_url":"https:\/\/yellow.co.nz\/y\/red-stag-gates-fences-tauranga?src=name","addrInfo":{"lat":-37.6654174,"lng":176.2043351,"street_number":"38","locality":"Tauranga","administrative_area_level_1":"Bay Of Plenty","country_code":"NZ","country":"New Zealand","postal_code":"3116","route":"38 Hewletts Rd","formatted_address":"38 Hewletts Rd, Mount Maunganui, Tauranga 3116, New Zealand"}},{"business_url":"http:\/\/www.wymers.co.nz","yp_url":"https:\/\/yellow.co.nz\/y\/wymers-domestic-water-carriers?src=name","addrInfo":{"lat":-37.7927481,"lng":175.2643523,"street_number":"27","locality":"Hamilton","administrative_area_level_1":"Waikato","country_code":"NZ","country":"New Zealand","postal_code":"3204","route":"27 Ellis St","formatted_address":"27 Ellis St, Frankton, Hamilton 3204, New Zealand"}},{"business_url":"http:\/\/www.tallpoppiesnz.co.nz","yp_url":"https:\/\/yellow.co.nz\/y\/tall-poppies-landscape-pool-centre?src=name","addrInfo":{"lat":-38.0044529,"lng":175.3270763,"street_number":"424","locality":"Te Awamutu","administrative_area_level_1":"Waikato","country_code":"NZ","country":"New Zealand","postal_code":"3800","route":"424 Ohaupo Rd","formatted_address":"424 Ohaupo Rd, Te Awamutu 3800, New Zealand"}},{"business_url":"http:\/\/www.solr4u.co.nz","yp_url":"https:\/\/yellow.co.nz\/y\/solar-heating-solr?src=name","addrInfo":{"lat":-37.6915047,"lng":176.1316567,"street_number":"42","locality":"Tauranga","administrative_area_level_1":"Bay Of Plenty","country_code":"NZ","country":"New Zealand","postal_code":"3110","route":"42 Millers Rd","formatted_address":"42 Millers Rd, Brookfield, Tauranga 3110, New Zealand"}},{"business_url":"http:\/\/www.poolservices-nz.com","yp_url":"https:\/\/yellow.co.nz\/y\/pool-services?src=name","addrInfo":{"lat":-37.6654174,"lng":176.2043351,"street_number":"38","locality":"Tauranga","administrative_area_level_1":"Bay Of Plenty","country_code":"NZ","country":"New Zealand","postal_code":"3116","route":"38 Hewletts Rd","formatted_address":"38 Hewletts Rd, Mount Maunganui, Tauranga 3116, New Zealand"}},{"business_url":"http:\/\/www.poolcorp.co.nz","yp_url":"https:\/\/yellow.co.nz\/y\/poolcorp?src=name","addrInfo":{"lat":-36.7748393,"lng":174.7552855,"street_number":"6","locality":"Auckland","administrative_area_level_1":"Auckland","country_code":"NZ","country":"New Zealand","postal_code":"0620","route":"6 Corunna Rd","formatted_address":"2\/6 Corunna Rd, Milford, Auckland 0620, New Zealand"}},{"business_url":"http:\/\/www.cotec.co.nz","yp_url":"https:\/\/yellow.co.nz\/y\/coating-technologies?src=name","addrInfo":{"lat":-36.8964457,"lng":174.6308344,"street_number":"16","locality":"Auckland","administrative_area_level_1":"Auckland","country_code":"NZ","country":"New Zealand","postal_code":"0612","route":"16 Aetna Pl","formatted_address":"16 Aetna Pl, Henderson, Auckland 0612, New Zealand"}},{"business_url":"http:\/\/www.elliottpools.co.nz","yp_url":"https:\/\/yellow.co.nz\/y\/elliott-pool-construction?src=name","addrInfo":{"lat":-37.5711571,"lng":175.8857073,"street_number":"243","locality":"Katikati","administrative_area_level_1":"Bay Of Plenty","country_code":"NZ","country":"New Zealand","postal_code":"3178","route":"243 Wharawhara Rd","formatted_address":"2\/243 Wharawhara Rd, Katikati 3178, New Zealand"}},{"business_url":"http:\/\/www.waterco.co.nz","yp_url":"https:\/\/yellow.co.nz\/y\/waterco-nz-penrose?src=name","addrInfo":{"lat":-36.9207435,"lng":174.8246782,"street_number":"7","locality":"Auckland","administrative_area_level_1":"Auckland","country_code":"NZ","country":"New Zealand","postal_code":"1061","route":"7 Industry Rd","formatted_address":"7 Industry Rd, Penrose, Auckland 1061, New Zealand"}},{"business_url":"http:\/\/www.trevs.co.nz","yp_url":"https:\/\/yellow.co.nz\/y\/trevs-electrical-kahikatea-drive?src=name","addrInfo":{"lat":-37.8048652,"lng":175.2603016,"street_number":"9","locality":"Hamilton","administrative_area_level_1":"Waikato","country_code":"NZ","country":"New Zealand","postal_code":"3204","route":"9 Grasslands Pl","formatted_address":"9 Grasslands Pl, Frankton, Hamilton 3204, New Zealand"}},{"business_url":"http:\/\/www.redstagtauranga.co.nz","yp_url":"https:\/\/yellow.co.nz\/y\/red-stag-gates-hewletts?src=name","addrInfo":{"lat":-37.6654174,"lng":176.2043351,"street_number":"38","locality":"Tauranga","administrative_area_level_1":"Bay Of Plenty","country_code":"NZ","country":"New Zealand","postal_code":"3116","route":"38 Hewletts Rd","formatted_address":"38 Hewletts Rd, Mount Maunganui, Tauranga 3116, New Zealand"}},{"business_url":"http:\/\/www.hamishlane.co.nz","yp_url":"https:\/\/yellow.co.nz\/y\/hamish-lane-landscapes-valley?src=name","addrInfo":{"lat":-37.6588808,"lng":176.209137,"street_number":"202A","locality":"Tauranga","administrative_area_level_1":"Bay Of Plenty","country_code":"NZ","country":"New Zealand","postal_code":"3116","route":"202A Valley Rd","formatted_address":"202A Valley Rd, Mount Maunganui, Tauranga 3116, New Zealand"}},{"business_url":"http:\/\/www.nzwellness.co.nz","yp_url":"https:\/\/yellow.co.nz\/y\/barker-lc?src=name","addrInfo":{"lat":-36.7330451,"lng":174.7506547,"street_number":"460","locality":"Auckland","administrative_area_level_1":"Auckland","country_code":"NZ","country":"New Zealand","postal_code":"0630","route":"460 Beach Rd","formatted_address":"460 Beach Rd, Murrays Bay, Auckland 0630, New Zealand"}},{"business_url":"http:\/\/www.jnhsauna.co.nz","yp_url":"https:\/\/yellow.co.nz\/y\/jnh-sauna?src=name","addrInfo":{"lat":-36.7415151,"lng":174.7113463,"street_number":"241","locality":"Auckland","administrative_area_level_1":"Auckland","country_code":"NZ","country":"New Zealand","postal_code":"0632","route":"241 Rosedale Rd","formatted_address":"n\/241 Rosedale Rd, Albany, Auckland 0632, New Zealand"}},{"business_url":"http:\/\/www.poolsidenorthshore.com","yp_url":"https:\/\/yellow.co.nz\/y\/poolside-north-cowley?src=name","addrInfo":{"lat":-36.7415319,"lng":174.7177387,"street_number":"1","locality":"Auckland","administrative_area_level_1":"Auckland","country_code":"NZ","country":"New Zealand","postal_code":"0632","route":"1 Cowley Pl","formatted_address":"1 Cowley Pl, Rosedale, Auckland 0632, New Zealand"}},{"business_url":"http:\/\/www.powerplasterers.co.nz","yp_url":"https:\/\/yellow.co.nz\/y\/power-plasterers-2004?src=name","addrInfo":{"lat":-36.7187219,"lng":174.7292471,"street_number":"68","locality":"Auckland","administrative_area_level_1":"Auckland","country_code":"NZ","country":"New Zealand","postal_code":"0630","route":"68 John Downs Dr","formatted_address":"68 John Downs Dr, Browns Bay, Auckland 0630, New Zealand"}},{"business_url":"http:\/\/www.epoxyglue.com","yp_url":"https:\/\/yellow.co.nz\/y\/epoxyglue-shop?src=name","addrInfo":{"lat":-36.9299683,"lng":174.7871995,"street_number":"47","locality":"Auckland","administrative_area_level_1":"Auckland","country_code":"NZ","country":"New Zealand","postal_code":"1061","route":"47 Onehunga Mall","formatted_address":"47 Onehunga Mall, Onehunga, Auckland 1061, New Zealand"}},{"business_url":"http:\/\/www.waikatomilking.co.nz","yp_url":"https:\/\/yellow.co.nz\/y\/moa-milking-pumping-inglewood?src=name","addrInfo":{"lat":-39.1572099,"lng":174.2061855,"street_number":"39","locality":"Inglewood","administrative_area_level_1":"Taranaki","country_code":"NZ","country":"New Zealand","postal_code":"4330","route":"39 Cutfield St","formatted_address":"39 Cutfield St, Inglewood 4330, New Zealand"}},{"business_url":"http:\/\/www.floridaltd.co.nz","yp_url":"https:\/\/yellow.co.nz\/y\/florida-hautapu?src=name","addrInfo":{"lat":-37.8601898,"lng":175.4496785,"street_number":"60","locality":"Tamahere","administrative_area_level_1":"Waikato","country_code":"NZ","country":"New Zealand","postal_code":"3493","route":"60 Hautapu Rd","formatted_address":"60 Hautapu Rd, Tamahere 3493, New Zealand"}},{"business_url":"http:\/\/www.industrialsands.co.nz","yp_url":"https:\/\/yellow.co.nz\/y\/industrial-sands?src=name","addrInfo":{"lat":-36.863902,"lng":174.5898246,"street_number":"612","locality":"Auckland","administrative_area_level_1":"Auckland","country_code":"NZ","country":"New Zealand","postal_code":"0612","route":"612 Swanson Rd","formatted_address":"612 Swanson Rd, Swanson, Auckland 0612, New Zealand"}}]