[{"business_url":"http:\/\/www.autobrake.co.nz","yp_url":"https:\/\/yellow.co.nz\/y\/automotive-brake-gill-street?src=name","addrInfo":{"lat":-39.0531259,"lng":174.0850741,"street_number":"173","locality":"New Plymouth","administrative_area_level_1":"Taranaki","country_code":"NZ","country":"New Zealand","postal_code":"4312","route":"173 Gill St","formatted_address":"173 Gill St, New Plymouth 4312, New Zealand"}},{"business_url":"http:\/\/www.petespanelandpaint.co.nz","yp_url":"https:\/\/yellow.co.nz\/y\/petes-panel-paint?src=name","addrInfo":{"lat":-38.2268385,"lng":175.8759186,"street_number":"2","locality":"Tokoroa","administrative_area_level_1":"Waikato","country_code":"NZ","country":"New Zealand","postal_code":"3420","route":"2 Braeside Ave","formatted_address":"2 Braeside Ave, Tokoroa 3420, New Zealand"}},{"business_url":"http:\/\/www.rosstaylormotors.co.nz","yp_url":"https:\/\/yellow.co.nz\/y\/ross-taylor-motors-pukekohe?src=name","addrInfo":{"lat":-37.2026804,"lng":174.9062317,"street_number":"3","locality":"Pukekohe","administrative_area_level_1":"Auckland","country_code":"NZ","country":"New Zealand","postal_code":"2120","route":"3 Graham St","formatted_address":"3 Graham St, Pukekohe 2120, New Zealand"}},{"business_url":"http:\/\/www.faganhannay.co.nz","yp_url":"https:\/\/yellow.co.nz\/y\/fagan-hannay-sheetmetals?src=name","addrInfo":{"lat":-36.9049467,"lng":174.6905265,"street_number":"12","locality":"Auckland","administrative_area_level_1":"Auckland","country_code":"NZ","country":"New Zealand","postal_code":"0600","route":"12 Portage Rd","formatted_address":"12 Portage Rd, New Lynn, Auckland 0600, New Zealand"}},{"business_url":"http:\/\/www.autobrake.co.nz","yp_url":"https:\/\/yellow.co.nz\/y\/automotive-brake-clutch-new?src=name","addrInfo":{"lat":-39.0531259,"lng":174.0850741,"street_number":"173","locality":"New Plymouth","administrative_area_level_1":"Taranaki","country_code":"NZ","country":"New Zealand","postal_code":"4312","route":"173 Gill St","formatted_address":"173 Gill St, New Plymouth 4312, New Zealand"}},{"business_url":"http:\/\/www.alarmlock.co.nz","yp_url":"https:\/\/yellow.co.nz\/y\/alarmlock-security-services-papakura?src=name","addrInfo":{"lat":-37.0632497,"lng":174.9429604,"street_number":"182","locality":"Papakura","administrative_area_level_1":"Auckland","country_code":"NZ","country":"New Zealand","postal_code":"2110","route":"182 Great South Rd","formatted_address":"182 Great South Rd, Papakura, Papakura 2110, New Zealand"}},{"business_url":"http:\/\/www.anythingauto.co.nz\/","yp_url":"https:\/\/yellow.co.nz\/y\/anything-auto-electrical?src=name","addrInfo":{"lat":-37.6981094,"lng":176.1517055,"street_number":"32","locality":"Tauranga","administrative_area_level_1":"Bay Of Plenty","country_code":"NZ","country":"New Zealand","postal_code":"3110","route":"32 Waihi Rd","formatted_address":"32 Waihi Rd, Judea, Tauranga 3110, New Zealand"}},{"business_url":"http:\/\/www.theboatcentre.co.nz\/","yp_url":"https:\/\/yellow.co.nz\/y\/boat-centre-boat?src=name","addrInfo":{"lat":-37.0500241,"lng":174.931629,"street_number":"11","locality":"Takanini","administrative_area_level_1":"Auckland","country_code":"NZ","country":"New Zealand","postal_code":"2112","route":"11 Walters Rd","formatted_address":"11 Walters Rd, Takanini 2112, New Zealand"}},{"business_url":"http:\/\/www.calisuzu.co.nz\/","yp_url":"https:\/\/yellow.co.nz\/y\/commercial-autos-2008?src=name","addrInfo":{"lat":-37.7468952,"lng":175.2333044,"street_number":"1215","locality":"Hamilton","administrative_area_level_1":"Waikato","country_code":"NZ","country":"New Zealand","postal_code":"3200","route":"1215 Te Rapa Rd","formatted_address":"1215 Te Rapa Rd, Pukete, Hamilton 3200, New Zealand"}},{"business_url":"http:\/\/www.mobilfuelfinder.co.nz","yp_url":"https:\/\/yellow.co.nz\/y\/waikiwi-motors-mobil?src=name","addrInfo":{"lat":-46.3727889,"lng":168.3470066,"street_number":"376","locality":"Invercargill","administrative_area_level_1":"Southland","country_code":"NZ","country":"New Zealand","postal_code":"9810","route":"376 North Rd","formatted_address":"376 North Rd, Waikiwi, Invercargill 9810, New Zealand"}},{"business_url":"http:\/\/www.ansinandmonteith.co.nz","yp_url":"https:\/\/yellow.co.nz\/y\/ansin-monteith?src=name","addrInfo":{"lat":-39.6395662,"lng":176.8488852,"street_number":"508","locality":"Hastings","administrative_area_level_1":"Hawke's Bay","country_code":"NZ","country":"New Zealand","postal_code":"4122","route":"508 Karamu Rd N","formatted_address":"508 Karamu Rd N, Hastings, Hastings 4122, New Zealand"}},{"business_url":"http:\/\/www.tsn.co.nz","yp_url":"https:\/\/yellow.co.nz\/y\/truck-specialists-nelson?src=name","addrInfo":{"lat":-41.3326556,"lng":173.1893696,"street_number":"4","locality":"Richmond","administrative_area_level_1":"Tasman","country_code":"NZ","country":"New Zealand","postal_code":"7020","route":"4 McPherson St","formatted_address":"4 McPherson St, Richmond 7020, New Zealand"}}]