[{"business_url":"http:\/\/www.arobros.co.nz","yp_url":"https:\/\/yellow.co.nz\/y\/aro-bros-onehunga?src=name","addrInfo":{"lat":-36.9240118,"lng":174.7801493,"street_number":"17B","locality":"Auckland","administrative_area_level_1":"Auckland","country_code":"NZ","country":"New Zealand","postal_code":"1061","route":"17B George Terrace","formatted_address":"17B George Terrace, Onehunga, Auckland 1061, New Zealand"}},{"business_url":"http:\/\/www.truckpartsnz.co.nz","yp_url":"https:\/\/yellow.co.nz\/y\/jeff-peters-truck-parts?src=name","addrInfo":{"lat":-37.7568026,"lng":175.2404147,"street_number":"33","locality":"Hamilton","administrative_area_level_1":"Waikato","country_code":"NZ","country":"New Zealand","postal_code":"3200","route":"33 Northway St","formatted_address":"33 Northway St, Te Rapa, Hamilton 3200, New Zealand"}},{"business_url":"http:\/\/www.haurakipanel.co.nz","yp_url":"https:\/\/yellow.co.nz\/y\/hauraki-panel-birkenhead?src=name","addrInfo":{"lat":-36.8119558,"lng":174.7288604,"street_number":"42","locality":"Auckland","administrative_area_level_1":"Auckland","country_code":"NZ","country":"New Zealand","postal_code":"0626","route":"42 Enterprise St","formatted_address":"42 Enterprise St, Birkenhead, Auckland 0626, New Zealand"}},{"business_url":"http:\/\/www.smithssportsshoes.co.nz","yp_url":"https:\/\/yellow.co.nz\/y\/smiths-sports-shoes-auckland?src=name","addrInfo":{"lat":-36.8749113,"lng":174.7510288,"street_number":"193","locality":"Auckland","administrative_area_level_1":"Auckland","country_code":"NZ","country":"New Zealand","postal_code":"1024","route":"193 Dominion Rd","formatted_address":"193 Dominion Rd, Mount Eden, Auckland 1024, New Zealand"}},{"business_url":"http:\/\/www.richardsoncommunications.co.nz\/","yp_url":"https:\/\/yellow.co.nz\/y\/richardson-communications-frankton?src=name","addrInfo":{"lat":-37.7885538,"lng":175.2722739,"street_number":"25","locality":"Hamilton","administrative_area_level_1":"Waikato","country_code":"NZ","country":"New Zealand","postal_code":"3204","route":"25 Devon Rd","formatted_address":"25 Devon Rd, Frankton, Hamilton 3204, New Zealand"}},{"business_url":"http:\/\/www.thecrystalball.co.nz","yp_url":"https:\/\/yellow.co.nz\/y\/crystal-ball-clinic?src=name","addrInfo":{"lat":-37.142086,"lng":175.5439374,"street_number":"330A","locality":"Thames","administrative_area_level_1":"Waikato","country_code":"NZ","country":"New Zealand","postal_code":"3500","route":"330A Pollen St","formatted_address":"330A Pollen St, Thames 3500, New Zealand"}},{"business_url":"http:\/\/www.chocolateboutique.co.nz","yp_url":"https:\/\/yellow.co.nz\/y\/chocolate-boutique-cafe?src=name","addrInfo":{"lat":-36.8572712,"lng":174.7814205,"street_number":"323","locality":"Auckland","administrative_area_level_1":"Auckland","country_code":"NZ","country":"New Zealand","postal_code":"1052","route":"323 Parnell Rd","formatted_address":"323 Parnell Rd, Parnell, Auckland 1052, New Zealand"}},{"business_url":"http:\/\/www.golfwarehouse.co.nz","yp_url":"https:\/\/yellow.co.nz\/y\/golf-warehouse-eden?src=name","addrInfo":{"lat":-36.8626706,"lng":174.7561069,"street_number":"74","locality":"Auckland","administrative_area_level_1":"Auckland","country_code":"NZ","country":"New Zealand","postal_code":"1010","route":"74 Newton Rd","formatted_address":"74 Newton Rd, Eden Terrace, Auckland 1010, New Zealand"}},{"business_url":"http:\/\/www.roche-diagnostics.co.nz\/","yp_url":"https:\/\/yellow.co.nz\/y\/roche-diagnostics-nz?src=name","addrInfo":{"lat":-36.922783,"lng":174.8588545,"street_number":"15","locality":"Auckland","administrative_area_level_1":"Auckland","country_code":"NZ","country":"New Zealand","postal_code":"1060","route":"15 Rakino Way","formatted_address":"15 Rakino Way, Mount Wellington, Auckland 1060, New Zealand"}},{"business_url":"http:\/\/www.plumbuilt.co.nz","yp_url":"https:\/\/yellow.co.nz\/y\/plumbuilt-plumbing-services-hillcrest?src=name","addrInfo":{"lat":-36.7804677,"lng":174.7397881,"street_number":"211","locality":"Auckland","administrative_area_level_1":"Auckland","country_code":"NZ","country":"New Zealand","postal_code":"0629","route":"211 Archers Rd","formatted_address":"211 Archers Rd, Wairau Valley, Auckland 0629, New Zealand"}}]