[{"business_url":"http:\/\/www.kamomarineservices.co.nz","yp_url":"https:\/\/yellow.co.nz\/y\/bw-brown-marine?src=name&c=1645","addrInfo":{"lat":-35.6824107,"lng":174.3667086,"street_number":"193","locality":"Glenbervie","administrative_area_level_1":"Northland","country_code":"NZ","country":"New Zealand","postal_code":"0175","route":"193 Harris Rd","formatted_address":"193 Harris Rd, Glenbervie 0175, New Zealand"}},{"business_url":"http:\/\/www.imperialpanelbeaters.co.nz","yp_url":"https:\/\/yellow.co.nz\/y\/imperial-panel-beaters?src=name&c=1645","addrInfo":{"lat":-35.6731954,"lng":174.2977398,"street_number":"7","locality":"Whangarei","administrative_area_level_1":"Northland","country_code":"NZ","country":"New Zealand","postal_code":"0112","route":"7 Great N Rd","formatted_address":"7 Great N Rd, Kamo, Whangarei 0112, New Zealand"}},{"business_url":"http:\/\/www.cowleyshire.co.nz","yp_url":"https:\/\/yellow.co.nz\/y\/cowleys-hire-centres-commerce?src=name&c=1645","addrInfo":{"lat":-35.7310407,"lng":174.3257045,"street_number":"54","locality":"Whangarei","administrative_area_level_1":"Northland","country_code":"NZ","country":"New Zealand","postal_code":"0110","route":"54 Commerce St","formatted_address":"54 Commerce St, Whangarei, Whangarei 0110, New Zealand"}},{"business_url":"http:\/\/www.chookspande.co.nz","yp_url":"https:\/\/yellow.co.nz\/y\/chooks-pumping-engineering?src=name&c=1645","addrInfo":{"lat":-39.1439425,"lng":174.144185,"street_number":"1268A","locality":"Egmont Village","administrative_area_level_1":"Taranaki","country_code":"NZ","country":"New Zealand","postal_code":"4372","route":"1268A Egmont Rd","formatted_address":"1268A Egmont Rd, Egmont Village 4372, New Zealand"}},{"business_url":"http:\/\/www.pintotrailers.co.nz\/","yp_url":"https:\/\/yellow.co.nz\/y\/pinto-trailers?src=name&c=1645","addrInfo":{"lat":-36.9158164,"lng":174.8247832,"street_number":"7","locality":"Auckland","administrative_area_level_1":"Auckland","country_code":"NZ","country":"New Zealand","postal_code":"1061","route":"7 Sims Rd","formatted_address":"7 Sims Rd, Penrose, Auckland 1061, New Zealand"}},{"business_url":"http:\/\/www.arobros.co.nz","yp_url":"https:\/\/yellow.co.nz\/y\/aro-bros-onehunga?src=name&c=1645","addrInfo":{"lat":-36.9240118,"lng":174.7801493,"street_number":"17B","locality":"Auckland","administrative_area_level_1":"Auckland","country_code":"NZ","country":"New Zealand","postal_code":"1061","route":"17B George Terrace","formatted_address":"17B George Terrace, Onehunga, Auckland 1061, New Zealand"}},{"business_url":"http:\/\/www.challenge.net.nz\/en\/About-Challenge\/Our-Services\/Trailer-Hire\/","yp_url":"https:\/\/yellow.co.nz\/y\/challenge-tyrepower?src=name&c=1645","addrInfo":{"lat":-37.7972246,"lng":175.3075479,"street_number":"101","locality":"Hamilton","administrative_area_level_1":"Waikato","country_code":"NZ","country":"New Zealand","postal_code":"3216","route":"101 Naylor St","formatted_address":"101 Naylor St, Hamilton East, Hamilton 3216, New Zealand"}},{"business_url":"http:\/\/www.trailerworld.co.nz","yp_url":"https:\/\/yellow.co.nz\/y\/trailer-world-trailer?src=name&c=1645","addrInfo":{"lat":-37.2055842,"lng":174.9086665,"street_number":"123","locality":"Pukekohe","administrative_area_level_1":"Auckland","country_code":"NZ","country":"New Zealand","postal_code":"2120","route":"123 Manukau Rd","formatted_address":"123 Manukau Rd, Pukekohe 2120, New Zealand"}},{"business_url":"http:\/\/www.autobrake.co.nz","yp_url":"https:\/\/yellow.co.nz\/y\/automotive-brake-gill-street?src=name&c=1645","addrInfo":{"lat":-39.0531259,"lng":174.0850741,"street_number":"173","locality":"New Plymouth","administrative_area_level_1":"Taranaki","country_code":"NZ","country":"New Zealand","postal_code":"4312","route":"173 Gill St","formatted_address":"173 Gill St, New Plymouth 4312, New Zealand"}},{"business_url":"http:\/\/www.hammar.co.nz","yp_url":"https:\/\/yellow.co.nz\/y\/hammar-new-zealand?src=name&c=1645","addrInfo":{"lat":-37.0288836,"lng":174.9170018,"street_number":"16","locality":"Takanini","administrative_area_level_1":"Auckland","country_code":"NZ","country":"New Zealand","postal_code":"2105","route":"16 Marphona Cres","formatted_address":"16 Marphona Cres, Takanini 2105, New Zealand"}},{"business_url":"http:\/\/www.arobros.co.nz","yp_url":"https:\/\/yellow.co.nz\/y\/aro-bros-bassant?src=name&c=1645","addrInfo":{"lat":-36.9240118,"lng":174.7801493,"street_number":"17B","locality":"Auckland","administrative_area_level_1":"Auckland","country_code":"NZ","country":"New Zealand","postal_code":"1061","route":"17B George Terrace","formatted_address":"17B George Terrace, Onehunga, Auckland 1061, New Zealand"}},{"business_url":"http:\/\/www.hireace.co.nz","yp_url":"https:\/\/yellow.co.nz\/y\/hireace-hillcrest?src=name&c=1645","addrInfo":{"lat":-36.7844735,"lng":174.7387134,"street_number":"106","locality":"Auckland","administrative_area_level_1":"Auckland","country_code":"NZ","country":"New Zealand","postal_code":"0627","route":"106 Sunnybrae Rd","formatted_address":"106 Sunnybrae Rd, Hillcrest, Auckland 0627, New Zealand"}},{"business_url":"http:\/\/www.thetrailershop.co.nz\/","yp_url":"https:\/\/yellow.co.nz\/y\/trailer-shop-albany?src=name&c=1645","addrInfo":{"lat":-36.7677778,"lng":174.7330591,"street_number":"95","locality":"Auckland","administrative_area_level_1":"Auckland","country_code":"NZ","country":"New Zealand","postal_code":"0629","route":"95 Ellice Rd","formatted_address":"5\/95 Ellice Rd, Wairau Valley, Auckland 0629, New Zealand"}},{"business_url":"http:\/\/www.twlnz.co.nz","yp_url":"https:\/\/yellow.co.nz\/y\/twl-pukekohe?src=name&c=1645","addrInfo":{"lat":-37.2097601,"lng":174.9099658,"street_number":"173","locality":"Pukekohe","administrative_area_level_1":"Auckland","country_code":"NZ","country":"New Zealand","postal_code":"2120","route":"173 Manukau Rd","formatted_address":"173 Manukau Rd, Pukekohe 2120, New Zealand"}},{"business_url":"http:\/\/www.thetrailershop.co.nz","yp_url":"https:\/\/yellow.co.nz\/y\/trailer-shop-bricon?src=name&c=1645","addrInfo":{"lat":-36.7677778,"lng":174.7330591,"street_number":"95","locality":"Auckland","administrative_area_level_1":"Auckland","country_code":"NZ","country":"New Zealand","postal_code":"0629","route":"95 Ellice Rd","formatted_address":"5\/95 Ellice Rd, Wairau Valley, Auckland 0629, New Zealand"}},{"business_url":"http:\/\/www.probars.co.nz","yp_url":"https:\/\/yellow.co.nz\/y\/pro-bars-high-street-2?src=name&c=1645","addrInfo":{"lat":-37.7869498,"lng":175.2684713,"street_number":"28","locality":"Hamilton","administrative_area_level_1":"Waikato","country_code":"NZ","country":"New Zealand","postal_code":"3204","route":"28 King St","formatted_address":"28 King St, Frankton, Hamilton 3204, New Zealand"}},{"business_url":"http:\/\/www.hireace.co.nz","yp_url":"https:\/\/yellow.co.nz\/y\/hireace-onehunga?src=name&c=1645","addrInfo":{"lat":-36.9193544,"lng":174.784495,"street_number":"304","locality":"Auckland","administrative_area_level_1":"Auckland","country_code":"NZ","country":"New Zealand","postal_code":"1061","route":"304 Onehunga Mall","formatted_address":"302\/304 Onehunga Mall, Onehunga, Auckland 1061, New Zealand"}},{"business_url":"http:\/\/www.trailerace.co.nz","yp_url":"https:\/\/yellow.co.nz\/y\/trailerace-onehunga?src=name&c=1645","addrInfo":{"lat":-36.9193544,"lng":174.784495,"street_number":"304","locality":"Auckland","administrative_area_level_1":"Auckland","country_code":"NZ","country":"New Zealand","postal_code":"1061","route":"304 Onehunga Mall","formatted_address":"302\/304 Onehunga Mall, Onehunga, Auckland 1061, New Zealand"}},{"business_url":"http:\/\/www.dmwtrailers.co.nz","yp_url":"https:\/\/yellow.co.nz\/y\/dmw-trailers?src=name&c=1645","addrInfo":{"lat":-37.7473589,"lng":175.2368015,"street_number":"12","locality":"Hamilton","administrative_area_level_1":"Waikato","country_code":"NZ","country":"New Zealand","postal_code":"3200","route":"12 Karewa Pl","formatted_address":"12 Karewa Pl, Pukete, Hamilton 3200, New Zealand"}},{"business_url":"http:\/\/www.almgroup.co.nz","yp_url":"https:\/\/yellow.co.nz\/y\/enduro-trailers?src=name&c=1645","addrInfo":{"lat":-37.7402369,"lng":175.2246947,"street_number":"10","locality":"Hamilton","administrative_area_level_1":"Waikato","country_code":"NZ","country":"New Zealand","postal_code":"3200","route":"10 Udy Pl","formatted_address":"10 Udy Pl, Te Rapa Park, Hamilton 3200, New Zealand"}},{"business_url":"http:\/\/www.facebook.com\/savillcoachwork.nz?fref=ts","yp_url":"https:\/\/yellow.co.nz\/y\/savill-sport-trailers?src=name&c=1645","addrInfo":{"lat":-37.7144118,"lng":176.1501461,"street_number":"4","locality":"Tauranga","administrative_area_level_1":"Bay Of Plenty","country_code":"NZ","country":"New Zealand","postal_code":"3112","route":"4 Brook St","formatted_address":"d\/4 Brook St, Parkvale, Tauranga 3112, New Zealand"}},{"business_url":"http:\/\/www.vcml.co.nz","yp_url":"https:\/\/yellow.co.nz\/y\/vehicle-construction-maintenance?src=name&c=1645","addrInfo":{"lat":-36.8839788,"lng":174.6855696,"street_number":"28","locality":"Auckland","administrative_area_level_1":"Auckland","country_code":"NZ","country":"New Zealand","postal_code":"1026","route":"28 Honan Pl","formatted_address":"28 Honan Pl, Avondale, Auckland 1026, New Zealand"}},{"business_url":"http:\/\/www.handy.co.nz","yp_url":"https:\/\/yellow.co.nz\/y\/handy-ute-van-truck-rental?src=name&c=1645","addrInfo":{"lat":-37.772667,"lng":175.2423084,"street_number":"100","locality":"Hamilton","administrative_area_level_1":"Waikato","country_code":"NZ","country":"New Zealand","postal_code":"3200","route":"100 Avalon Dr","formatted_address":"100 Avalon Dr, Nawton, Hamilton 3200, New Zealand"}},{"business_url":"http:\/\/www.reidtrailers.co.nz","yp_url":"https:\/\/yellow.co.nz\/y\/reid-trailers-cowley?src=name&c=1645","addrInfo":{"lat":-36.7427335,"lng":174.7197805,"street_number":"16","locality":"Auckland","administrative_area_level_1":"Auckland","country_code":"NZ","country":"New Zealand","postal_code":"0632","route":"16 Cowley Pl","formatted_address":"16 Cowley Pl, Rosedale, Auckland 0632, New Zealand"}},{"business_url":"http:\/\/www.hireace.co.nz","yp_url":"https:\/\/yellow.co.nz\/y\/hireace-grey?src=name&c=1645","addrInfo":{"lat":-36.864681,"lng":174.7454247,"street_number":"271","locality":"Auckland","administrative_area_level_1":"Auckland","country_code":"NZ","country":"New Zealand","postal_code":"1021","route":"271 Great North Rd","formatted_address":"271 Great North Rd, Grey Lynn, Auckland 1021, New Zealand"}},{"business_url":"http:\/\/www.twlnz.co.nz","yp_url":"https:\/\/yellow.co.nz\/y\/twl-albany?src=name&c=1645","addrInfo":{"lat":-36.7401035,"lng":174.7168712,"street_number":"2","locality":"Auckland","administrative_area_level_1":"Auckland","country_code":"NZ","country":"New Zealand","postal_code":"0632","route":"2 Tawa Dr","formatted_address":"12\/2 Tawa Dr, Albany, Auckland 0632, New Zealand"}},{"business_url":"http:\/\/www.trailerworld.co.nz\/","yp_url":"https:\/\/yellow.co.nz\/y\/trailer-world-waiau?src=name&c=1645","addrInfo":{"lat":-37.150043,"lng":174.7774931,"street_number":"253","locality":"Waiau Pa","administrative_area_level_1":"Auckland","country_code":"NZ","country":"New Zealand","postal_code":"2679","route":"253 Waiau Pa Rd","formatted_address":"253 Waiau Pa Rd, Waiau Pa 2679, New Zealand"}},{"business_url":"http:\/\/www.hammar.co.nz","yp_url":"https:\/\/yellow.co.nz\/y\/hammar-new-zealand-papakura?src=name&c=1645","addrInfo":{"lat":-37.0533341,"lng":174.9664723,"street_number":"1347","locality":"Papakura","administrative_area_level_1":"Auckland","country_code":"NZ","country":"New Zealand","postal_code":"2582","route":"1347 Papakura-Clevedon Rd","formatted_address":"1347 Papakura-Clevedon Rd, Papakura, Papakura 2582, New Zealand"}},{"business_url":"http:\/\/www.autobrake.co.nz","yp_url":"https:\/\/yellow.co.nz\/y\/automotive-brake-clutch-new?src=name&c=1645","addrInfo":{"lat":-39.0531259,"lng":174.0850741,"street_number":"173","locality":"New Plymouth","administrative_area_level_1":"Taranaki","country_code":"NZ","country":"New Zealand","postal_code":"4312","route":"173 Gill St","formatted_address":"173 Gill St, New Plymouth 4312, New Zealand"}},{"business_url":"http:\/\/www.trailerace.co.nz","yp_url":"https:\/\/yellow.co.nz\/y\/trailerace?src=name&c=1645","addrInfo":{"lat":-36.864681,"lng":174.7454247,"street_number":"271","locality":"Auckland","administrative_area_level_1":"Auckland","country_code":"NZ","country":"New Zealand","postal_code":"1021","route":"271 Great North Rd","formatted_address":"271 Great North Rd, Grey Lynn, Auckland 1021, New Zealand"}},{"business_url":"http:\/\/www.twlnz.co.nz","yp_url":"https:\/\/yellow.co.nz\/y\/twl-wiri?src=name&c=1645","addrInfo":{"lat":-37.0075602,"lng":174.8714494,"street_number":"153","locality":"Auckland","administrative_area_level_1":"Auckland","country_code":"NZ","country":"New Zealand","postal_code":"2104","route":"153 Kerrs Rd","formatted_address":"153 Kerrs Rd, Wiri, Auckland 2104, New Zealand"}},{"business_url":"http:\/\/www.prescotttrailers.co.nz","yp_url":"https:\/\/yellow.co.nz\/y\/prescott-trailers-te?src=name&c=1645","addrInfo":{"lat":-37.7808599,"lng":176.3257776,"street_number":"29","locality":"Te Puke","administrative_area_level_1":"Bay Of Plenty","country_code":"NZ","country":"New Zealand","postal_code":"3119","route":"29 Station Rd","formatted_address":"29 Station Rd, Te Puke 3119, New Zealand"}},{"business_url":"http:\/\/www.gibbons-eng.co.nz","yp_url":"https:\/\/yellow.co.nz\/y\/gibbons-engineering-morrinsville?src=name&c=1645","addrInfo":{"lat":-37.6589596,"lng":175.5149484,"street_number":"114","locality":"Morrinsville","administrative_area_level_1":"Waikato","country_code":"NZ","country":"New Zealand","postal_code":"3372","route":"114 Avenue Rd","formatted_address":"114 Avenue Rd, Morrinsville 3372, New Zealand"}},{"business_url":"http:\/\/www.superiorshuttles.co.nz","yp_url":"https:\/\/yellow.co.nz\/y\/superior-shuttles-manurewa?src=name&c=1645","addrInfo":{"lat":-37.0360978,"lng":174.9039983,"street_number":"27","locality":"Auckland","administrative_area_level_1":"Auckland","country_code":"NZ","country":"New Zealand","postal_code":"2102","route":"27 Holmes Rd","formatted_address":"27 Holmes Rd, Manurewa, Auckland 2102, New Zealand"}},{"business_url":"http:\/\/www.roadmaster.co.nz","yp_url":"https:\/\/yellow.co.nz\/y\/roadmaster-rotorua?src=name&c=1645","addrInfo":{"lat":-38.1318785,"lng":176.2361149,"street_number":"35","locality":"Rotorua","administrative_area_level_1":"Bay Of Plenty","country_code":"NZ","country":"New Zealand","postal_code":"3015","route":"35 Biak St","formatted_address":"11\/35 Biak St, Mangakakahi, Rotorua 3015, New Zealand"}},{"business_url":"http:\/\/www.gttrailers.co.nz","yp_url":"https:\/\/yellow.co.nz\/y\/gt-trailers-onehunga?src=name&c=1645","addrInfo":{"lat":-36.9260463,"lng":174.8052749,"street_number":"287","locality":"Auckland","administrative_area_level_1":"Auckland","country_code":"NZ","country":"New Zealand","postal_code":"1061","route":"287 Neilson St","formatted_address":"287 Neilson St, Onehunga, Auckland 1061, New Zealand"}},{"business_url":"http:\/\/www.renegadetrailers.co.nz","yp_url":"https:\/\/yellow.co.nz\/y\/renegade-trailers-wairau?src=name&c=1645","addrInfo":{"lat":-36.7658976,"lng":174.7356133,"street_number":"4","locality":"Auckland","administrative_area_level_1":"Auckland","country_code":"NZ","country":"New Zealand","postal_code":"0627","route":"4 Target Ct","formatted_address":"4 Target Ct, Wairau Valley, Auckland 0627, New Zealand"}},{"business_url":"http:\/\/www.roadmaster.co.nz","yp_url":"https:\/\/yellow.co.nz\/y\/roadmaster?src=name&c=1645","addrInfo":{"lat":-38.1326658,"lng":176.2364318,"street_number":"11","locality":"Rotorua","administrative_area_level_1":"Bay Of Plenty","country_code":"NZ","country":"New Zealand","postal_code":"3015","route":"11 Biak St","formatted_address":"11 Biak St, Mangakakahi, Rotorua 3015, New Zealand"}},{"business_url":"http:\/\/www.voyagertrailers.co.nz","yp_url":"https:\/\/yellow.co.nz\/y\/voyager-trailers-kaimiro?src=name&c=1645","addrInfo":{"lat":-37.728385,"lng":175.2185915,"street_number":"43","locality":"Hamilton","administrative_area_level_1":"Waikato","country_code":"NZ","country":"New Zealand","postal_code":"3288","route":"43 Old Ruffell Rd","formatted_address":"43 Old Ruffell Rd, Te Rapa Park, Hamilton 3288, New Zealand"}},{"business_url":"http:\/\/www.maxitrans.co.nz","yp_url":"https:\/\/yellow.co.nz\/y\/maxitrans-industries?src=name&c=1645","addrInfo":{"lat":-37.0346942,"lng":174.9179819,"street_number":"61","locality":"Takanini","administrative_area_level_1":"Auckland","country_code":"NZ","country":"New Zealand","postal_code":"2105","route":"61 Spartan Rd","formatted_address":"61 Spartan Rd, Takanini 2105, New Zealand"}},{"business_url":"http:\/\/www.fieldline.co.nz","yp_url":"https:\/\/yellow.co.nz\/y\/fieldline?src=name&c=1645","addrInfo":{"lat":-36.9255615,"lng":174.784798,"street_number":"53","locality":"Auckland","administrative_area_level_1":"Auckland","country_code":"NZ","country":"New Zealand","postal_code":"1061","route":"53 Princes St","formatted_address":"53 Princes St, Onehunga, Auckland 1061, New Zealand"}},{"business_url":"http:\/\/www.twlnz.co.nz","yp_url":"https:\/\/yellow.co.nz\/y\/twl-penrose?src=name&c=1645","addrInfo":{"lat":-36.9216715,"lng":174.8128798,"street_number":"385","locality":"Auckland","administrative_area_level_1":"Auckland","country_code":"NZ","country":"New Zealand","postal_code":"1061","route":"385 Neilson St","formatted_address":"385 Neilson St, Penrose, Auckland 1061, New Zealand"}},{"business_url":"http:\/\/www.gearshift.co.nz","yp_url":"https:\/\/yellow.co.nz\/y\/gear-shift-furniture?src=name&c=1645","addrInfo":{"lat":-37.710253,"lng":176.1592529,"street_number":"131","locality":"Tauranga","administrative_area_level_1":"Bay Of Plenty","country_code":"NZ","country":"New Zealand","postal_code":"3112","route":"131 Grace Rd","formatted_address":"131 Grace Rd, Tauranga South, Tauranga 3112, New Zealand"}}]