[{"business_url":"http:\/\/www.naanaatitranslator.co.nz","yp_url":"https:\/\/yellow.co.nz\/y\/chinese-translation-interpreting-specialists?src=name","addrInfo":{"lat":-36.9160861,"lng":174.7071124,"street_number":"74B","locality":"Auckland","administrative_area_level_1":"Auckland","country_code":"NZ","country":"New Zealand","postal_code":"0600","route":"74B Terry St","formatted_address":"74B Terry St, Blockhouse Bay, Auckland 0600, New Zealand"}},{"business_url":"http:\/\/www.russian.co.nz","yp_url":"https:\/\/yellow.co.nz\/y\/auckland-translation-services?src=name","addrInfo":{"lat":-36.8811418,"lng":174.8154102,"street_number":"4D","locality":"Auckland","administrative_area_level_1":"Auckland","country_code":"NZ","country":"New Zealand","postal_code":"1050","route":"4D Haast St","formatted_address":"4D Haast St, Remuera, Auckland 1050, New Zealand"}},{"business_url":"http:\/\/www.artpsnz.com","yp_url":"https:\/\/yellow.co.nz\/y\/translingo-nzpeter-schoenauer?src=name","addrInfo":{"lat":-36.9182596,"lng":174.7453117,"street_number":"4","locality":"Auckland","administrative_area_level_1":"Auckland","country_code":"NZ","country":"New Zealand","postal_code":"1041","route":"4 Gregory Pl","formatted_address":"4 Gregory Pl, Mount Roskill, Auckland 1041, New Zealand"}},{"business_url":"http:\/\/www.lerichards.co.uk","yp_url":"https:\/\/yellow.co.nz\/y\/le-richards-translation?src=name","addrInfo":{"lat":-37.3345652,"lng":174.9079378,"street_number":"27","locality":"Onewhero","administrative_area_level_1":"Auckland","country_code":"NZ","country":"New Zealand","postal_code":"2697","route":"27 Wairamarama Onewhero Rd","formatted_address":"27 Wairamarama Onewhero Rd, Onewhero 2697, New Zealand"}},{"business_url":"http:\/\/www.aktranslation.co.nz","yp_url":"https:\/\/yellow.co.nz\/y\/auckland-translations-arrenway?src=name","addrInfo":{"lat":-36.890152,"lng":174.7925467,"street_number":"193","locality":"Auckland","administrative_area_level_1":"Auckland","country_code":"NZ","country":"New Zealand","postal_code":"1051","route":"193 Great South Rd","formatted_address":"193 Great South Rd, Greenlane, Auckland 1051, New Zealand"}},{"business_url":"http:\/\/www.jts.multiprisim.com","yp_url":"https:\/\/yellow.co.nz\/y\/japanese-translation-services-pembroke?src=name","addrInfo":{"lat":-36.8882131,"lng":174.7080731,"street_number":"17","locality":"Auckland","administrative_area_level_1":"Auckland","country_code":"NZ","country":"New Zealand","postal_code":"1025","route":"17 Jersey Ave","formatted_address":"17 Jersey Ave, Mount Albert, Auckland 1025, New Zealand"}},{"business_url":"http:\/\/www.transnational-ltd.co.nz","yp_url":"https:\/\/yellow.co.nz\/y\/transnational-translations-pukuatua?src=name","addrInfo":{"lat":-38.1371577,"lng":176.2423765,"street_number":"1460","locality":"Rotorua","administrative_area_level_1":"Bay Of Plenty","country_code":"NZ","country":"New Zealand","postal_code":"3010","route":"1460 Pukuatua St","formatted_address":"1460 Pukuatua St, Rotorua 3010, New Zealand"}},{"business_url":"http:\/\/www.transnational-ltd.co.nz","yp_url":"https:\/\/yellow.co.nz\/y\/transnational-translations-hull?src=name","addrInfo":{"lat":-37.6553817,"lng":176.1898548,"street_number":"81","locality":"Tauranga","administrative_area_level_1":"Bay Of Plenty","country_code":"NZ","country":"New Zealand","postal_code":"3116","route":"81 Hull Rd","formatted_address":"81 Hull Rd, Mount Maunganui, Tauranga 3116, New Zealand"}},{"business_url":"http:\/\/www.bigdogtranslations.com","yp_url":"https:\/\/yellow.co.nz\/y\/big-dog-translations?src=name","addrInfo":{"lat":-37.7793567,"lng":175.2841581,"street_number":"1","locality":"Hamilton","administrative_area_level_1":"Waikato","country_code":"NZ","country":"New Zealand","postal_code":"3214","route":"1 Union St","formatted_address":"1 Union St, Claudelands, Hamilton 3214, New Zealand"}},{"business_url":"http:\/\/www.pactrans.co.nz","yp_url":"https:\/\/yellow.co.nz\/y\/pacific-international-translations?src=name","addrInfo":{"lat":-36.8487279,"lng":174.7651677,"street_number":"203","locality":"Auckland","administrative_area_level_1":"Auckland","country_code":"NZ","country":"New Zealand","postal_code":"1010","route":"203 Queen St","formatted_address":"203 Queen St, Auckland, Auckland 1010, New Zealand"}},{"business_url":"http:\/\/www.europeantranslations.co.nz","yp_url":"https:\/\/yellow.co.nz\/y\/european-translation-services?src=name","addrInfo":{"lat":-36.8649309,"lng":174.7466817,"street_number":"264","locality":"Auckland","administrative_area_level_1":"Auckland","country_code":"NZ","country":"New Zealand","postal_code":"1021","route":"264 Great North Rd","formatted_address":"264 Great North Rd, Grey Lynn, Auckland 1021, New Zealand"}},{"business_url":"http:\/\/www.translogicon.co.nz","yp_url":"https:\/\/yellow.co.nz\/y\/translation-logistics-consultancy?src=name","addrInfo":{"lat":-36.8866643,"lng":174.8004935,"street_number":"73","locality":"Auckland","administrative_area_level_1":"Auckland","country_code":"NZ","country":"New Zealand","postal_code":"1050","route":"73 Green Ln E","formatted_address":"73 Green Ln E, Remuera, Auckland 1050, New Zealand"}},{"business_url":"http:\/\/www.spanishlanguage.co.nz","yp_url":"https:\/\/yellow.co.nz\/y\/spanish-language-services?src=name","addrInfo":{"lat":-36.7936451,"lng":174.7287081,"street_number":"78","locality":"Auckland","administrative_area_level_1":"Auckland","country_code":"NZ","country":"New Zealand","postal_code":"0627","route":"78 Mountbatten Ave","formatted_address":"78 Mountbatten Ave, Hillcrest, Auckland 0627, New Zealand"}},{"business_url":"http:\/\/www.aimsnz.com","yp_url":"https:\/\/yellow.co.nz\/y\/aims-interpreting-sign?src=name","addrInfo":{"lat":-36.8505539,"lng":174.7656895,"street_number":"32","locality":"Auckland","administrative_area_level_1":"Auckland","country_code":"NZ","country":"New Zealand","postal_code":"1010","route":"32 Lorne St","formatted_address":"5\/32 Lorne St, Auckland, Auckland 1010, New Zealand"}},{"business_url":"http:\/\/www.transnational-ltd.co.nz","yp_url":"https:\/\/yellow.co.nz\/y\/transnational-translations-victoria?src=name","addrInfo":{"lat":-36.8470583,"lng":174.7638235,"street_number":"63","locality":"Auckland","administrative_area_level_1":"Auckland","country_code":"NZ","country":"New Zealand","postal_code":"1010","route":"63 Albert St","formatted_address":"2\/63 Albert St, Auckland, Auckland 1010, New Zealand"}},{"business_url":"http:\/\/www.cobalt.co.nz","yp_url":"https:\/\/yellow.co.nz\/y\/cobalt-technologies?src=name","addrInfo":{"lat":-36.7736121,"lng":174.6793827,"street_number":"6","locality":"Auckland","administrative_area_level_1":"Auckland","country_code":"NZ","country":"New Zealand","postal_code":"0632","route":"6 Wainoni Heights","formatted_address":"6 Wainoni Heights, Greenhithe, Auckland 0632, New Zealand"}},{"business_url":"http:\/\/bloomz.co.nz","yp_url":"https:\/\/yellow.co.nz\/y\/bloomz?src=name","addrInfo":{"lat":-37.7838571,"lng":176.1246914,"street_number":"421","locality":"Pyes Pa","administrative_area_level_1":"Bay Of Plenty","country_code":"NZ","country":"New Zealand","postal_code":"3173","route":"421 Joyce Rd","formatted_address":"3\/421 Joyce Rd, Pyes Pa 3173, New Zealand"}},{"business_url":"http:\/\/www.destinationnzi.com","yp_url":"https:\/\/yellow.co.nz\/y\/destination-immigration-nz?src=name","addrInfo":{"lat":-37.6853902,"lng":176.1680821,"street_number":"45","locality":"Tauranga","administrative_area_level_1":"Bay Of Plenty","country_code":"NZ","country":"New Zealand","postal_code":"3110","route":"45 Grey St","formatted_address":"45 Grey St, Tauranga, Tauranga 3110, New Zealand"}},{"business_url":"http:\/\/nzimmigrationhelp.co.nz","yp_url":"https:\/\/yellow.co.nz\/y\/e-migration-nz?src=name","addrInfo":{"lat":-37.6841751,"lng":176.1690608,"street_number":"136","locality":"Tauranga","administrative_area_level_1":"Bay Of Plenty","country_code":"NZ","country":"New Zealand","postal_code":"3110","route":"136 Willow St","formatted_address":"1\/136 Willow St, Tauranga, Tauranga 3110, New Zealand"}},{"business_url":"http:\/\/www.syntec.co.nz","yp_url":"https:\/\/yellow.co.nz\/y\/syntec-international?src=name","addrInfo":{"lat":-36.9252774,"lng":174.8363682,"street_number":"26","locality":"Auckland","administrative_area_level_1":"Auckland","country_code":"NZ","country":"New Zealand","postal_code":"1060","route":"26 Vestey Dr","formatted_address":"30\/26 Vestey Dr, Mount Wellington, Auckland 1060, New Zealand"}},{"business_url":"http:\/\/www.tloec.co.nz","yp_url":"https:\/\/yellow.co.nz\/y\/taupo-language-outdoor-education-centre?src=name","addrInfo":{"lat":-38.6901694,"lng":176.0755101,"street_number":"111","locality":"Taupo","administrative_area_level_1":"Waikato","country_code":"NZ","country":"New Zealand","postal_code":"3330","route":"111 Tuwharetoa St","formatted_address":"111 Tuwharetoa St, Taupo 3330, New Zealand"}},{"business_url":"http:\/\/www.quinto.co.nz","yp_url":"https:\/\/yellow.co.nz\/y\/quinto-communications-nz?src=name","addrInfo":{"lat":-36.7884942,"lng":174.7687406,"street_number":"15","locality":"Auckland","administrative_area_level_1":"Auckland","country_code":"NZ","country":"New Zealand","postal_code":"0622","route":"15 Auburn St","formatted_address":"15 Auburn St, Takapuna, Auckland 0622, New Zealand"}},{"business_url":"http:\/\/www.fragomen.com","yp_url":"https:\/\/yellow.co.nz\/y\/fragomen-auckland?src=name","addrInfo":{"lat":-36.8467951,"lng":174.7690089,"street_number":"70","locality":"Auckland","administrative_area_level_1":"Auckland","country_code":"NZ","country":"New Zealand","postal_code":"1010","route":"70 Shortland St","formatted_address":"70 Shortland St, Auckland, Auckland 1010, New Zealand"}},{"business_url":"http:\/\/www.jipl.co.nz","yp_url":"https:\/\/yellow.co.nz\/y\/jonassen-industrial-projects-albany?src=name","addrInfo":{"lat":-36.7248858,"lng":174.6976494,"street_number":"85","locality":"Auckland","administrative_area_level_1":"Auckland","country_code":"NZ","country":"New Zealand","postal_code":"0632","route":"85 Oteha Valley Rd Ext","formatted_address":"85 Oteha Valley Rd Ext, Albany, Auckland 0632, New Zealand"}},{"business_url":"http:\/\/www.candmlegal.co.nz","yp_url":"https:\/\/yellow.co.nz\/y\/cmlegal-vivian?src=name","addrInfo":{"lat":-39.0590806,"lng":174.0735847,"street_number":"53","locality":"New Plymouth","administrative_area_level_1":"Taranaki","country_code":"NZ","country":"New Zealand","postal_code":"4310","route":"53 Brougham St","formatted_address":"53 Brougham St, New Plymouth 4310, New Zealand"}},{"business_url":"http:\/\/www.toplineaccountants.co.nz","yp_url":"https:\/\/yellow.co.nz\/y\/top-line-accountants?src=name","addrInfo":{"lat":-37.7515108,"lng":175.2429079,"street_number":"98","locality":"Hamilton","administrative_area_level_1":"Waikato","country_code":"NZ","country":"New Zealand","postal_code":"3200","route":"98 Vickery St","formatted_address":"1st\/98 Vickery St, Te Rapa, Hamilton 3200, New Zealand"}},{"business_url":"http:\/\/www.arkropowdercoating.co.nz","yp_url":"https:\/\/yellow.co.nz\/y\/arkro-powder-coaters?src=name","addrInfo":{"lat":-36.7824665,"lng":174.7430671,"street_number":"30","locality":"Auckland","administrative_area_level_1":"Auckland","country_code":"NZ","country":"New Zealand","postal_code":"0627","route":"30 Porana Rd","formatted_address":"30 Porana Rd, Wairau Valley, Auckland 0627, New Zealand"}},{"business_url":"http:\/\/www.vcml.co.nz","yp_url":"https:\/\/yellow.co.nz\/y\/vehicle-construction-maintenance?src=name","addrInfo":{"lat":-36.8839788,"lng":174.6855696,"street_number":"28","locality":"Auckland","administrative_area_level_1":"Auckland","country_code":"NZ","country":"New Zealand","postal_code":"1026","route":"28 Honan Pl","formatted_address":"28 Honan Pl, Avondale, Auckland 1026, New Zealand"}},{"business_url":"http:\/\/www.heskethhenry.co.nz","yp_url":"https:\/\/yellow.co.nz\/y\/hesketh-henry-auckland?src=name","addrInfo":{"lat":-36.8433112,"lng":174.7652305,"street_number":"188","locality":"Auckland","administrative_area_level_1":"Auckland","country_code":"NZ","country":"New Zealand","postal_code":"1010","route":"188 Quay St","formatted_address":"PwC Tower 188 Quay St, Auckland, Auckland 1010, New Zealand"}},{"business_url":"http:\/\/www.aparangi.co.nz","yp_url":"https:\/\/yellow.co.nz\/y\/aparangi-village-waerenga?src=name","addrInfo":{"lat":-37.4023189,"lng":175.1468536,"street_number":"18","locality":"Te Kauwhata","administrative_area_level_1":"Waikato","country_code":"NZ","country":"New Zealand","postal_code":"3710","route":"18 Waerenga Rd","formatted_address":"14\/18 Waerenga Rd, Te Kauwhata 3710, New Zealand"}}]