[{"business_url":"http:\/\/www.transcription.co.nz","yp_url":"https:\/\/yellow.co.nz\/y\/digital-transcription-services?src=name","addrInfo":{"lat":-36.0772461,"lng":174.2448643,"street_number":"2941","locality":"Paparoa","administrative_area_level_1":"Northland","country_code":"NZ","country":"New Zealand","postal_code":"0571","route":"2941 Paparoa-Oakleigh Rd","formatted_address":"2941 Paparoa-Oakleigh Rd, Paparoa 0571, New Zealand"}},{"business_url":"http:\/\/www.regus.co.nz","yp_url":"https:\/\/yellow.co.nz\/y\/regus-featherston-street-2?src=name","addrInfo":{"lat":-36.8459312,"lng":174.7646194,"street_number":"23","locality":"Auckland","administrative_area_level_1":"Auckland","country_code":"NZ","country":"New Zealand","postal_code":"1010","route":"23 Albert St","formatted_address":"23 Albert St, Auckland, Auckland 1010, New Zealand"}},{"business_url":"http:\/\/www.regus.com","yp_url":"https:\/\/yellow.co.nz\/y\/regus-albert?src=name","addrInfo":{"lat":-36.8459312,"lng":174.7646194,"street_number":"23","locality":"Auckland","administrative_area_level_1":"Auckland","country_code":"NZ","country":"New Zealand","postal_code":"1010","route":"23 Albert St","formatted_address":"23 Albert St, Auckland, Auckland 1010, New Zealand"}},{"business_url":"http:\/\/www.soundbusiness.co.nz","yp_url":"https:\/\/yellow.co.nz\/y\/sound-business-systems-2?src=name","addrInfo":{"lat":-36.7461467,"lng":174.7354057,"street_number":"5","locality":"Auckland","administrative_area_level_1":"Auckland","country_code":"NZ","country":"New Zealand","postal_code":"0632","route":"5 Apollo Dr","formatted_address":"5 Apollo Dr, Rosedale, Auckland 0632, New Zealand"}},{"business_url":"http:\/\/www.audiotranscriptionservices.co.nz","yp_url":"https:\/\/yellow.co.nz\/y\/audio-transcription-secretarial-services?src=name","addrInfo":{"lat":-39.9353967,"lng":175.0243215,"street_number":"113","locality":"Whanganui","administrative_area_level_1":"Manawatu-Wanganui","country_code":"NZ","country":"New Zealand","postal_code":"4501","route":"113 Smithfield Rd","formatted_address":"113 Smithfield Rd, Tawhero, Whanganui 4501, New Zealand"}},{"business_url":"http:\/\/www.thesecretary.co.nz","yp_url":"https:\/\/yellow.co.nz\/y\/secretary?src=name","addrInfo":{"lat":-39.4914835,"lng":176.9187104,"street_number":"198","locality":"Napier","administrative_area_level_1":"Hawke's Bay","country_code":"NZ","country":"New Zealand","postal_code":"4110","route":"198 Hastings St","formatted_address":"198 Hastings St, Napier South, Napier 4110, New Zealand"}},{"business_url":"http:\/\/www.activelykeyed.co.nz","yp_url":"https:\/\/yellow.co.nz\/y\/actively-keyed-mayfair?src=name","addrInfo":{"lat":-39.6429497,"lng":176.8612282,"street_number":"908","locality":"Hastings","administrative_area_level_1":"Hawke's Bay","country_code":"NZ","country":"New Zealand","postal_code":"4122","route":"908 Sylvan Rd","formatted_address":"908 Sylvan Rd, Mayfair, Hastings 4122, New Zealand"}}]