[{"business_url":"http:\/\/www.totalrecoveries.co.nz","yp_url":"https:\/\/yellow.co.nz\/y\/dzone?src=name","addrInfo":{"lat":-35.2331476,"lng":173.9512054,"street_number":"14","locality":"Kerikeri","administrative_area_level_1":"Northland","country_code":"NZ","country":"New Zealand","postal_code":"0230","route":"14 Norfolk Pl","formatted_address":"14 Norfolk Pl, Kerikeri 0230, New Zealand"}},{"business_url":"http:\/\/www.electrotrade.co.nz","yp_url":"https:\/\/yellow.co.nz\/y\/electrotrade-herekino?src=name","addrInfo":{"lat":-35.7283337,"lng":174.3274013,"street_number":"4","locality":"Whangarei","administrative_area_level_1":"Northland","country_code":"NZ","country":"New Zealand","postal_code":"0110","route":"4 Herekino St","formatted_address":"4 Herekino St, Whangarei, Whangarei 0110, New Zealand"}},{"business_url":"http:\/\/www.appliances.mckay.co.nz","yp_url":"https:\/\/yellow.co.nz\/y\/mckay-appliance-servicing-whangarei?src=name","addrInfo":{"lat":-35.7263804,"lng":174.3172487,"street_number":"38","locality":"Whangarei","administrative_area_level_1":"Northland","country_code":"NZ","country":"New Zealand","postal_code":"0110","route":"38 Water St","formatted_address":"38 Water St, Avenues, Whangarei 0110, New Zealand"}},{"business_url":"http:\/\/www.truckwash.co.nz","yp_url":"https:\/\/yellow.co.nz\/y\/bop-truck-washing?src=name","addrInfo":{"lat":-38.143112,"lng":176.2095066,"street_number":"43","locality":"Rotorua","administrative_area_level_1":"Bay Of Plenty","country_code":"NZ","country":"New Zealand","postal_code":"3015","route":"43 Tawavale St","formatted_address":"43 Tawavale St, Pukehangi, Rotorua 3015, New Zealand"}},{"business_url":"http:\/\/www.homesafeproducts.co.nz","yp_url":"https:\/\/yellow.co.nz\/y\/homesafe-products-pukekohe?src=name","addrInfo":{"lat":-37.1862813,"lng":174.9014825,"street_number":"16-18","locality":"Pukekohe","administrative_area_level_1":"Auckland","country_code":"NZ","country":"New Zealand","postal_code":"2120","route":"16-18 Alpito Pl","formatted_address":"8\/16-18 Alpito Pl, Pukekohe 2120, New Zealand"}},{"business_url":"http:\/\/masonappliances.co.nz\/","yp_url":"https:\/\/yellow.co.nz\/y\/mason-service-centre-new?src=name","addrInfo":{"lat":-39.0544785,"lng":174.0817848,"street_number":"128","locality":"New Plymouth","administrative_area_level_1":"Taranaki","country_code":"NZ","country":"New Zealand","postal_code":"4310","route":"128 Gill St","formatted_address":"128 Gill St, New Plymouth 4310, New Zealand"}},{"business_url":"http:\/\/www.smac.co.nz","yp_url":"https:\/\/yellow.co.nz\/y\/smac-electrical?src=name","addrInfo":{"lat":-37.6995198,"lng":176.1513427,"street_number":"24","locality":"Tauranga","administrative_area_level_1":"Bay Of Plenty","country_code":"NZ","country":"New Zealand","postal_code":"3110","route":"24 Koromiko St","formatted_address":"24 Koromiko St, Judea, Tauranga 3110, New Zealand"}},{"business_url":"http:\/\/www.dandlappliances.co.nz","yp_url":"https:\/\/yellow.co.nz\/y\/dl-appliance-services-bell?src=name","addrInfo":{"lat":-39.028794,"lng":174.149673,"street_number":"188","locality":"New Plymouth","administrative_area_level_1":"Taranaki","country_code":"NZ","country":"New Zealand","postal_code":"4312","route":"188 Parklands Ave","formatted_address":"188 Parklands Ave, Bell Block, New Plymouth 4312, New Zealand"}},{"business_url":"http:\/\/www.trademe.co.nz\/services\/domestic-services\/cleaning\/auction-504375072.htm","yp_url":"https:\/\/yellow.co.nz\/y\/clean-green-house-washing?src=name","addrInfo":{"lat":-36.9191821,"lng":174.7020286,"street_number":"457","locality":"Auckland","administrative_area_level_1":"Auckland","country_code":"NZ","country":"New Zealand","postal_code":"0600","route":"457 Blockhouse Bay Rd","formatted_address":"457 Blockhouse Bay Rd, Blockhouse Bay, Auckland 0600, New Zealand"}},{"business_url":"http:\/\/www.envirochem.co.nz","yp_url":"https:\/\/yellow.co.nz\/y\/enviro-chem-nz?src=name","addrInfo":{"lat":-37.0027625,"lng":174.8778089,"street_number":"6","locality":"Auckland","administrative_area_level_1":"Auckland","country_code":"NZ","country":"New Zealand","postal_code":"2104","route":"6 Earl Richardson Ave","formatted_address":"6 Earl Richardson Ave, Wiri, Auckland 2104, New Zealand"}}]