[{"business_url":"http:\/\/www.farnorthrentals.co.nz","yp_url":"https:\/\/yellow.co.nz\/y\/far-north-rentals?src=name","addrInfo":{"lat":-35.1134788,"lng":173.2651776,"street_number":"9","locality":"Kaitaia","administrative_area_level_1":"Northland","country_code":"NZ","country":"New Zealand","postal_code":"0410","route":"9 Melba St","formatted_address":"9 Melba St, Kaitaia 0410, New Zealand"}},{"business_url":"http:\/\/www.totalrecoveries.co.nz","yp_url":"https:\/\/yellow.co.nz\/y\/total-recoveries-paihia?src=name","addrInfo":{"lat":-35.2331476,"lng":173.9512054,"street_number":"14","locality":"Kerikeri","administrative_area_level_1":"Northland","country_code":"NZ","country":"New Zealand","postal_code":"0230","route":"14 Norfolk Pl","formatted_address":"14 Norfolk Pl, Kerikeri 0230, New Zealand"}},{"business_url":"http:\/\/www.a1rentalsnorthland.co.nz","yp_url":"https:\/\/yellow.co.nz\/y\/a1-rentals-northland?src=name","addrInfo":{"lat":-35.2633322,"lng":173.9121444,"street_number":"218","locality":"Kerikeri","administrative_area_level_1":"Northland","country_code":"NZ","country":"New Zealand","postal_code":"0293","route":"218 Wiroa Rd","formatted_address":"Bay of Islands Airport (KKE) 218 Wiroa Rd, Kerikeri 0293, New Zealand"}},{"business_url":"http:\/\/www.tucker.co.nz","yp_url":"https:\/\/yellow.co.nz\/y\/r-tucker-thompson?src=name","addrInfo":{"lat":-35.281683,"lng":174.0922845,"street_number":"81","locality":"Paihia","administrative_area_level_1":"Northland","country_code":"NZ","country":"New Zealand","postal_code":"0200","route":"81 Marsden Rd","formatted_address":"81 Marsden Rd, Paihia 0200, New Zealand"}},{"business_url":"http:\/\/www.gobirdz.co.nz","yp_url":"https:\/\/yellow.co.nz\/y\/go-birdz-rentals?src=name","addrInfo":{"lat":-35.2906207,"lng":174.0044656,"street_number":"893","locality":"Haruru","administrative_area_level_1":"Northland","country_code":"NZ","country":"New Zealand","postal_code":"0204","route":"893 Black Bridge Rd","formatted_address":"3\/893 Black Bridge Rd, Haruru 0204, New Zealand"}},{"business_url":"http:\/\/www.theparrotplace.co.nz","yp_url":"https:\/\/yellow.co.nz\/y\/parrot-place-kerikeri?src=name","addrInfo":{"lat":-35.2118464,"lng":173.9627013,"street_number":"1","locality":"Kerikeri","administrative_area_level_1":"Northland","country_code":"NZ","country":"New Zealand","postal_code":"0230","route":"1 Mission Rd","formatted_address":"1 Mission Rd, Kerikeri 0230, New Zealand"}},{"business_url":"http:\/\/www.avis.co.nz\/car-rental\/html\/Landing\/nzsm\/nz\/ni\/kerikeri\/kke.html","yp_url":"https:\/\/yellow.co.nz\/y\/avis-rent-wiroa-road-4?src=name","addrInfo":{"lat":-35.2424435,"lng":173.9370773,"street_number":"459","locality":"Kerikeri","administrative_area_level_1":"Northland","country_code":"NZ","country":"New Zealand","postal_code":"0293","route":"459 Kerikeri Rd","formatted_address":"459 Kerikeri Rd, Kerikeri 0293, New Zealand"}},{"business_url":"http:\/\/www.budget.co.nz","yp_url":"https:\/\/yellow.co.nz\/y\/budget-car-kerikeri-road-4?src=name","addrInfo":{"lat":-35.2424435,"lng":173.9370773,"street_number":"459","locality":"Kerikeri","administrative_area_level_1":"Northland","country_code":"NZ","country":"New Zealand","postal_code":"0293","route":"459 Kerikeri Rd","formatted_address":"459 Kerikeri Rd, Kerikeri 0293, New Zealand"}}]