[{"business_url":"http:\/\/www.nfpl.co.nz","yp_url":"https:\/\/yellow.co.nz\/y\/northern-frame-prefab-rukuhia?src=name","addrInfo":{"lat":-37.8647123,"lng":175.3263087,"street_number":"53","locality":"Rukuhia","administrative_area_level_1":"Waikato","country_code":"NZ","country":"New Zealand","postal_code":"3282","route":"53 Ingram Rd","formatted_address":"53 Ingram Rd, Rukuhia 3282, New Zealand"}},{"business_url":"http:\/\/www.nashnz.org.nz","yp_url":"https:\/\/yellow.co.nz\/y\/national-association-of?src=name","addrInfo":{"lat":-36.989594,"lng":174.88558,"street_number":"19","locality":"Auckland","administrative_area_level_1":"Auckland","country_code":"NZ","country":"New Zealand","postal_code":"2104","route":"19 Gladding Pl","formatted_address":"17\/19 Gladding Pl, Manukau, Auckland 2104, New Zealand"}},{"business_url":"http:\/\/www.albanytimber.co.nz","yp_url":"https:\/\/yellow.co.nz\/y\/albany-timber-distributor-albany?src=name","addrInfo":{"lat":-36.7407187,"lng":174.7038083,"street_number":"92","locality":"Auckland","administrative_area_level_1":"Auckland","country_code":"NZ","country":"New Zealand","postal_code":"0632","route":"92 Bush Rd","formatted_address":"66\/92 Bush Rd, Albany, Auckland 0632, New Zealand"}},{"business_url":"http:\/\/www.albanytimber.co.nz","yp_url":"https:\/\/yellow.co.nz\/y\/albany-timber-distributors-albany?src=name","addrInfo":{"lat":-36.7380936,"lng":174.7024746,"street_number":"66","locality":"Auckland","administrative_area_level_1":"Auckland","country_code":"NZ","country":"New Zealand","postal_code":"0632","route":"66 Bush Rd","formatted_address":"66 Bush Rd, Albany, Auckland 0632, New Zealand"}},{"business_url":"http:\/\/www.battenman.co.nz","yp_url":"https:\/\/yellow.co.nz\/y\/battenman-judea?src=name","addrInfo":{"lat":-37.7001356,"lng":176.1434533,"street_number":"106","locality":"Tauranga","administrative_area_level_1":"Bay Of Plenty","country_code":"NZ","country":"New Zealand","postal_code":"3110","route":"106 Birch Ave","formatted_address":"106 Birch Ave, Judea, Tauranga 3110, New Zealand"}},{"business_url":"http:\/\/www.wiritimber.co.nz","yp_url":"https:\/\/yellow.co.nz\/y\/wiri-wholesale-timber-noel?src=name","addrInfo":{"lat":-36.9941464,"lng":174.8497256,"street_number":"32","locality":"Auckland","administrative_area_level_1":"Auckland","country_code":"NZ","country":"New Zealand","postal_code":"2025","route":"32 Noel Burnside Rd","formatted_address":"32 Noel Burnside Rd, Wiri, Auckland 2025, New Zealand"}},{"business_url":"http:\/\/www.customkit.co.nz","yp_url":"https:\/\/yellow.co.nz\/y\/customkit-buildings-kitset?src=name","addrInfo":{"lat":-37.2153396,"lng":174.9103073,"street_number":"1-25","locality":"Pukekohe","administrative_area_level_1":"Auckland","country_code":"NZ","country":"New Zealand","postal_code":"2120","route":"1-25 Kitchener Rd","formatted_address":"1-25 Kitchener Rd, Pukekohe 2120, New Zealand"}},{"business_url":"http:\/\/www.jenkin.co.nz","yp_url":"https:\/\/yellow.co.nz\/y\/jenkin-timber-henderson?src=name","addrInfo":{"lat":-36.8500576,"lng":174.6368574,"street_number":"55","locality":"Auckland","administrative_area_level_1":"Auckland","country_code":"NZ","country":"New Zealand","postal_code":"0610","route":"55 The Concourse","formatted_address":"55 The Concourse, Henderson, Auckland 0610, New Zealand"}},{"business_url":"http:\/\/www.ashleyindustrial.co.nz","yp_url":"https:\/\/yellow.co.nz\/y\/ashley-industrial-services?src=name","addrInfo":{"lat":-43.2990134,"lng":172.1760373,"street_number":"8","locality":"Oxford","administrative_area_level_1":"Canterbury","country_code":"NZ","country":"New Zealand","postal_code":"7430","route":"8 Mill Rd","formatted_address":"8 Mill Rd, Oxford 7430, New Zealand"}},{"business_url":"http:\/\/www.superiorbalustrade.co.nz","yp_url":"https:\/\/yellow.co.nz\/y\/paynes-aluminium-aliboard?src=name","addrInfo":{"lat":-43.5430546,"lng":172.585576,"street_number":"2","locality":"Christchurch","administrative_area_level_1":"Canterbury","country_code":"NZ","country":"New Zealand","postal_code":"8024","route":"2 Craft Pl","formatted_address":"2 Craft Pl, Middleton, Christchurch 8024, New Zealand"}},{"business_url":"http:\/\/www.queenstownengineering.co.nz","yp_url":"https:\/\/yellow.co.nz\/y\/queenstown-engineering-2009?src=name","addrInfo":{"lat":-45.0091548,"lng":168.7536314,"street_number":"120","locality":"Queenstown","administrative_area_level_1":"Otago","country_code":"NZ","country":"New Zealand","postal_code":"9371","route":"120 Glenda Dr","formatted_address":"120 Glenda Dr, Frankton, Queenstown 9371, New Zealand"}}]