[{"business_url":"http:\/\/www.carterstyres.co.nz","yp_url":"https:\/\/yellow.co.nz\/y\/carters-tyres-highbrook-drive-6?src=name&c=1671","addrInfo":{"lat":-35.1119324,"lng":173.2647895,"street_number":"28","locality":"Kaitaia","administrative_area_level_1":"Northland","country_code":"NZ","country":"New Zealand","postal_code":"0410","route":"28 Matthews Ave","formatted_address":"28 Matthews Ave, Kaitaia 0410, New Zealand"}},{"business_url":"http:\/\/www.beaurepaires.co.nz","yp_url":"https:\/\/yellow.co.nz\/y\/beaurepaires-for-south-road-2?src=name&c=1671","addrInfo":{"lat":-35.117088,"lng":173.2666011,"street_number":"11","locality":"Kaitaia","administrative_area_level_1":"Northland","country_code":"NZ","country":"New Zealand","postal_code":"0410","route":"11 South Rd","formatted_address":"11 South Rd, Kaitaia 0410, New Zealand"}},{"business_url":"http:\/\/www.gasc.co.nz","yp_url":"https:\/\/yellow.co.nz\/y\/goodyear-auto-service-kerikeri?src=name&c=1671","addrInfo":{"lat":-35.2292186,"lng":173.950476,"street_number":"57","locality":"Kerikeri","administrative_area_level_1":"Northland","country_code":"NZ","country":"New Zealand","postal_code":"0230","route":"57 Hobson Ave","formatted_address":"57 Hobson Ave, Kerikeri 0230, New Zealand"}},{"business_url":"http:\/\/www.carterstyres.co.nz","yp_url":"https:\/\/yellow.co.nz\/y\/carters-tyres-highbrook-drive-3?src=name&c=1671","addrInfo":{"lat":-35.2331875,"lng":173.9527104,"street_number":"13","locality":"Kerikeri","administrative_area_level_1":"Northland","country_code":"NZ","country":"New Zealand","postal_code":"0230","route":"13 Mill Ln","formatted_address":"13 Mill Ln, Kerikeri 0230, New Zealand"}},{"business_url":"http:\/\/www.beaurepaires.co.nz","yp_url":"https:\/\/yellow.co.nz\/y\/beaurepaires-for-tyres-kerikeri?src=name&c=1671","addrInfo":{"lat":-35.2292186,"lng":173.950476,"street_number":"57","locality":"Kerikeri","administrative_area_level_1":"Northland","country_code":"NZ","country":"New Zealand","postal_code":"0230","route":"57 Hobson Ave","formatted_address":"57 Hobson Ave, Kerikeri 0230, New Zealand"}},{"business_url":"http:\/\/www.gasc.co.nz","yp_url":"https:\/\/yellow.co.nz\/y\/goodyear-auto-kerikeri?src=name&c=1671","addrInfo":{"lat":-35.2292186,"lng":173.950476,"street_number":"57","locality":"Kerikeri","administrative_area_level_1":"Northland","country_code":"NZ","country":"New Zealand","postal_code":"0230","route":"57 Hobson Ave","formatted_address":"57 Hobson Ave, Kerikeri 0230, New Zealand"}},{"business_url":"http:\/\/www.beaurepaires.co.nz","yp_url":"https:\/\/yellow.co.nz\/y\/beaurepaires-for-tyres-kawakawa?src=name&c=1671","addrInfo":{"lat":-35.3797172,"lng":174.0684915,"street_number":"12","locality":"Kawakawa","administrative_area_level_1":"Northland","country_code":"NZ","country":"New Zealand","postal_code":"0210","route":"12 Gillies St","formatted_address":"12 Gillies St, Kawakawa 0210, New Zealand"}}]