[{"business_url":"http:\/\/www.penguinwholesalers.co.nz","yp_url":"https:\/\/yellow.co.nz\/y\/penguin-wholesalers-port?src=name","addrInfo":{"lat":-35.7407186,"lng":174.3418552,"street_number":"6","locality":"Whangarei","administrative_area_level_1":"Northland","country_code":"NZ","country":"New Zealand","postal_code":"0110","route":"6 Hewlett St","formatted_address":"6 Hewlett St, Port Whangarei, Whangarei 0110, New Zealand"}},{"business_url":"http:\/\/www.hoyts.co.nz","yp_url":"https:\/\/yellow.co.nz\/y\/hoyts-cinemas-wairau?src=name","addrInfo":{"lat":-36.7680751,"lng":174.7378683,"street_number":"6","locality":"Auckland","administrative_area_level_1":"Auckland","country_code":"NZ","country":"New Zealand","postal_code":"0627","route":"6 Link Dr","formatted_address":"6 Link Dr, Wairau Valley, Auckland 0627, New Zealand"}},{"business_url":"http:\/\/www.booksaplenty.co.nz","yp_url":"https:\/\/yellow.co.nz\/y\/books-a-plenty?src=name","addrInfo":{"lat":-37.6850349,"lng":176.1684494,"street_number":"28","locality":"Tauranga","administrative_area_level_1":"Bay Of Plenty","country_code":"NZ","country":"New Zealand","postal_code":"3110","route":"28 Grey St","formatted_address":"28 Grey St, Tauranga, Tauranga 3110, New Zealand"}},{"business_url":"http:\/\/www.uniquebooks.co.nz","yp_url":"https:\/\/yellow.co.nz\/y\/unique-books?src=name","addrInfo":{"lat":-39.0714661,"lng":174.0762359,"street_number":"168","locality":"New Plymouth","administrative_area_level_1":"Taranaki","country_code":"NZ","country":"New Zealand","postal_code":"4310","route":"168 Carrington St","formatted_address":"168 Carrington St, Lower Vogeltown, New Plymouth 4310, New Zealand"}},{"business_url":"http:\/\/www.archerydirect.co.nz","yp_url":"https:\/\/yellow.co.nz\/y\/archery-direct?src=name","addrInfo":{"lat":-37.7398309,"lng":175.2280335,"street_number":"18","locality":"Hamilton","administrative_area_level_1":"Waikato","country_code":"NZ","country":"New Zealand","postal_code":"3200","route":"18 Maui St","formatted_address":"18 Maui St, Pukete, Hamilton 3200, New Zealand"}},{"business_url":"http:\/\/www.deanfreight.co.nz","yp_url":"https:\/\/yellow.co.nz\/y\/dean-freight-international-pukete?src=name","addrInfo":{"lat":-37.7402415,"lng":175.2261992,"street_number":"19","locality":"Hamilton","administrative_area_level_1":"Waikato","country_code":"NZ","country":"New Zealand","postal_code":"3200","route":"19 Maui St","formatted_address":"19 Maui St, Pukete, Hamilton 3200, New Zealand"}},{"business_url":"http:\/\/www.deluxediner.co.nz","yp_url":"https:\/\/yellow.co.nz\/y\/deluxe-diner-leach?src=name","addrInfo":{"lat":-39.0584562,"lng":174.0790466,"street_number":"36","locality":"New Plymouth","administrative_area_level_1":"Taranaki","country_code":"NZ","country":"New Zealand","postal_code":"4310","route":"36 Leach St","formatted_address":"36 Leach St, New Plymouth 4310, New Zealand"}},{"business_url":"http:\/\/www.atlantisbooks.co.nz","yp_url":"https:\/\/yellow.co.nz\/y\/atlantis-books?src=name","addrInfo":{"lat":-38.2180255,"lng":175.8703918,"street_number":"32","locality":"Tokoroa","administrative_area_level_1":"Waikato","country_code":"NZ","country":"New Zealand","postal_code":"3420","route":"32 Bridge St","formatted_address":"32 Bridge St, Tokoroa 3420, New Zealand"}},{"business_url":"http:\/\/www.atlantisbooks.co.nz\/","yp_url":"https:\/\/yellow.co.nz\/y\/atlantis-books-eruera?src=name","addrInfo":{"lat":-38.1390909,"lng":176.250265,"street_number":"1206","locality":"Rotorua","administrative_area_level_1":"Bay Of Plenty","country_code":"NZ","country":"New Zealand","postal_code":"3010","route":"1206 Eruera St","formatted_address":"1206 Eruera St, Rotorua 3010, New Zealand"}},{"business_url":"http:\/\/www.ponsonbybooks.co.nz","yp_url":"https:\/\/yellow.co.nz\/y\/classics-and-suchlike?src=name","addrInfo":{"lat":-36.8525288,"lng":174.7454262,"street_number":"201","locality":"Auckland","administrative_area_level_1":"Auckland","country_code":"NZ","country":"New Zealand","postal_code":"1011","route":"201 Ponsonby Rd","formatted_address":"201 Ponsonby Rd, Ponsonby, Auckland 1011, New Zealand"}},{"business_url":"http:\/\/www.jasonbooks.co.nz","yp_url":"https:\/\/yellow.co.nz\/y\/jason-books?src=name","addrInfo":{"lat":-36.8475732,"lng":174.7673065,"street_number":"16","locality":"Auckland","administrative_area_level_1":"Auckland","country_code":"NZ","country":"New Zealand","postal_code":"1010","route":"16 O'Connell St","formatted_address":"16 O'Connell St, Auckland, Auckland 1010, New Zealand"}},{"business_url":"http:\/\/www.atlantisbooks.co.nz","yp_url":"https:\/\/yellow.co.nz\/y\/atlantis-books-whakatane-3?src=name","addrInfo":{"lat":-37.9507208,"lng":176.9974865,"street_number":"102","locality":"Whakatane","administrative_area_level_1":"Bay Of Plenty","country_code":"NZ","country":"New Zealand","postal_code":"3120","route":"102 The Strand","formatted_address":"102 The Strand, Whakatane 3120, New Zealand"}},{"business_url":"http:\/\/www.chapter.co.nz","yp_url":"https:\/\/yellow.co.nz\/y\/chapter-book-tea?src=name","addrInfo":{"lat":-36.8818396,"lng":174.7622498,"street_number":"442","locality":"Auckland","administrative_area_level_1":"Auckland","country_code":"NZ","country":"New Zealand","postal_code":"1024","route":"442 Mount Eden Rd","formatted_address":"442 Mount Eden Rd, Mount Eden, Auckland 1024, New Zealand"}},{"business_url":"http:\/\/www.chapter.co.nz","yp_url":"https:\/\/yellow.co.nz\/y\/chapter-books-cafe-tea?src=name","addrInfo":{"lat":-36.8818396,"lng":174.7622498,"street_number":"442","locality":"Auckland","administrative_area_level_1":"Auckland","country_code":"NZ","country":"New Zealand","postal_code":"1024","route":"442 Mount Eden Rd","formatted_address":"442 Mount Eden Rd, Mount Eden, Auckland 1024, New Zealand"}},{"business_url":"http:\/\/www.houseoftoys.co.nz","yp_url":"https:\/\/yellow.co.nz\/y\/house-of-toys?src=name","addrInfo":{"lat":-36.831121,"lng":174.797172,"street_number":"29","locality":"Auckland","administrative_area_level_1":"Auckland","country_code":"NZ","country":"New Zealand","postal_code":"0624","route":"29 Victoria Rd","formatted_address":"29 Victoria Rd, Devonport, Auckland 0624, New Zealand"}},{"business_url":"http:\/\/www.peachesandcream.co.nz","yp_url":"https:\/\/yellow.co.nz\/y\/peaches-cream?src=name","addrInfo":{"lat":-36.7780435,"lng":174.7434538,"street_number":"247","locality":"Auckland","administrative_area_level_1":"Auckland","country_code":"NZ","country":"New Zealand","postal_code":"0627","route":"247 Archers Rd","formatted_address":"247 Archers Rd, Wairau Valley, Auckland 0627, New Zealand"}},{"business_url":"http:\/\/www.return2health.net","yp_url":"https:\/\/yellow.co.nz\/y\/return-2-health?src=name","addrInfo":{"lat":-36.8553426,"lng":174.731554,"street_number":"300","locality":"Auckland","administrative_area_level_1":"Auckland","country_code":"NZ","country":"New Zealand","postal_code":"1021","route":"300 Richmond Rd","formatted_address":"7\/300 Richmond Rd, Grey Lynn, Auckland 1021, New Zealand"}},{"business_url":"http:\/\/www.physioabsolute.co.nz","yp_url":"https:\/\/yellow.co.nz\/y\/absolute-physiotherapy-te-atatu?src=name","addrInfo":{"lat":-36.8629633,"lng":174.6475564,"street_number":"278","locality":"Auckland","administrative_area_level_1":"Auckland","country_code":"NZ","country":"New Zealand","postal_code":"0610","route":"278 Te Atatu Rd","formatted_address":"278 Te Atatu Rd, Te Atatu South, Auckland 0610, New Zealand"}},{"business_url":"http:\/\/www.molloysantiques.co.nz\/","yp_url":"https:\/\/yellow.co.nz\/y\/molloys-of-milford?src=name","addrInfo":{"lat":-36.7903166,"lng":174.764189,"street_number":"122","locality":"Auckland","administrative_area_level_1":"Auckland","country_code":"NZ","country":"New Zealand","postal_code":"0622","route":"122 Anzac St","formatted_address":"122 Anzac St, Takapuna, Auckland 0622, New Zealand"}},{"business_url":"http:\/\/www.ellersliestationery.co.nz\/","yp_url":"https:\/\/yellow.co.nz\/y\/ellerslie-paper-power?src=name","addrInfo":{"lat":-36.8978035,"lng":174.8102771,"street_number":"130","locality":"Auckland","administrative_area_level_1":"Auckland","country_code":"NZ","country":"New Zealand","postal_code":"1051","route":"130 Main Hwy","formatted_address":"130 Main Hwy, Ellerslie, Auckland 1051, New Zealand"}},{"business_url":"http:\/\/www.voodle.co.nz","yp_url":"https:\/\/yellow.co.nz\/y\/voodle-great-south?src=name","addrInfo":{"lat":-36.9173678,"lng":174.8261273,"street_number":"930","locality":"Auckland","administrative_area_level_1":"Auckland","country_code":"NZ","country":"New Zealand","postal_code":"1061","route":"930 Great South Rd","formatted_address":"4\/930 Great South Rd, Penrose, Auckland 1061, New Zealand"}}]