[{"business_url":"http:\/\/topvets.co.nz","yp_url":"https:\/\/yellow.co.nz\/y\/topvets-north-road-2?src=name&c=1691","addrInfo":{"lat":-35.112861,"lng":173.2650475,"street_number":"17-19","locality":"Kaitaia","administrative_area_level_1":"Northland","country_code":"NZ","country":"New Zealand","postal_code":"0410","route":"17-19 Matthews Ave","formatted_address":"17-19 Matthews Ave, Kaitaia 0410, New Zealand"}},{"business_url":"http:\/\/www.bayvets.co.nz\/","yp_url":"https:\/\/yellow.co.nz\/y\/bay-of-kerikeri-road-3?src=name&c=1691","addrInfo":{"lat":-35.2301004,"lng":173.9463732,"street_number":"48","locality":"Kerikeri","administrative_area_level_1":"Northland","country_code":"NZ","country":"New Zealand","postal_code":"0230","route":"48 Kerikeri Rd","formatted_address":"48 Kerikeri Rd, Kerikeri 0230, New Zealand"}},{"business_url":"http:\/\/thevillagevetpaihia-russell-opuanz.net","yp_url":"https:\/\/yellow.co.nz\/y\/village-vet-paihia?src=name&c=1691","addrInfo":{"lat":-35.3043167,"lng":174.0962173,"street_number":"43","locality":"Paihia","administrative_area_level_1":"Northland","country_code":"NZ","country":"New Zealand","postal_code":"0200","route":"43 Te Haumi Dr","formatted_address":"43 Te Haumi Dr, Paihia 0200, New Zealand"}},{"business_url":"http:\/\/www.otavet.co.nz","yp_url":"https:\/\/yellow.co.nz\/y\/vet-centre-waipu-waipu-2?src=name&c=1691","addrInfo":{"lat":-35.9842844,"lng":174.4442947,"street_number":"53","locality":"Waipu","administrative_area_level_1":"Northland","country_code":"NZ","country":"New Zealand","postal_code":"0510","route":"53 The Centre","formatted_address":"53 The Centre, Waipu 0510, New Zealand"}},{"business_url":"http:\/\/www.northvets.co.nz","yp_url":"https:\/\/yellow.co.nz\/y\/northland-veterinary-group-avenues?src=name&c=1691","addrInfo":{"lat":-35.7283106,"lng":174.3156782,"street_number":"18","locality":"Whangarei","administrative_area_level_1":"Northland","country_code":"NZ","country":"New Zealand","postal_code":"0110","route":"18 Maunu Rd","formatted_address":"16\/18 Maunu Rd, Avenues, Whangarei 0110, New Zealand"}},{"business_url":"http:\/\/www.otavet.co.nz","yp_url":"https:\/\/yellow.co.nz\/y\/vet-centre-maungaturoto-hurndal?src=name&c=1691","addrInfo":{"lat":-36.11167,"lng":174.3526231,"street_number":"184","locality":"Maungaturoto","administrative_area_level_1":"Northland","country_code":"NZ","country":"New Zealand","postal_code":"0520","route":"184 HURNDALL St W","formatted_address":"184 HURNDALL St W, Maungaturoto 0520, New Zealand"}},{"business_url":"http:\/\/www.otavet.co.nz","yp_url":"https:\/\/yellow.co.nz\/y\/vet-centre-ruawai-jellicoe?src=name&c=1691","addrInfo":{"lat":-36.1344798,"lng":174.0219736,"street_number":"23","locality":"Ruawai","administrative_area_level_1":"Northland","country_code":"NZ","country":"New Zealand","postal_code":"0530","route":"23 Jellicoe St","formatted_address":"23 Jellicoe St, Ruawai 0530, New Zealand"}},{"business_url":"http:\/\/www.northvets.co.nz","yp_url":"https:\/\/yellow.co.nz\/y\/veterinary-group-northland-onerahi?src=name&c=1691","addrInfo":{"lat":-35.7560756,"lng":174.3687098,"street_number":"165","locality":"Whangarei","administrative_area_level_1":"Northland","country_code":"NZ","country":"New Zealand","postal_code":"0110","route":"165 Onerahi Rd","formatted_address":"165 Onerahi Rd, Onerahi, Whangarei 0110, New Zealand"}},{"business_url":"http:\/\/www.nbr.org.nz","yp_url":"https:\/\/yellow.co.nz\/y\/bird-recovery-centre?src=name&c=1691","addrInfo":{"lat":-35.7402389,"lng":174.3093579,"street_number":"121","locality":"Whangarei","administrative_area_level_1":"Northland","country_code":"NZ","country":"New Zealand","postal_code":"0110","route":"121 State Highway 1","formatted_address":"14\/121 State Highway 1, Raumanga, Whangarei 0110, New Zealand"}},{"business_url":"http:\/\/www.otavet.co.nz","yp_url":"https:\/\/yellow.co.nz\/y\/vet-centre-hurndall?src=name&c=1691","addrInfo":{"lat":-36.1117762,"lng":174.3524305,"street_number":"184","locality":"Maungaturoto","administrative_area_level_1":"Northland","country_code":"NZ","country":"New Zealand","postal_code":"0520","route":"184 Hurndall St","formatted_address":"184 Hurndall St, Maungaturoto 0520, New Zealand"}},{"business_url":"http:\/\/www.otavet.co.nz","yp_url":"https:\/\/yellow.co.nz\/y\/vet-centre-waipu-2?src=name&c=1691","addrInfo":{"lat":-35.9842844,"lng":174.4442947,"street_number":"53","locality":"Waipu","administrative_area_level_1":"Northland","country_code":"NZ","country":"New Zealand","postal_code":"0510","route":"53 The Centre","formatted_address":"53 The Centre, Waipu 0510, New Zealand"}},{"business_url":"http:\/\/www.otavet.co.nz","yp_url":"https:\/\/yellow.co.nz\/y\/vet-centre-jellicoe-road?src=name&c=1691","addrInfo":{"lat":-36.1344798,"lng":174.0219736,"street_number":"23","locality":"Ruawai","administrative_area_level_1":"Northland","country_code":"NZ","country":"New Zealand","postal_code":"0530","route":"23 Jellicoe St","formatted_address":"23 Jellicoe St, Ruawai 0530, New Zealand"}},{"business_url":"http:\/\/www.millroadvet.co.nz","yp_url":"https:\/\/yellow.co.nz\/y\/mill-road-veterinary?src=name&c=1691","addrInfo":{"lat":-35.7051167,"lng":174.3266506,"street_number":"116","locality":"Whangarei","administrative_area_level_1":"Northland","country_code":"NZ","country":"New Zealand","postal_code":"0112","route":"116 Mill Rd","formatted_address":"116 Mill Rd, Kensington, Whangarei 0112, New Zealand"}},{"business_url":"http:\/\/www.kamovets.co.nz","yp_url":"https:\/\/yellow.co.nz\/y\/kamo-veterinary-kamo?src=name&c=1691","addrInfo":{"lat":-35.6869394,"lng":174.3034014,"street_number":"2","locality":"Whangarei","administrative_area_level_1":"Northland","country_code":"NZ","country":"New Zealand","postal_code":"0112","route":"2 Carlton Cres","formatted_address":"2 Carlton Cres, Kamo, Whangarei 0112, New Zealand"}}]