[{"business_url":"http:\/\/www.ourvets.co.nz\/","yp_url":"https:\/\/yellow.co.nz\/y\/ourvets-parklands-cnr?src=name&c=1691","addrInfo":{"lat":-43.4821548,"lng":172.6979976,"street_number":"438","locality":"Christchurch","administrative_area_level_1":"Canterbury","country_code":"NZ","country":"New Zealand","postal_code":"8083","route":"438 Mairehau Rd","formatted_address":"438 Mairehau Rd, Parklands, Christchurch 8083, New Zealand"}},{"business_url":"http:\/\/mcmasterheap.co.nz","yp_url":"https:\/\/yellow.co.nz\/y\/mcmaster-heap-veterinary-hoon?src=name&c=1691","addrInfo":{"lat":-43.5551086,"lng":172.5946601,"street_number":"12","locality":"Christchurch","administrative_area_level_1":"Canterbury","country_code":"NZ","country":"New Zealand","postal_code":"8025","route":"12 Coppell Pl","formatted_address":"12 Coppell Pl, Hoon Hay, Christchurch 8025, New Zealand"}},{"business_url":"http:\/\/www.avonheadvets.co.nz","yp_url":"https:\/\/yellow.co.nz\/y\/avonhead-veterinary-clinic?src=name&c=1691","addrInfo":{"lat":-43.511451,"lng":172.5554122,"street_number":"207","locality":"Christchurch","administrative_area_level_1":"Canterbury","country_code":"NZ","country":"New Zealand","postal_code":"8042","route":"207 Withells Rd","formatted_address":"207 Withells Rd, Avonhead, Christchurch 8042, New Zealand"}},{"business_url":"http:\/\/belfastvetclinic.com\/Home.html","yp_url":"https:\/\/yellow.co.nz\/y\/belfast-veterinary-clinic?src=name&c=1691","addrInfo":{"lat":-43.4434647,"lng":172.6337496,"street_number":"830","locality":"Christchurch","administrative_area_level_1":"Canterbury","country_code":"NZ","country":"New Zealand","postal_code":"8051","route":"830 Main N Rd","formatted_address":"830 Main N Rd, Belfast, Christchurch 8051, New Zealand"}},{"business_url":"http:\/\/www.petmed.co.nz","yp_url":"https:\/\/yellow.co.nz\/y\/marshall-pringle-veterinary-hospital?src=name&c=1691","addrInfo":{"lat":-43.3874219,"lng":172.6551601,"street_number":"106","locality":"Kaiapoi","administrative_area_level_1":"Canterbury","country_code":"NZ","country":"New Zealand","postal_code":"7630","route":"106 Williams St","formatted_address":"106 Williams St, Kaiapoi 7630, New Zealand"}},{"business_url":"http:\/\/www.vetcall.co.nz","yp_url":"https:\/\/yellow.co.nz\/y\/vetcall-animal-hospital?src=name&c=1691","addrInfo":{"lat":-43.5296305,"lng":172.6784604,"street_number":"78","locality":"Christchurch","administrative_area_level_1":"Canterbury","country_code":"NZ","country":"New Zealand","postal_code":"8062","route":"78 Buckleys Rd","formatted_address":"78 Buckleys Rd, Linwood, Christchurch 8062, New Zealand"}},{"business_url":"http:\/\/www.premierequinevets.co.nz","yp_url":"https:\/\/yellow.co.nz\/y\/cg-murfitt-equine-vets?src=name&c=1691","addrInfo":{"lat":-43.5389574,"lng":172.5876542,"street_number":"243","locality":"Christchurch","administrative_area_level_1":"Canterbury","country_code":"NZ","country":"New Zealand","postal_code":"8041","route":"243 Blenheim Rd","formatted_address":"3\/243 Blenheim Rd, Riccarton, Christchurch 8041, New Zealand"}},{"business_url":"http:\/\/www.animalandbirdhospital.co.nz","yp_url":"https:\/\/yellow.co.nz\/y\/ferry-road-animal?src=name&c=1691","addrInfo":{"lat":-43.5448021,"lng":172.6718329,"street_number":"483","locality":"Christchurch","administrative_area_level_1":"Canterbury","country_code":"NZ","country":"New Zealand","postal_code":"8023","route":"483 Ferry Rd","formatted_address":"483 Ferry Rd, Woolston, Christchurch 8023, New Zealand"}},{"business_url":"http:\/\/www.vetcare.co.nz\/","yp_url":"https:\/\/yellow.co.nz\/y\/marshall-and-pringle-linwoodveterinarians?src=name&c=1691","addrInfo":{"lat":-43.5344709,"lng":172.6715292,"street_number":"33","locality":"Christchurch","administrative_area_level_1":"Canterbury","country_code":"NZ","country":"New Zealand","postal_code":"8011","route":"33 Marlborough St","formatted_address":"33 Marlborough St, Phillipstown, Christchurch 8011, New Zealand"}},{"business_url":"http:\/\/afterhoursvet.co.nz\/","yp_url":"https:\/\/yellow.co.nz\/y\/after-hours-veterinary-addington?src=name&c=1691","addrInfo":{"lat":-43.5424203,"lng":172.6282297,"street_number":"90","locality":"Christchurch","administrative_area_level_1":"Canterbury","country_code":"NZ","country":"New Zealand","postal_code":"8024","route":"90 Disraeli St","formatted_address":"90 Disraeli St, Addington, Christchurch 8024, New Zealand"}},{"business_url":"http:\/\/www.wairakeirdvets.co.nz","yp_url":"https:\/\/yellow.co.nz\/y\/wairakei-road-veterinary-clinic?src=name&c=1691","addrInfo":{"lat":-43.5034395,"lng":172.5932232,"street_number":"173","locality":"Christchurch","administrative_area_level_1":"Canterbury","country_code":"NZ","country":"New Zealand","postal_code":"8053","route":"173 Wairakei Rd","formatted_address":"173 Wairakei Rd, Bryndwr, Christchurch 8053, New Zealand"}},{"business_url":"http:\/\/www.shirleyvet.co.nz\/","yp_url":"https:\/\/yellow.co.nz\/y\/shirley-veterinary-centre-marshland?src=name&c=1691","addrInfo":{"lat":-43.5067511,"lng":172.6623645,"street_number":"15","locality":"Christchurch","administrative_area_level_1":"Canterbury","country_code":"NZ","country":"New Zealand","postal_code":"8061","route":"15 Marshland Rd","formatted_address":"15 Marshland Rd, Shirley, Christchurch 8061, New Zealand"}},{"business_url":"http:\/\/www.hornbyvet.co.nz","yp_url":"https:\/\/yellow.co.nz\/y\/hornby-veterinary-centre?src=name&c=1691","addrInfo":{"lat":-43.5443091,"lng":172.5270927,"street_number":"7","locality":"Christchurch","administrative_area_level_1":"Canterbury","country_code":"NZ","country":"New Zealand","postal_code":"8042","route":"7 Tower St","formatted_address":"7 Tower St, Hornby, Christchurch 8042, New Zealand"}},{"business_url":"http:\/\/www.rollyvets.co.nz","yp_url":"https:\/\/yellow.co.nz\/y\/rolleston-veterinary-services-rolleston?src=name&c=1691","addrInfo":{"lat":-43.5914708,"lng":172.3783894,"street_number":"5","locality":"Rolleston","administrative_area_level_1":"Canterbury","country_code":"NZ","country":"New Zealand","postal_code":"7614","route":"5 Brookside Rd","formatted_address":"5 Brookside Rd, Rolleston 7614, New Zealand"}},{"business_url":"http:\/\/www.newbrightonmallvet.co.nz","yp_url":"https:\/\/yellow.co.nz\/y\/new-brighton-mall-veterinary-pet?src=name&c=1691","addrInfo":{"lat":-43.5077605,"lng":172.7290957,"street_number":"20","locality":"Christchurch","administrative_area_level_1":"Canterbury","country_code":"NZ","country":"New Zealand","postal_code":"8061","route":"20 Beresford St","formatted_address":"20 Beresford St, New Brighton, Christchurch 8061, New Zealand"}},{"business_url":"http:\/\/www.vetent.co.nz\/","yp_url":"https:\/\/yellow.co.nz\/y\/vetent-halswell?src=name&c=1691","addrInfo":{"lat":-43.5860769,"lng":172.5708633,"street_number":"393","locality":"Christchurch","administrative_area_level_1":"Canterbury","country_code":"NZ","country":"New Zealand","postal_code":"8025","route":"393 Halswell Rd","formatted_address":"393 Halswell Rd, Halswell, Christchurch 8025, New Zealand"}},{"business_url":"http:\/\/www.vetent.co.nz","yp_url":"https:\/\/yellow.co.nz\/y\/vetent-lincoln-freyberg?src=name&c=1691","addrInfo":{"lat":-43.635525,"lng":172.4895704,"street_number":"55","locality":"Lincoln","administrative_area_level_1":"Canterbury","country_code":"NZ","country":"New Zealand","postal_code":"7608","route":"55 James St","formatted_address":"55 James St, Lincoln 7608, New Zealand"}},{"business_url":"http:\/\/www.vetent.co.nz","yp_url":"https:\/\/yellow.co.nz\/y\/vetent-leeston?src=name&c=1691","addrInfo":{"lat":-43.7606495,"lng":172.304134,"street_number":"65","locality":"Leeston","administrative_area_level_1":"Canterbury","country_code":"NZ","country":"New Zealand","postal_code":"7632","route":"65 Station St","formatted_address":"65 Station St, Leeston 7632, New Zealand"}},{"business_url":"http:\/\/www.rollyvets.co.nz","yp_url":"https:\/\/yellow.co.nz\/y\/rolleston-veterinary-services?src=name&c=1691","addrInfo":{"lat":-43.5914708,"lng":172.3783894,"street_number":"5","locality":"Rolleston","administrative_area_level_1":"Canterbury","country_code":"NZ","country":"New Zealand","postal_code":"7614","route":"5 Brookside Rd","formatted_address":"5 Brookside Rd, Rolleston 7614, New Zealand"}},{"business_url":"http:\/\/www.vetent.co.nz\/","yp_url":"https:\/\/yellow.co.nz\/y\/vetent-freyberg-street?src=name&c=1691","addrInfo":{"lat":-43.635525,"lng":172.4895704,"street_number":"55","locality":"Lincoln","administrative_area_level_1":"Canterbury","country_code":"NZ","country":"New Zealand","postal_code":"7608","route":"55 James St","formatted_address":"55 James St, Lincoln 7608, New Zealand"}},{"business_url":"http:\/\/www.selwynvet.com","yp_url":"https:\/\/yellow.co.nz\/y\/selwyn-veterinary-centre-rolleston?src=name&c=1691","addrInfo":{"lat":-43.5883964,"lng":172.3798771,"street_number":"829","locality":"Rolleston","administrative_area_level_1":"Canterbury","country_code":"NZ","country":"New Zealand","postal_code":"7675","route":"829 Jones Rd","formatted_address":"829 Jones Rd, Rolleston 7675, New Zealand"}},{"business_url":"http:\/\/vetlife.co.nz\/who-we-are\/visit-a-clinic\/rangiora","yp_url":"https:\/\/yellow.co.nz\/y\/vetlife-rangiora-veterinary-main?src=name&c=1691","addrInfo":{"lat":-43.3018608,"lng":172.5927088,"street_number":"33","locality":"Rangiora","administrative_area_level_1":"Canterbury","country_code":"NZ","country":"New Zealand","postal_code":"7400","route":"33 Blackett St","formatted_address":"33 Blackett St, Rangiora 7400, New Zealand"}},{"business_url":"http:\/\/www.ourvets.co.nz\/","yp_url":"https:\/\/yellow.co.nz\/y\/ourvets-riccartonilam-riccarton?src=name&c=1691","addrInfo":{"lat":-43.5310799,"lng":172.5798151,"street_number":"1","locality":"Christchurch","administrative_area_level_1":"Canterbury","country_code":"NZ","country":"New Zealand","postal_code":"8041","route":"1 Ilam Rd","formatted_address":"1 Ilam Rd, Upper Riccarton, Christchurch 8041, New Zealand"}},{"business_url":"http:\/\/mcmasterheap.co.nz","yp_url":"https:\/\/yellow.co.nz\/y\/mcmaster-heap-veterinary?src=name&c=1691","addrInfo":{"lat":-43.5551086,"lng":172.5946601,"street_number":"12","locality":"Christchurch","administrative_area_level_1":"Canterbury","country_code":"NZ","country":"New Zealand","postal_code":"8025","route":"12 Coppell Pl","formatted_address":"12 Coppell Pl, Hoon Hay, Christchurch 8025, New Zealand"}},{"business_url":"http:\/\/www.petmed.co.nz","yp_url":"https:\/\/yellow.co.nz\/y\/marshall-pringle-veterinary?src=name&c=1691","addrInfo":{"lat":-43.3874219,"lng":172.6551601,"street_number":"106","locality":"Kaiapoi","administrative_area_level_1":"Canterbury","country_code":"NZ","country":"New Zealand","postal_code":"7630","route":"106 Williams St","formatted_address":"106 Williams St, Kaiapoi 7630, New Zealand"}},{"business_url":"http:\/\/www.animalandbirdhospital.co.nz","yp_url":"https:\/\/yellow.co.nz\/y\/animal-bird-hospital?src=name&c=1691","addrInfo":{"lat":-43.5448021,"lng":172.6718329,"street_number":"483","locality":"Christchurch","administrative_area_level_1":"Canterbury","country_code":"NZ","country":"New Zealand","postal_code":"8023","route":"483 Ferry Rd","formatted_address":"483 Ferry Rd, Woolston, Christchurch 8023, New Zealand"}},{"business_url":"http:\/\/www.estuaryvet.co.nz","yp_url":"https:\/\/yellow.co.nz\/y\/ferrymead-veterinary-clinic-woolston?src=name&c=1691","addrInfo":{"lat":-43.5575353,"lng":172.7060267,"street_number":"1091","locality":"Christchurch","administrative_area_level_1":"Canterbury","country_code":"NZ","country":"New Zealand","postal_code":"8023","route":"1091 Ferry Rd","formatted_address":"1091 Ferry Rd, Woolston, Christchurch 8023, New Zealand"}},{"business_url":"http:\/\/www.atthevets.co.nz","yp_url":"https:\/\/yellow.co.nz\/y\/at-the-vets?src=name&c=1691","addrInfo":{"lat":-43.5476654,"lng":172.6464057,"street_number":"406","locality":"Christchurch","administrative_area_level_1":"Canterbury","country_code":"NZ","country":"New Zealand","postal_code":"8023","route":"406 Brougham St","formatted_address":"406 Brougham St, Sydenham, Christchurch 8023, New Zealand"}},{"business_url":"http:\/\/www.vetent.co.nz","yp_url":"https:\/\/yellow.co.nz\/y\/vetent-darfield?src=name&c=1691","addrInfo":{"lat":-43.4894471,"lng":172.1107265,"street_number":"48","locality":"Darfield","administrative_area_level_1":"Canterbury","country_code":"NZ","country":"New Zealand","postal_code":"7510","route":"48 South Terrace","formatted_address":"48 South Terrace, Darfield 7510, New Zealand"}},{"business_url":"http:\/\/www.animalandbirdhospital.co.nz","yp_url":"https:\/\/yellow.co.nz\/y\/yourpetvet-online-supplies?src=name&c=1691","addrInfo":{"lat":-43.5448021,"lng":172.6718329,"street_number":"483","locality":"Christchurch","administrative_area_level_1":"Canterbury","country_code":"NZ","country":"New Zealand","postal_code":"8023","route":"483 Ferry Rd","formatted_address":"483 Ferry Rd, Woolston, Christchurch 8023, New Zealand"}},{"business_url":"http:\/\/www.vetent.co.nz\/","yp_url":"https:\/\/yellow.co.nz\/y\/vetent-rakaia-elizabeth?src=name&c=1691","addrInfo":{"lat":-43.7558986,"lng":172.0236461,"street_number":"74","locality":"Rakaia","administrative_area_level_1":"Canterbury","country_code":"NZ","country":"New Zealand","postal_code":"7710","route":"74 Elizabeth Ave","formatted_address":"74 Elizabeth Ave, Rakaia 7710, New Zealand"}},{"business_url":"http:\/\/www.totalvets.co.nz","yp_url":"https:\/\/yellow.co.nz\/y\/total-vet-services?src=name&c=1691","addrInfo":{"lat":-43.5301405,"lng":172.6623998,"street_number":"516","locality":"Christchurch","administrative_area_level_1":"Canterbury","country_code":"NZ","country":"New Zealand","postal_code":"8011","route":"516 Gloucester St","formatted_address":"516 Gloucester St, Linwood, Christchurch 8011, New Zealand"}},{"business_url":"http:\/\/www.wairakeirdvets.co.nz","yp_url":"https:\/\/yellow.co.nz\/y\/wairakei-road-veterinary?src=name&c=1691","addrInfo":{"lat":-43.5034395,"lng":172.5932232,"street_number":"173","locality":"Christchurch","administrative_area_level_1":"Canterbury","country_code":"NZ","country":"New Zealand","postal_code":"8053","route":"173 Wairakei Rd","formatted_address":"173 Wairakei Rd, Bryndwr, Christchurch 8053, New Zealand"}},{"business_url":"http:\/\/vetlife.co.nz","yp_url":"https:\/\/yellow.co.nz\/y\/vetlife-banks-peninsula-main?src=name&c=1691","addrInfo":{"lat":-43.7709586,"lng":172.7902302,"street_number":"4235","locality":"Little River","administrative_area_level_1":"Canterbury","country_code":"NZ","country":"New Zealand","postal_code":"7591","route":"4235 Christchurch Akaroa Rd","formatted_address":"4235 Christchurch Akaroa Rd, Little River 7591, New Zealand"}},{"business_url":"http:\/\/www.northlandsanimalcare.co.nz","yp_url":"https:\/\/yellow.co.nz\/y\/northlands-animal-care?src=name&c=1691","addrInfo":{"lat":-43.4878212,"lng":172.6165681,"street_number":"160","locality":"Christchurch","administrative_area_level_1":"Canterbury","country_code":"NZ","country":"New Zealand","postal_code":"8052","route":"160 Main N Rd","formatted_address":"160 Main N Rd, Papanui, Christchurch 8052, New Zealand"}},{"business_url":"http:\/\/www.animalandbirdhospital.co.nz","yp_url":"https:\/\/yellow.co.nz\/y\/aabh?src=name&c=1691","addrInfo":{"lat":-43.5448021,"lng":172.6718329,"street_number":"483","locality":"Christchurch","administrative_area_level_1":"Canterbury","country_code":"NZ","country":"New Zealand","postal_code":"8023","route":"483 Ferry Rd","formatted_address":"483 Ferry Rd, Woolston, Christchurch 8023, New Zealand"}},{"business_url":"http:\/\/www.vetent.co.nz","yp_url":"https:\/\/yellow.co.nz\/y\/vetent-redcliffs-redcliffs?src=name&c=1691","addrInfo":{"lat":-43.5618172,"lng":172.7383264,"street_number":"180","locality":"Christchurch","administrative_area_level_1":"Canterbury","country_code":"NZ","country":"New Zealand","postal_code":"8081","route":"180 Main Rd","formatted_address":"180 Main Rd, Redcliffs, Christchurch 8081, New Zealand"}},{"business_url":"http:\/\/vetlife.co.nz\/who-we-are\/visit-a-clinic\/dunsandel","yp_url":"https:\/\/yellow.co.nz\/y\/vetlife-dunsandel-veterinary-main?src=name&c=1691","addrInfo":{"lat":-43.6596256,"lng":172.1944839,"street_number":"4","locality":"Dunsandel","administrative_area_level_1":"Canterbury","country_code":"NZ","country":"New Zealand","postal_code":"7682","route":"4 Hororata Dunsandel Rd","formatted_address":"4 Hororata Dunsandel Rd, Dunsandel 7682, New Zealand"}},{"business_url":"http:\/\/www.ourvets.co.nz\/","yp_url":"https:\/\/yellow.co.nz\/y\/ourvets-parklands-parklands?src=name&c=1691","addrInfo":{"lat":-43.4821548,"lng":172.6979976,"street_number":"438","locality":"Christchurch","administrative_area_level_1":"Canterbury","country_code":"NZ","country":"New Zealand","postal_code":"8083","route":"438 Mairehau Rd","formatted_address":"438 Mairehau Rd, Parklands, Christchurch 8083, New Zealand"}},{"business_url":"http:\/\/www.vetent.co.nz","yp_url":"https:\/\/yellow.co.nz\/y\/vetent-ferrymead-woolston?src=name&c=1691","addrInfo":{"lat":-43.5559143,"lng":172.6979678,"street_number":"2","locality":"Christchurch","administrative_area_level_1":"Canterbury","country_code":"NZ","country":"New Zealand","postal_code":"8023","route":"2 Waterman Pl","formatted_address":"2 Waterman Pl, Woolston, Christchurch 8023, New Zealand"}},{"business_url":"http:\/\/www.littlerivervet.co.nz","yp_url":"https:\/\/yellow.co.nz\/y\/little-river-veterinary?src=name&c=1691","addrInfo":{"lat":-43.8144882,"lng":172.7022503,"street_number":"3328","locality":"Little River","administrative_area_level_1":"Canterbury","country_code":"NZ","country":"New Zealand","postal_code":"7591","route":"3328 Christchurch Akaroa Rd","formatted_address":"3328 Christchurch Akaroa Rd, Little River 7591, New Zealand"}},{"business_url":"http:\/\/newbrightonmallvet.co.nz","yp_url":"https:\/\/yellow.co.nz\/y\/atkinson-hamish-karen?src=name&c=1691","addrInfo":{"lat":-43.5077605,"lng":172.7290957,"street_number":"20","locality":"Christchurch","administrative_area_level_1":"Canterbury","country_code":"NZ","country":"New Zealand","postal_code":"8061","route":"20 Beresford St","formatted_address":"20 Beresford St, New Brighton, Christchurch 8061, New Zealand"}},{"business_url":"http:\/\/www.hornbyvet.co.nz","yp_url":"https:\/\/yellow.co.nz\/y\/hay-ap-dr?src=name&c=1691","addrInfo":{"lat":-43.5443091,"lng":172.5270927,"street_number":"7","locality":"Christchurch","administrative_area_level_1":"Canterbury","country_code":"NZ","country":"New Zealand","postal_code":"8042","route":"7 Tower St","formatted_address":"7 Tower St, Hornby, Christchurch 8042, New Zealand"}},{"business_url":"http:\/\/www.premierequinevets.co.nz","yp_url":"https:\/\/yellow.co.nz\/y\/murfitt-dr-cgrn?src=name&c=1691","addrInfo":{"lat":-43.5304376,"lng":172.5717145,"street_number":"14","locality":"Christchurch","administrative_area_level_1":"Canterbury","country_code":"NZ","country":"New Zealand","postal_code":"8041","route":"14 Brake St","formatted_address":"14 Brake St, Upper Riccarton, Christchurch 8041, New Zealand"}},{"business_url":"http:\/\/www.canterburyequine.co.nz","yp_url":"https:\/\/yellow.co.nz\/y\/canterbury-equine-clinic?src=name&c=1691","addrInfo":{"lat":-43.5762712,"lng":172.5169648,"street_number":"499","locality":"Prebbleton","administrative_area_level_1":"Canterbury","country_code":"NZ","country":"New Zealand","postal_code":"7604","route":"499 Springs Rd","formatted_address":"499 Springs Rd, Prebbleton 7604, New Zealand"}},{"business_url":"http:\/\/www.estuaryvet.co.nz","yp_url":"https:\/\/yellow.co.nz\/y\/estuary-veterinary-clinic-woolston?src=name&c=1691","addrInfo":{"lat":-43.5575353,"lng":172.7060267,"street_number":"1091","locality":"Christchurch","administrative_area_level_1":"Canterbury","country_code":"NZ","country":"New Zealand","postal_code":"8023","route":"1091 Ferry Rd","formatted_address":"1091 Ferry Rd, Woolston, Christchurch 8023, New Zealand"}}]