[{"business_url":"http:\/\/www.essentiallyflowers.co.nz","yp_url":"https:\/\/yellow.co.nz\/y\/lumorz-florist-gift-shop?src=name","addrInfo":{"lat":-35.1144899,"lng":173.2638768,"street_number":"86","locality":"Kaitaia","administrative_area_level_1":"Northland","country_code":"NZ","country":"New Zealand","postal_code":"0410","route":"86 Commerce St","formatted_address":"86 Commerce St, Kaitaia 0410, New Zealand"}},{"business_url":"http:\/\/www.totalspan.co.nz","yp_url":"https:\/\/yellow.co.nz\/y\/totalspan-steel-north-road?src=name","addrInfo":{"lat":-35.0954813,"lng":173.2570956,"street_number":"138","locality":"Kaitaia","administrative_area_level_1":"Northland","country_code":"NZ","country":"New Zealand","postal_code":"0482","route":"138 North Rd","formatted_address":"138 North Rd, Kaitaia 0482, New Zealand"}},{"business_url":"http:\/\/www.poolwarehouse.co.nz","yp_url":"https:\/\/yellow.co.nz\/y\/pool-warehouse?src=name","addrInfo":{"lat":-35.2273041,"lng":173.9492554,"street_number":"81","locality":"Kerikeri","administrative_area_level_1":"Northland","country_code":"NZ","country":"New Zealand","postal_code":"0230","route":"81 Kerikeri Rd","formatted_address":"81 Kerikeri Rd, Kerikeri 0230, New Zealand"}},{"business_url":"http:\/\/www.guthriebowron.co.nz\/","yp_url":"https:\/\/yellow.co.nz\/y\/tile-warehouse-blacksmith?src=name","addrInfo":{"lat":-35.2277608,"lng":173.9476142,"street_number":"2","locality":"Kerikeri","administrative_area_level_1":"Northland","country_code":"NZ","country":"New Zealand","postal_code":"0230","route":"2 Homestead Rd","formatted_address":"2 Homestead Rd, Kerikeri 0230, New Zealand"}},{"business_url":"http:\/\/www.versatile.co.nz","yp_url":"https:\/\/yellow.co.nz\/y\/versatile-homes-and-waipapa?src=name","addrInfo":{"lat":-35.2071464,"lng":173.9271627,"street_number":"331","locality":"Waipapa","administrative_area_level_1":"Northland","country_code":"NZ","country":"New Zealand","postal_code":"0295","route":"331 Waipapa Rd","formatted_address":"331 Waipapa Rd, Waipapa 0295, New Zealand"}},{"business_url":"http:\/\/www.demo.net.nz","yp_url":"https:\/\/yellow.co.nz\/y\/demolition-supermarket-port?src=name","addrInfo":{"lat":-35.7408815,"lng":174.3326093,"street_number":"28","locality":"Whangarei","administrative_area_level_1":"Northland","country_code":"NZ","country":"New Zealand","postal_code":"0110","route":"28 Kioreroa Rd","formatted_address":"28 Kioreroa Rd, Port Whangarei, Whangarei 0110, New Zealand"}},{"business_url":"http:\/\/www.saddlerywarehouse.co.nz","yp_url":"https:\/\/yellow.co.nz\/y\/saddlery-warehouse-herekino?src=name","addrInfo":{"lat":-35.7281872,"lng":174.3292131,"street_number":"31","locality":"Whangarei","administrative_area_level_1":"Northland","country_code":"NZ","country":"New Zealand","postal_code":"0110","route":"31 Herekino St","formatted_address":"31 Herekino St, Whangarei, Whangarei 0110, New Zealand"}},{"business_url":"http:\/\/www.demo.net.nz","yp_url":"https:\/\/yellow.co.nz\/y\/demolition-supermarket?src=name","addrInfo":{"lat":-35.7408815,"lng":174.3326093,"street_number":"28","locality":"Whangarei","administrative_area_level_1":"Northland","country_code":"NZ","country":"New Zealand","postal_code":"0110","route":"28 Kioreroa Rd","formatted_address":"28 Kioreroa Rd, Port Whangarei, Whangarei 0110, New Zealand"}},{"business_url":"http:\/\/www.surplusdirect.co.nz","yp_url":"https:\/\/yellow.co.nz\/y\/surplus-direct-clearance?src=name","addrInfo":{"lat":-35.7273902,"lng":174.3185449,"street_number":"25","locality":"Whangarei","administrative_area_level_1":"Northland","country_code":"NZ","country":"New Zealand","postal_code":"0110","route":"25 Walton St","formatted_address":"25 Walton St, Whangarei, Whangarei 0110, New Zealand"}},{"business_url":"http:\/\/www.enviropro.co.nz\/","yp_url":"https:\/\/yellow.co.nz\/y\/enviropro-pest-management-abbey?src=name","addrInfo":{"lat":-35.7280029,"lng":174.368765,"street_number":"187","locality":"Whangarei","administrative_area_level_1":"Northland","country_code":"NZ","country":"New Zealand","postal_code":"0110","route":"187 Awaroa River Rd","formatted_address":"187 Awaroa River Rd, Abbey Caves, Whangarei 0110, New Zealand"}},{"business_url":"http:\/\/www.whangareiplumbers.co.nz","yp_url":"https:\/\/yellow.co.nz\/y\/gc-richards-plumbing-2?src=name","addrInfo":{"lat":-35.7305575,"lng":174.3177237,"street_number":"14","locality":"Whangarei","administrative_area_level_1":"Northland","country_code":"NZ","country":"New Zealand","postal_code":"0110","route":"14 Porowini Ave","formatted_address":"14 Porowini Ave, Morningside, Whangarei 0110, New Zealand"}},{"business_url":"http:\/\/www.northlandcleaningsupplies.co.nz\/","yp_url":"https:\/\/yellow.co.nz\/y\/northland-cleaning-supplies-great?src=name","addrInfo":{"lat":-35.7282327,"lng":174.3294247,"street_number":"35","locality":"Whangarei","administrative_area_level_1":"Northland","country_code":"NZ","country":"New Zealand","postal_code":"0110","route":"35 Herekino St","formatted_address":"35 Herekino St, Whangarei, Whangarei 0110, New Zealand"}},{"business_url":"http:\/\/www.versatile.co.nz","yp_url":"https:\/\/yellow.co.nz\/y\/versatile-homes-and-port?src=name","addrInfo":{"lat":-35.7484223,"lng":174.30903,"street_number":"3","locality":"Whangarei","administrative_area_level_1":"Northland","country_code":"NZ","country":"New Zealand","postal_code":"0110","route":"3 Southend Ave","formatted_address":"3 Southend Ave, Raumanga, Whangarei 0110, New Zealand"}},{"business_url":"http:\/\/steelshedshamilton.co.nz","yp_url":"https:\/\/yellow.co.nz\/y\/steel-shed-systems-central?src=name","addrInfo":{"lat":-35.727371,"lng":174.315942,"street_number":"3","locality":"Whangarei","administrative_area_level_1":"Northland","country_code":"NZ","country":"New Zealand","postal_code":"0110","route":"3 Central Ave","formatted_address":"3 Central Ave, Avenues, Whangarei 0110, New Zealand"}},{"business_url":"http:\/\/www.hillconstruction.co.nz\/","yp_url":"https:\/\/yellow.co.nz\/y\/barn-company-new?src=name","addrInfo":{"lat":-35.7502964,"lng":174.3122838,"street_number":"20","locality":"Whangarei","administrative_area_level_1":"Northland","country_code":"NZ","country":"New Zealand","postal_code":"0110","route":"20 Gumdigger Pl","formatted_address":"20 Gumdigger Pl, Raumanga, Whangarei 0110, New Zealand"}}]