[{"business_url":"http:\/\/www.matthewscoastline.co.nz\/index.htm","yp_url":"https:\/\/yellow.co.nz\/y\/matthews-coastline-kaitaia?src=name","addrInfo":{"lat":-34.9893822,"lng":173.420417,"street_number":"11","locality":"Taipa","administrative_area_level_1":"Northland","country_code":"NZ","country":"New Zealand","postal_code":"0483","route":"11 Aurere Beach Rd","formatted_address":"3\/11 Aurere Beach Rd, Taipa 0483, New Zealand"}},{"business_url":"http:\/\/www.rayrobertsmarine.co.nz","yp_url":"https:\/\/yellow.co.nz\/y\/ray-roberts-riverside-drive?src=name","addrInfo":{"lat":-35.727179,"lng":174.3327713,"street_number":"52","locality":"Whangarei","administrative_area_level_1":"Northland","country_code":"NZ","country":"New Zealand","postal_code":"0112","route":"52 Riverside Dr","formatted_address":"52 Riverside Dr, Riverside, Whangarei 0112, New Zealand"}},{"business_url":"http:\/\/www.burkharts.farmtrader.co.nz","yp_url":"https:\/\/yellow.co.nz\/y\/burkhart-farm-equipment-lepperton?src=name","addrInfo":{"lat":-39.0610953,"lng":174.206135,"street_number":"510","locality":"Lepperton","administrative_area_level_1":"Taranaki","country_code":"NZ","country":"New Zealand","postal_code":"4373","route":"510 Manutahi Rd","formatted_address":"3\/510 Manutahi Rd, Lepperton 4373, New Zealand"}},{"business_url":"http:\/\/www.matamataag.co.nz","yp_url":"https:\/\/yellow.co.nz\/y\/matamata-ag-centre?src=name","addrInfo":{"lat":-37.811983,"lng":175.770655,"street_number":"80","locality":"Matamata","administrative_area_level_1":"Waikato","country_code":"NZ","country":"New Zealand","postal_code":"3400","route":"80 Firth St","formatted_address":"80 Firth St, Matamata 3400, New Zealand"}},{"business_url":"http:\/\/www.devereuxelectrical.co.nz","yp_url":"https:\/\/yellow.co.nz\/y\/devereux-electrical?src=name","addrInfo":{"lat":-37.8911134,"lng":175.4768793,"street_number":"6","locality":"Cambridge","administrative_area_level_1":"Waikato","country_code":"NZ","country":"New Zealand","postal_code":"3434","route":"6 Oliver St","formatted_address":"4\/6 Oliver St, Cambridge 3434, New Zealand"}},{"business_url":"http:\/\/www.govettbrewster.com\/","yp_url":"https:\/\/yellow.co.nz\/y\/new-plymouth-district?src=name","addrInfo":{"lat":-39.0585349,"lng":174.0701352,"street_number":"42","locality":"New Plymouth","administrative_area_level_1":"Taranaki","country_code":"NZ","country":"New Zealand","postal_code":"4310","route":"42 Queen St","formatted_address":"42 Queen St, New Plymouth 4310, New Zealand"}},{"business_url":"http:\/\/www.sharpeye.co.nz","yp_url":"https:\/\/yellow.co.nz\/y\/sharpeye-porana?src=name","addrInfo":{"lat":-36.7823276,"lng":174.7434795,"street_number":"22","locality":"Auckland","administrative_area_level_1":"Auckland","country_code":"NZ","country":"New Zealand","postal_code":"0627","route":"22 Porana Rd","formatted_address":"22 Porana Rd, Wairau Valley, Auckland 0627, New Zealand"}},{"business_url":"http:\/\/www.franktonmotorcamp.co.nz","yp_url":"https:\/\/yellow.co.nz\/y\/frankton-motor-camp?src=name","addrInfo":{"lat":-45.0174933,"lng":168.7271155,"street_number":"17","locality":"Queenstown","administrative_area_level_1":"Otago","country_code":"NZ","country":"New Zealand","postal_code":"9300","route":"17 Yewlett Cres","formatted_address":"17 Yewlett Cres, Frankton, Queenstown 9300, New Zealand"}},{"business_url":"http:\/\/www.readmarine.co.nz","yp_url":"https:\/\/yellow.co.nz\/y\/read-marine-dunedin?src=name","addrInfo":{"lat":-45.8824862,"lng":170.5067556,"street_number":"32","locality":"Dunedin","administrative_area_level_1":"Otago","country_code":"NZ","country":"New Zealand","postal_code":"9016","route":"32 Kitchener St","formatted_address":"32 Kitchener St, Dunedin, Dunedin 9016, New Zealand"}},{"business_url":"http:\/\/www.watercooled.co.nz","yp_url":"https:\/\/yellow.co.nz\/y\/watercooled-sports?src=name","addrInfo":{"lat":-45.8855354,"lng":170.5070758,"street_number":"9","locality":"Dunedin","administrative_area_level_1":"Otago","country_code":"NZ","country":"New Zealand","postal_code":"9016","route":"9 Kitchener St","formatted_address":"9 Kitchener St, Dunedin, Dunedin 9016, New Zealand"}},{"business_url":"http:\/\/www.richmondfibreglass.com","yp_url":"https:\/\/yellow.co.nz\/y\/richmond-fibreglass-richmond?src=name","addrInfo":{"lat":-41.332608,"lng":173.1902419,"street_number":"7A","locality":"Richmond","administrative_area_level_1":"Tasman","country_code":"NZ","country":"New Zealand","postal_code":"7020","route":"7A McPherson St","formatted_address":"7A McPherson St, Richmond 7020, New Zealand"}},{"business_url":"http:\/\/www.bryantplumbing.co.nz","yp_url":"https:\/\/yellow.co.nz\/y\/bryant-plumbing-peka?src=name","addrInfo":{"lat":-40.8460418,"lng":175.0867075,"street_number":"84","locality":"Peka Peka","administrative_area_level_1":"Wellington","country_code":"NZ","country":"New Zealand","postal_code":"5391","route":"84 Octavius Rd","formatted_address":"6454\/84 Octavius Rd, Peka Peka 5391, New Zealand"}},{"business_url":"http:\/\/cwrc.co.nz","yp_url":"https:\/\/yellow.co.nz\/y\/coastwide-resource-consultancy-tancred?src=name","addrInfo":{"lat":-42.7174768,"lng":170.9642039,"street_number":"51","locality":"Hokitika","administrative_area_level_1":"West Coast","country_code":"NZ","country":"New Zealand","postal_code":"7810","route":"51 Sewell St","formatted_address":"51 Sewell St, Hokitika 7810, New Zealand"}},{"business_url":"http:\/\/cwrc.co.nz\/","yp_url":"https:\/\/yellow.co.nz\/y\/coastwide-resource-consultancy-sewell?src=name","addrInfo":{"lat":-42.7174768,"lng":170.9642039,"street_number":"51","locality":"Hokitika","administrative_area_level_1":"West Coast","country_code":"NZ","country":"New Zealand","postal_code":"7810","route":"51 Sewell St","formatted_address":"51 Sewell St, Hokitika 7810, New Zealand"}},{"business_url":"http:\/\/www.giltech.co.nz","yp_url":"https:\/\/yellow.co.nz\/y\/giltech-precision-north-dunedin-2?src=name","addrInfo":{"lat":-45.8566067,"lng":170.5146317,"street_number":"10","locality":"Dunedin","administrative_area_level_1":"Otago","country_code":"NZ","country":"New Zealand","postal_code":"9016","route":"10 Willowbank","formatted_address":"10 Willowbank, North Dunedin, Dunedin 9016, New Zealand"}}]