[{"business_url":"http:\/\/www.waipapatanks.co.nz","yp_url":"https:\/\/yellow.co.nz\/y\/waipapa-tanks-waste?src=name","addrInfo":{"lat":-35.2072673,"lng":173.9448822,"street_number":"166","locality":"Kerikeri","administrative_area_level_1":"Northland","country_code":"NZ","country":"New Zealand","postal_code":"0295","route":"166 Waipapa Rd","formatted_address":"166 Waipapa Rd, Kerikeri 0295, New Zealand"}},{"business_url":"http:\/\/www.positiveelectrical.co.nz","yp_url":"https:\/\/yellow.co.nz\/y\/positive-electrical-security-herekino?src=name","addrInfo":{"lat":-35.7304,"lng":174.3250861,"street_number":"43","locality":"Whangarei","administrative_area_level_1":"Northland","country_code":"NZ","country":"New Zealand","postal_code":"0110","route":"43 Commerce St","formatted_address":"43 Commerce St, Whangarei, Whangarei 0110, New Zealand"}},{"business_url":"http:\/\/www.hansencontractors.co.nz","yp_url":"https:\/\/yellow.co.nz\/y\/hansen-contractors?src=name","addrInfo":{"lat":-43.3148841,"lng":172.598409,"street_number":"32","locality":"Rangiora","administrative_area_level_1":"Canterbury","country_code":"NZ","country":"New Zealand","postal_code":"7400","route":"32 Newnham St","formatted_address":"32 Newnham St, Rangiora 7400, New Zealand"}},{"business_url":"http:\/\/www.jipl.co.nz","yp_url":"https:\/\/yellow.co.nz\/y\/jonassen-industrial-projects-albany?src=name","addrInfo":{"lat":-36.7248858,"lng":174.6976494,"street_number":"85","locality":"Auckland","administrative_area_level_1":"Auckland","country_code":"NZ","country":"New Zealand","postal_code":"0632","route":"85 Oteha Valley Rd Ext","formatted_address":"85 Oteha Valley Rd Ext, Albany, Auckland 0632, New Zealand"}},{"business_url":"http:\/\/www.action-engineering.co.nz","yp_url":"https:\/\/yellow.co.nz\/y\/action-engineering-north?src=name","addrInfo":{"lat":-45.8779798,"lng":170.5128444,"street_number":"95","locality":"Dunedin","administrative_area_level_1":"Otago","country_code":"NZ","country":"New Zealand","postal_code":"9016","route":"95 Fryatt St","formatted_address":"95 Fryatt St, Dunedin, Dunedin 9016, New Zealand"}},{"business_url":"http:\/\/www.absoluteconcrete.co.nz","yp_url":"https:\/\/yellow.co.nz\/y\/absolute-concrete-kaiwaka?src=name","addrInfo":{"lat":-36.121356,"lng":174.4361406,"street_number":"2458","locality":"Brynderwyn","administrative_area_level_1":"Northland","country_code":"NZ","country":"New Zealand","postal_code":"0587","route":"2458 State Highway 1","formatted_address":"2458 State Highway 1, Brynderwyn 0587, New Zealand"}},{"business_url":"http:\/\/www.concreteprecast.co.nz\/","yp_url":"https:\/\/yellow.co.nz\/y\/co-pumping-bell?src=name","addrInfo":{"lat":-39.0315409,"lng":174.1680535,"street_number":"194","locality":"New Plymouth","administrative_area_level_1":"Taranaki","country_code":"NZ","country":"New Zealand","postal_code":"4373","route":"194 CONNETT Rd E","formatted_address":"194 CONNETT Rd E, Bell Block, New Plymouth 4373, New Zealand"}},{"business_url":"http:\/\/www.waterworksirrigation.co.nz","yp_url":"https:\/\/yellow.co.nz\/y\/waterworks-irrigation-marua?src=name","addrInfo":{"lat":-36.8931046,"lng":174.8325776,"street_number":"193","locality":"Auckland","administrative_area_level_1":"Auckland","country_code":"NZ","country":"New Zealand","postal_code":"1051","route":"193 Marua Rd","formatted_address":"1\/193 Marua Rd, Mount Wellington, Auckland 1051, New Zealand"}},{"business_url":"http:\/\/www.concreteprecast.co.nz","yp_url":"https:\/\/yellow.co.nz\/y\/co-concrete-bell-block?src=name","addrInfo":{"lat":-39.0315409,"lng":174.1680535,"street_number":"194","locality":"New Plymouth","administrative_area_level_1":"Taranaki","country_code":"NZ","country":"New Zealand","postal_code":"4373","route":"194 CONNETT Rd E","formatted_address":"194 CONNETT Rd E, Bell Block, New Plymouth 4373, New Zealand"}}]