[{"business_url":"http:\/\/www.predictweather.com","yp_url":"https:\/\/yellow.co.nz\/y\/predict-wear?src=name","addrInfo":{"lat":-36.9196008,"lng":174.6627767,"street_number":"197","locality":"Auckland","administrative_area_level_1":"Auckland","country_code":"NZ","country":"New Zealand","postal_code":"0604","route":"197 Titirangi Rd","formatted_address":"197 Titirangi Rd, Titirangi, Auckland 0604, New Zealand"}},{"business_url":"http:\/\/www.inghammora.co.nz\/","yp_url":"https:\/\/yellow.co.nz\/y\/ingham-mora?src=name","addrInfo":{"lat":-37.6838322,"lng":176.1675072,"street_number":"60","locality":"Tauranga","administrative_area_level_1":"Bay Of Plenty","country_code":"NZ","country":"New Zealand","postal_code":"3110","route":"60 Durham St","formatted_address":"60 Durham St, Tauranga, Tauranga 3110, New Zealand"}},{"business_url":"http:\/\/www.forexltd.co.nz","yp_url":"https:\/\/yellow.co.nz\/y\/forex?src=name","addrInfo":{"lat":-36.7862785,"lng":174.773145,"street_number":"95","locality":"Auckland","administrative_area_level_1":"Auckland","country_code":"NZ","country":"New Zealand","postal_code":"0622","route":"95 Hurstmere Rd","formatted_address":"95 Hurstmere Rd, Takapuna, Auckland 0622, New Zealand"}},{"business_url":"http:\/\/aciprint.co.nz","yp_url":"https:\/\/yellow.co.nz\/y\/aci-screen-mt-smart?src=name","addrInfo":{"lat":-36.9157465,"lng":174.8040978,"street_number":"269a","locality":"Auckland","administrative_area_level_1":"Auckland","country_code":"NZ","country":"New Zealand","postal_code":"1061","route":"269a Mount Smart Rd","formatted_address":"269a Mount Smart Rd, Onehunga, Auckland 1061, New Zealand"}},{"business_url":"http:\/\/www.metservice.com","yp_url":"https:\/\/yellow.co.nz\/y\/metservice?src=name","addrInfo":{"lat":-41.2838301,"lng":174.7685833,"street_number":"30","locality":"Wellington","administrative_area_level_1":"Wellington","country_code":"NZ","country":"New Zealand","postal_code":"6012","route":"30 Salamanca Rd","formatted_address":"30 Salamanca Rd, Kelburn, Wellington 6012, New Zealand"}},{"business_url":"http:\/\/www.switchaccounting.co.nz","yp_url":"https:\/\/yellow.co.nz\/y\/switch-accounting-moray?src=name","addrInfo":{"lat":-45.8724744,"lng":170.5037835,"street_number":"235","locality":"Dunedin","administrative_area_level_1":"Otago","country_code":"NZ","country":"New Zealand","postal_code":"9016","route":"235 Moray Pl","formatted_address":"235 Moray Pl, Dunedin, Dunedin 9016, New Zealand"}}]