[{"business_url":"http:\/\/www.thewhitedovecompany.co.nz","yp_url":"https:\/\/yellow.co.nz\/y\/white-dove-company?src=name","addrInfo":{"lat":-39.079688,"lng":174.085781,"street_number":"183","locality":"New Plymouth","administrative_area_level_1":"Taranaki","country_code":"NZ","country":"New Zealand","postal_code":"4310","route":"183 Brooklands Rd","formatted_address":"183 Brooklands Rd, Vogeltown, New Plymouth 4310, New Zealand"}},{"business_url":"http:\/\/sites.google.com\/site\/specialcelebrationz\/","yp_url":"https:\/\/yellow.co.nz\/y\/special-celebrationz-bev?src=name","addrInfo":{"lat":-36.8273639,"lng":174.6129512,"street_number":"31","locality":"Auckland","administrative_area_level_1":"Auckland","country_code":"NZ","country":"New Zealand","postal_code":"0614","route":"31 Richfield Cres","formatted_address":"31 Richfield Cres, Massey, Auckland 0614, New Zealand"}},{"business_url":"http:\/\/www.edwardsnz.co.nz","yp_url":"https:\/\/yellow.co.nz\/y\/edwards-sound-lighting-penrose?src=name","addrInfo":{"lat":-36.9100761,"lng":174.8062855,"street_number":"68","locality":"Auckland","administrative_area_level_1":"Auckland","country_code":"NZ","country":"New Zealand","postal_code":"1061","route":"68 Walls Rd","formatted_address":"68 Walls Rd, Penrose, Auckland 1061, New Zealand"}},{"business_url":"http:\/\/www.celebrantservices.co.nz","yp_url":"https:\/\/yellow.co.nz\/y\/carol-gunn-celebrant?src=name","addrInfo":{"lat":-43.8773884,"lng":171.7457778,"street_number":"58","locality":"Ashburton","administrative_area_level_1":"Canterbury","country_code":"NZ","country":"New Zealand","postal_code":"7700","route":"58 Carters Rd","formatted_address":"58 Carters Rd, Allenton, Ashburton 7700, New Zealand"}},{"business_url":"http:\/\/www.founderspark.co.nz","yp_url":"https:\/\/yellow.co.nz\/y\/founders-heritage-park?src=name","addrInfo":{"lat":-41.2622499,"lng":173.2977214,"street_number":"87","locality":"Nelson","administrative_area_level_1":"Nelson","country_code":"NZ","country":"New Zealand","postal_code":"7010","route":"87 Atawhai Dr","formatted_address":"87 Atawhai Dr, The Wood, Nelson 7010, New Zealand"}},{"business_url":"http:\/\/www.oldstpauls.co.nz","yp_url":"https:\/\/yellow.co.nz\/y\/old-st-pauls-old?src=name","addrInfo":{"lat":-41.2762753,"lng":174.7803842,"street_number":"34","locality":"Wellington","administrative_area_level_1":"Wellington","country_code":"NZ","country":"New Zealand","postal_code":"6011","route":"34 Mulgrave St","formatted_address":"34 Mulgrave St, Pipitea, Wellington 6011, New Zealand"}},{"business_url":"http:\/\/www.gillsmith.co.nz","yp_url":"https:\/\/yellow.co.nz\/y\/gillian-smith-celebrant-saint?src=name","addrInfo":{"lat":-43.5070111,"lng":172.6275797,"street_number":"52A","locality":"Christchurch","administrative_area_level_1":"Canterbury","country_code":"NZ","country":"New Zealand","postal_code":"8014","route":"52A Hawkesbury Ave","formatted_address":"52A Hawkesbury Ave, St Albans, Christchurch 8014, New Zealand"}}]