[{"business_url":"http:\/\/www.otahuhuengineering.co.nz","yp_url":"https:\/\/yellow.co.nz\/y\/otahuhu-engineering?src=name&c=1724","addrInfo":{"lat":-36.9499556,"lng":174.8308915,"street_number":"28","locality":"Auckland","administrative_area_level_1":"Auckland","country_code":"NZ","country":"New Zealand","postal_code":"2024","route":"28 Tui St","formatted_address":"28 Tui St, Otahuhu, Auckland 2024, New Zealand"}},{"business_url":"http:\/\/www.randhengineering.co.nz\/","yp_url":"https:\/\/yellow.co.nz\/y\/rh-engineering-east-tamaki-4?src=name&c=1724","addrInfo":{"lat":-36.94392,"lng":174.8782047,"street_number":"25","locality":"Auckland","administrative_area_level_1":"Auckland","country_code":"NZ","country":"New Zealand","postal_code":"2013","route":"25 Lorien Pl","formatted_address":"25 Lorien Pl, East Tamaki, Auckland 2013, New Zealand"}},{"business_url":"http:\/\/www.newplymouthunderwater.co.nz","yp_url":"https:\/\/yellow.co.nz\/y\/new-plymouth-underwater?src=name&c=1724","addrInfo":{"lat":-39.0632571,"lng":174.0440475,"street_number":"11","locality":"New Plymouth","administrative_area_level_1":"Taranaki","country_code":"NZ","country":"New Zealand","postal_code":"4310","route":"11 Breakwater Rd","formatted_address":"11 Breakwater Rd, Moturoa, New Plymouth 4310, New Zealand"}},{"business_url":"http:\/\/www.pipeweldingservices.co.nz","yp_url":"https:\/\/yellow.co.nz\/y\/pipe-welding-services-glen?src=name&c=1724","addrInfo":{"lat":-36.9089817,"lng":174.6508235,"street_number":"18","locality":"Auckland","administrative_area_level_1":"Auckland","country_code":"NZ","country":"New Zealand","postal_code":"0602","route":"18 Waikumete Rd","formatted_address":"18 Waikumete Rd, Glen Eden, Auckland 0602, New Zealand"}},{"business_url":"http:\/\/www.weldingspecialties.co.nz","yp_url":"https:\/\/yellow.co.nz\/y\/welding-specialties?src=name&c=1724","addrInfo":{"lat":-36.9040123,"lng":174.6854147,"street_number":"12","locality":"Auckland","administrative_area_level_1":"Auckland","country_code":"NZ","country":"New Zealand","postal_code":"0600","route":"12 Bentinck St","formatted_address":"10\/12 Bentinck St, New Lynn, Auckland 0600, New Zealand"}},{"business_url":"http:\/\/www.ssb.co.nz\/mobileservices","yp_url":"https:\/\/yellow.co.nz\/y\/mobile-services-keith?src=name&c=1724","addrInfo":{"lat":-37.2599049,"lng":174.9450865,"street_number":"3","locality":"Tuakau","administrative_area_level_1":"Auckland","country_code":"NZ","country":"New Zealand","postal_code":"2121","route":"3 Henderson Ave","formatted_address":"3 Henderson Ave, Tuakau 2121, New Zealand"}},{"business_url":"http:\/\/www.cdcontracting.co.nz","yp_url":"https:\/\/yellow.co.nz\/y\/cd-contracting-mobile-welding?src=name&c=1724","addrInfo":{"lat":-38.2154646,"lng":175.868874,"street_number":"10","locality":"Tokoroa","administrative_area_level_1":"Waikato","country_code":"NZ","country":"New Zealand","postal_code":"3420","route":"10 Mannering St","formatted_address":"10 Mannering St, Tokoroa 3420, New Zealand"}},{"business_url":"http:\/\/www.mpw.co.nz","yp_url":"https:\/\/yellow.co.nz\/y\/machine-part-welding?src=name&c=1724","addrInfo":{"lat":-36.9192005,"lng":174.8277242,"street_number":"960","locality":"Auckland","administrative_area_level_1":"Auckland","country_code":"NZ","country":"New Zealand","postal_code":"1061","route":"960 Great South Rd","formatted_address":"960 Great South Rd, Penrose, Auckland 1061, New Zealand"}},{"business_url":"http:\/\/www.industrialwelding.co.nz","yp_url":"https:\/\/yellow.co.nz\/y\/industrial-welding-woodward?src=name&c=1724","addrInfo":{"lat":-37.7919654,"lng":175.2612281,"street_number":"27","locality":"Hamilton","administrative_area_level_1":"Waikato","country_code":"NZ","country":"New Zealand","postal_code":"3204","route":"27 Bandon St","formatted_address":"27 Bandon St, Frankton, Hamilton 3204, New Zealand"}}]