[{"business_url":"http:\/\/www.life.nzl.org","yp_url":"https:\/\/yellow.co.nz\/y\/life-un-store?src=name","addrInfo":{"lat":-37.7960718,"lng":175.2834818,"street_number":"20","locality":"Hamilton","administrative_area_level_1":"Waikato","country_code":"NZ","country":"New Zealand","postal_code":"3204","route":"20 Palmerston St","formatted_address":"20 Palmerston St, Hamilton 3204, New Zealand"}},{"business_url":"http:\/\/www.rampworx.co.nz\/","yp_url":"https:\/\/yellow.co.nz\/y\/rampworx-ranui?src=name","addrInfo":{"lat":-36.8661564,"lng":174.5953798,"street_number":"30","locality":"Auckland","administrative_area_level_1":"Auckland","country_code":"NZ","country":"New Zealand","postal_code":"0612","route":"30 Airdrie Rd","formatted_address":"30 Airdrie Rd, Ranui, Auckland 0612, New Zealand"}},{"business_url":"http:\/\/www.life.nzl.org","yp_url":"https:\/\/yellow.co.nz\/y\/life-un-koutu?src=name","addrInfo":{"lat":-38.1283293,"lng":176.2391429,"street_number":"110","locality":"Rotorua","administrative_area_level_1":"Bay Of Plenty","country_code":"NZ","country":"New Zealand","postal_code":"3010","route":"110 Lake Rd","formatted_address":"110 Lake Rd, Koutu, Rotorua 3010, New Zealand"}},{"business_url":"http:\/\/www.walkingcanes.co.nz","yp_url":"https:\/\/yellow.co.nz\/y\/walkingcanesconz?src=name","addrInfo":{"lat":-41.1097516,"lng":175.0424623,"street_number":"4","locality":"Upper Hutt","administrative_area_level_1":"Wellington","country_code":"NZ","country":"New Zealand","postal_code":"5018","route":"4 McEwen Cres","formatted_address":"4 McEwen Cres, Riverstone Terraces, Upper Hutt 5018, New Zealand"}},{"business_url":"http:\/\/www.lifeunlimited.net.nz","yp_url":"https:\/\/yellow.co.nz\/y\/life-un-disability?src=name","addrInfo":{"lat":-38.6701086,"lng":178.0332725,"street_number":"101","locality":"Gisborne","administrative_area_level_1":"Gisborne","country_code":"NZ","country":"New Zealand","postal_code":"4010","route":"101 Wainui Rd","formatted_address":"101 Wainui Rd, Inner Kaiti, Gisborne 4010, New Zealand"}},{"business_url":"http:\/\/www.accessmobility.co.nz","yp_url":"https:\/\/yellow.co.nz\/y\/access-mobility-croucher?src=name","addrInfo":{"lat":-41.3380172,"lng":173.1859623,"street_number":"17","locality":"Richmond","administrative_area_level_1":"Tasman","country_code":"NZ","country":"New Zealand","postal_code":"7020","route":"17 Croucher St","formatted_address":"17 Croucher St, Richmond 7020, New Zealand"}}]