[{"business_url":"http:\/\/www.cactusliquor.co.nz","yp_url":"https:\/\/yellow.co.nz\/y\/cactus-liquor-kaitaia-kaitaia?src=name&c=1089","addrInfo":{"lat":-35.1157513,"lng":173.2652462,"street_number":"15","locality":"Kaitaia","administrative_area_level_1":"Northland","country_code":"NZ","country":"New Zealand","postal_code":"0410","route":"15 Commerce St","formatted_address":"15 Commerce St, Kaitaia 0410, New Zealand"}},{"business_url":"http:\/\/www.cactusliquor.co.nz","yp_url":"https:\/\/yellow.co.nz\/y\/cactus-liquor-tikipunga-tikipunga?src=name&c=1089","addrInfo":{"lat":-35.6871279,"lng":174.3264213,"street_number":"159","locality":"Whangarei","administrative_area_level_1":"Northland","country_code":"NZ","country":"New Zealand","postal_code":"0112","route":"159 Kiripaka Rd","formatted_address":"159 Kiripaka Rd, Tikipunga, Whangarei 0112, New Zealand"}},{"business_url":"http:\/\/www.liquorking.co.nz","yp_url":"https:\/\/yellow.co.nz\/y\/liquor-king-woodhill?src=name&c=1089","addrInfo":{"lat":-35.7311981,"lng":174.3116694,"street_number":"53","locality":"Whangarei","administrative_area_level_1":"Northland","country_code":"NZ","country":"New Zealand","postal_code":"0110","route":"53 Maunu Rd","formatted_address":"51\/53 Maunu Rd, Woodhill, Whangarei 0110, New Zealand"}},{"business_url":"http:\/\/www.liquorland.co.nz","yp_url":"https:\/\/yellow.co.nz\/y\/liquorland-kerikeri-2?src=name&c=1089","addrInfo":{"lat":-35.2298868,"lng":173.9465709,"street_number":"52","locality":"Kerikeri","administrative_area_level_1":"Northland","country_code":"NZ","country":"New Zealand","postal_code":"0230","route":"52 Kerikeri Rd","formatted_address":"52 Kerikeri Rd, Kerikeri 0230, New Zealand"}},{"business_url":"http:\/\/www.liquorland.co.nz","yp_url":"https:\/\/yellow.co.nz\/y\/liquorland-kamo-road?src=name&c=1089","addrInfo":{"lat":-35.6848554,"lng":174.3014656,"street_number":"477","locality":"Whangarei","administrative_area_level_1":"Northland","country_code":"NZ","country":"New Zealand","postal_code":"0112","route":"477 Kamo Rd","formatted_address":"477 Kamo Rd, Kamo, Whangarei 0112, New Zealand"}},{"business_url":"http:\/\/www.liquorland.co.nz","yp_url":"https:\/\/yellow.co.nz\/y\/liquorland-moana-avenue?src=name&c=1089","addrInfo":{"lat":-35.4055258,"lng":173.8037256,"street_number":"42","locality":"Kaikohe","administrative_area_level_1":"Northland","country_code":"NZ","country":"New Zealand","postal_code":"0405","route":"42 Broadway","formatted_address":"42 Broadway, Kaikohe 0405, New Zealand"}}]