[{"business_url":"http:\/\/www.guyco.co.nz\/kitchens","yp_url":"https:\/\/yellow.co.nz\/y\/guyco-kitchens-raumanga-2?src=name&c=1043","addrInfo":{"lat":-35.7526496,"lng":174.3107246,"street_number":"8","locality":"Whangarei","administrative_area_level_1":"Northland","country_code":"NZ","country":"New Zealand","postal_code":"0110","route":"8 Rewa Rewa Rd","formatted_address":"8 Rewa Rewa Rd, Raumanga, Whangarei 0110, New Zealand"}},{"business_url":"http:\/\/www.nulooknorthland.co.nz\/","yp_url":"https:\/\/yellow.co.nz\/y\/nulook-windows-doors-kamo?src=name&c=1043","addrInfo":{"lat":-35.6847257,"lng":174.3004339,"street_number":"19","locality":"Whangarei","administrative_area_level_1":"Northland","country_code":"NZ","country":"New Zealand","postal_code":"0112","route":"19 Clark Rd","formatted_address":"19 Clark Rd, Kamo, Whangarei 0112, New Zealand"}},{"business_url":"http:\/\/www.guyco.co.nz\/kitchens","yp_url":"https:\/\/yellow.co.nz\/y\/guyco-kitchens-rewa-road-4?src=name&c=1043","addrInfo":{"lat":-35.7526496,"lng":174.3107246,"street_number":"8","locality":"Whangarei","administrative_area_level_1":"Northland","country_code":"NZ","country":"New Zealand","postal_code":"0110","route":"8 Rewa Rewa Rd","formatted_address":"8 Rewa Rewa Rd, Raumanga, Whangarei 0110, New Zealand"}},{"business_url":"http:\/\/www.oldbayjoinery.co.nz","yp_url":"https:\/\/yellow.co.nz\/y\/old-bay-joinery?src=name&c=1043","addrInfo":{"lat":-35.270683,"lng":174.078605,"street_number":"95","locality":"Ohaeawai","administrative_area_level_1":"Northland","country_code":"NZ","country":"New Zealand","postal_code":"0472","route":"95 Te Ahu Ahu Rd","formatted_address":"Bay of Islands Maori Canoe Tours 95 Te Ahu Ahu Rd, Ohaeawai 0472, New Zealand"}},{"business_url":"http:\/\/www.essex-comshape.co.nz","yp_url":"https:\/\/yellow.co.nz\/y\/essex-cabitnetmakers-comshape?src=name&c=1043","addrInfo":{"lat":-36.9047795,"lng":174.6912171,"street_number":"16","locality":"Auckland","administrative_area_level_1":"Auckland","country_code":"NZ","country":"New Zealand","postal_code":"0600","route":"16 Portage Rd","formatted_address":"16 Portage Rd, New Lynn, Auckland 0600, New Zealand"}},{"business_url":"http:\/\/www.rockfieldwoodworkers.co.nz","yp_url":"https:\/\/yellow.co.nz\/y\/rockfield-woodworkers-east-tamaki?src=name&c=1043","addrInfo":{"lat":-36.9333023,"lng":174.8996763,"street_number":"9","locality":"Auckland","administrative_area_level_1":"Auckland","country_code":"NZ","country":"New Zealand","postal_code":"2013","route":"9 Parkwood Pl","formatted_address":"9 Parkwood Pl, East Tamaki, Auckland 2013, New Zealand"}},{"business_url":"http:\/\/www.serenejoinery.co.nz","yp_url":"https:\/\/yellow.co.nz\/y\/serene-joinery-ellice-road?src=name&c=1043","addrInfo":{"lat":-36.7651552,"lng":174.7315868,"street_number":"70","locality":"Auckland","administrative_area_level_1":"Auckland","country_code":"NZ","country":"New Zealand","postal_code":"0629","route":"70 Ellice Rd","formatted_address":"70 Ellice Rd, Wairau Valley, Auckland 0629, New Zealand"}},{"business_url":"http:\/\/www.dando.net.nz","yp_url":"https:\/\/yellow.co.nz\/y\/dando-doors-mount-roskill?src=name&c=1043","addrInfo":{"lat":-36.9055186,"lng":174.7299453,"street_number":"62","locality":"Auckland","administrative_area_level_1":"Auckland","country_code":"NZ","country":"New Zealand","postal_code":"1041","route":"62 Stoddard Rd","formatted_address":"62 Stoddard Rd, Mount Roskill, Auckland 1041, New Zealand"}},{"business_url":"http:\/\/themobilejoinery.co.nz","yp_url":"https:\/\/yellow.co.nz\/y\/mobile-timber-auckland-2?src=name&c=1043","addrInfo":{"lat":-36.7733384,"lng":174.7308633,"street_number":"19","locality":"Auckland","administrative_area_level_1":"Auckland","country_code":"NZ","country":"New Zealand","postal_code":"0627","route":"19 Ashfield Rd","formatted_address":"19 Ashfield Rd, Wairau Valley, Auckland 0627, New Zealand"}},{"business_url":"http:\/\/www.totaltimba.co.nz","yp_url":"https:\/\/yellow.co.nz\/y\/total-timba-joinery?src=name&c=1043","addrInfo":{"lat":-36.7795899,"lng":174.7414765,"street_number":"227","locality":"Auckland","administrative_area_level_1":"Auckland","country_code":"NZ","country":"New Zealand","postal_code":"0627","route":"227 Archers Rd","formatted_address":"227 Archers Rd, Wairau Valley, Auckland 0627, New Zealand"}},{"business_url":"http:\/\/www.mattsonjoinery.co.nz","yp_url":"https:\/\/yellow.co.nz\/y\/mattson-joinery?src=name&c=1043","addrInfo":{"lat":-36.9953002,"lng":174.8647726,"street_number":"6","locality":"Auckland","administrative_area_level_1":"Auckland","country_code":"NZ","country":"New Zealand","postal_code":"2104","route":"6 Orb Ave","formatted_address":"6 Orb Ave, Manukau, Auckland 2104, New Zealand"}},{"business_url":"http:\/\/www.macleodjoinery.co.nz","yp_url":"https:\/\/yellow.co.nz\/y\/macleod-joinery-new?src=name&c=1043","addrInfo":{"lat":-39.0497765,"lng":174.0994702,"street_number":"42","locality":"New Plymouth","administrative_area_level_1":"Taranaki","country_code":"NZ","country":"New Zealand","postal_code":"4312","route":"42 Beach St","formatted_address":"42 Beach St, Fitzroy, New Plymouth 4312, New Zealand"}},{"business_url":"http:\/\/www.mattsonjoinery.co.nz","yp_url":"https:\/\/yellow.co.nz\/y\/mattson-joinery-orb?src=name&c=1043","addrInfo":{"lat":-36.9953002,"lng":174.8647726,"street_number":"6","locality":"Auckland","administrative_area_level_1":"Auckland","country_code":"NZ","country":"New Zealand","postal_code":"2104","route":"6 Orb Ave","formatted_address":"6 Orb Ave, Manukau, Auckland 2104, New Zealand"}},{"business_url":"http:\/\/www.vekart.co.nz","yp_url":"https:\/\/yellow.co.nz\/y\/vekart?src=name&c=1043","addrInfo":{"lat":-38.1512069,"lng":176.2620555,"street_number":"52","locality":"Rotorua","administrative_area_level_1":"Bay Of Plenty","country_code":"NZ","country":"New Zealand","postal_code":"3010","route":"52 White St","formatted_address":"52 White St, Fenton Park, Rotorua 3010, New Zealand"}},{"business_url":"http:\/\/www.westpine.co.nz","yp_url":"https:\/\/yellow.co.nz\/y\/westpine-joinery-new-lynn?src=name&c=1043","addrInfo":{"lat":-36.9028323,"lng":174.683121,"street_number":"7","locality":"Auckland","administrative_area_level_1":"Auckland","country_code":"NZ","country":"New Zealand","postal_code":"0600","route":"7 Binsted Rd","formatted_address":"7 Binsted Rd, New Lynn, Auckland 0600, New Zealand"}},{"business_url":"http:\/\/www.rotoruaaluminium.co.nz","yp_url":"https:\/\/yellow.co.nz\/y\/rotorua-aluminium-joinery?src=name&c=1043","addrInfo":{"lat":-38.1323233,"lng":176.2299487,"street_number":"61","locality":"Rotorua","administrative_area_level_1":"Bay Of Plenty","country_code":"NZ","country":"New Zealand","postal_code":"3015","route":"61 Riri St","formatted_address":"61 Riri St, Mangakakahi, Rotorua 3015, New Zealand"}},{"business_url":"http:\/\/www.dimax.co.nz","yp_url":"https:\/\/yellow.co.nz\/y\/dimax-interiors?src=name&c=1043","addrInfo":{"lat":-36.8350721,"lng":175.7035252,"street_number":"17","locality":"Whitianga","administrative_area_level_1":"Waikato","country_code":"NZ","country":"New Zealand","postal_code":"3510","route":"17 Coghill St","formatted_address":"17 Coghill St, Whitianga 3510, New Zealand"}},{"business_url":"http:\/\/www.hostess.co.nz","yp_url":"https:\/\/yellow.co.nz\/y\/hostess-joinery-sunshine?src=name&c=1043","addrInfo":{"lat":-37.7587166,"lng":175.2448476,"street_number":"17","locality":"Hamilton","administrative_area_level_1":"Waikato","country_code":"NZ","country":"New Zealand","postal_code":"3200","route":"17 Sunshine Ave","formatted_address":"17 Sunshine Ave, Te Rapa, Hamilton 3200, New Zealand"}},{"business_url":"http:\/\/www.custombuiltcabinets.co.nz","yp_url":"https:\/\/yellow.co.nz\/y\/custom-built-cabinets?src=name&c=1043","addrInfo":{"lat":-36.9038941,"lng":174.9270205,"street_number":"198","locality":"Auckland","administrative_area_level_1":"Auckland","country_code":"NZ","country":"New Zealand","postal_code":"2014","route":"198 Moore St","formatted_address":"198 Moore St, Howick, Auckland 2014, New Zealand"}},{"business_url":"http:\/\/www.joineryauckland.co.nz\/","yp_url":"https:\/\/yellow.co.nz\/y\/timber-joinery?src=name&c=1043","addrInfo":{"lat":-36.9242123,"lng":174.7802121,"street_number":"26A","locality":"Auckland","administrative_area_level_1":"Auckland","country_code":"NZ","country":"New Zealand","postal_code":"1061","route":"26A Hill St","formatted_address":"26A Hill St, Onehunga, Auckland 1061, New Zealand"}},{"business_url":"http:\/\/www.leebros.co.nz","yp_url":"https:\/\/yellow.co.nz\/y\/lee-brors-joinery?src=name&c=1043","addrInfo":{"lat":-38.1311633,"lng":176.2277072,"street_number":"120","locality":"Rotorua","administrative_area_level_1":"Bay Of Plenty","country_code":"NZ","country":"New Zealand","postal_code":"3015","route":"120 View Rd","formatted_address":"120 View Rd, Mangakakahi, Rotorua 3015, New Zealand"}},{"business_url":"http:\/\/www.morrinsville-info.co.nz\/EWJkitchens","yp_url":"https:\/\/yellow.co.nz\/y\/eastern-waikato-joinery?src=name&c=1043","addrInfo":{"lat":-37.6598768,"lng":175.5268676,"street_number":"3","locality":"Morrinsville","administrative_area_level_1":"Waikato","country_code":"NZ","country":"New Zealand","postal_code":"3300","route":"3 Allen St","formatted_address":"3 Allen St, Morrinsville 3300, New Zealand"}},{"business_url":"http:\/\/www.bmlbuilders.co.nz","yp_url":"https:\/\/yellow.co.nz\/y\/bml-builders?src=name&c=1043","addrInfo":{"lat":-36.775472,"lng":174.553407,"street_number":"18","locality":"Kumeu","administrative_area_level_1":"Auckland","country_code":"NZ","country":"New Zealand","postal_code":"0810","route":"18 Shamrock Dr","formatted_address":"18 Shamrock Dr, Kumeu 0810, New Zealand"}},{"business_url":"http:\/\/www.taranakijoinery.co.nz","yp_url":"https:\/\/yellow.co.nz\/y\/taranaki-joinery?src=name&c=1043","addrInfo":{"lat":-38.9574798,"lng":174.5369752,"street_number":"170","locality":"Uruti","administrative_area_level_1":"Taranaki","country_code":"NZ","country":"New Zealand","postal_code":"4378","route":"170 Uruti Rd","formatted_address":"170 Uruti Rd, Uruti 4378, New Zealand"}},{"business_url":"http:\/\/www.kbljoinery.co.nz","yp_url":"https:\/\/yellow.co.nz\/y\/kbl-joinery-browns?src=name&c=1043","addrInfo":{"lat":-36.7179212,"lng":174.7449021,"street_number":"50","locality":"Auckland","administrative_area_level_1":"Auckland","country_code":"NZ","country":"New Zealand","postal_code":"0630","route":"50 Anzac Rd","formatted_address":"50 Anzac Rd, Browns Bay, Auckland 0630, New Zealand"}},{"business_url":"http:\/\/www.westpine.co.nz","yp_url":"https:\/\/yellow.co.nz\/y\/westpine-joinery-1989?src=name&c=1043","addrInfo":{"lat":-36.9028323,"lng":174.683121,"street_number":"7","locality":"Auckland","administrative_area_level_1":"Auckland","country_code":"NZ","country":"New Zealand","postal_code":"0600","route":"7 Binsted Rd","formatted_address":"7 Binsted Rd, New Lynn, Auckland 0600, New Zealand"}},{"business_url":"http:\/\/www.arcadiajoinery.com","yp_url":"https:\/\/yellow.co.nz\/y\/arcadia-joinery-henderson?src=name&c=1043","addrInfo":{"lat":-36.8855622,"lng":174.6322352,"street_number":"6","locality":"Auckland","administrative_area_level_1":"Auckland","country_code":"NZ","country":"New Zealand","postal_code":"0612","route":"6 View Rd","formatted_address":"6 View Rd, Henderson, Auckland 0612, New Zealand"}},{"business_url":"http:\/\/www.fisherwindows.co.nz","yp_url":"https:\/\/yellow.co.nz\/y\/window-warehouse-rotorua?src=name&c=1043","addrInfo":{"lat":-38.1296375,"lng":176.2321861,"street_number":"3","locality":"Rotorua","administrative_area_level_1":"Bay Of Plenty","country_code":"NZ","country":"New Zealand","postal_code":"3015","route":"3 Tallyho St","formatted_address":"3 Tallyho St, Mangakakahi, Rotorua 3015, New Zealand"}},{"business_url":"http:\/\/www.rockfieldwoodworkers.co.nz","yp_url":"https:\/\/yellow.co.nz\/y\/rockfield-woodworkers-2003-east?src=name&c=1043","addrInfo":{"lat":-36.9333023,"lng":174.8996763,"street_number":"9","locality":"Auckland","administrative_area_level_1":"Auckland","country_code":"NZ","country":"New Zealand","postal_code":"2013","route":"9 Parkwood Pl","formatted_address":"9 Parkwood Pl, East Tamaki, Auckland 2013, New Zealand"}},{"business_url":"http:\/\/www.bungalowandvilla.co.nz","yp_url":"https:\/\/yellow.co.nz\/y\/bungalow-villa?src=name&c=1043","addrInfo":{"lat":-36.8697286,"lng":174.7484637,"street_number":"377","locality":"Auckland","administrative_area_level_1":"Auckland","country_code":"NZ","country":"New Zealand","postal_code":"1021","route":"377 New N Rd","formatted_address":"377 New N Rd, Kingsland, Auckland 1021, New Zealand"}},{"business_url":"http:\/\/countiesjoiner.co.nz\/","yp_url":"https:\/\/yellow.co.nz\/y\/counties-joinery-glasgow?src=name&c=1043","addrInfo":{"lat":-37.1935541,"lng":174.8359379,"street_number":"36","locality":"Patumahoe","administrative_area_level_1":"Auckland","country_code":"NZ","country":"New Zealand","postal_code":"2678","route":"36 Sedgebrook Rd","formatted_address":"36 Sedgebrook Rd, Patumahoe 2678, New Zealand"}},{"business_url":"http:\/\/www.compositejoinery.co.nz","yp_url":"https:\/\/yellow.co.nz\/y\/composite-joinery?src=name&c=1043","addrInfo":{"lat":-36.4079588,"lng":174.6545822,"street_number":"7","locality":"Warkworth","administrative_area_level_1":"Auckland","country_code":"NZ","country":"New Zealand","postal_code":"0910","route":"7 Glenmore Dr","formatted_address":"7 Glenmore Dr, Warkworth 0910, New Zealand"}},{"business_url":"http:\/\/www.papakurajoinery.co.nz","yp_url":"https:\/\/yellow.co.nz\/y\/papakura-joinery?src=name&c=1043","addrInfo":{"lat":-37.0525462,"lng":174.9324671,"street_number":"45","locality":"Takanini","administrative_area_level_1":"Auckland","country_code":"NZ","country":"New Zealand","postal_code":"2112","route":"45 Tironui Rd","formatted_address":"45 Tironui Rd, Takanini 2112, New Zealand"}},{"business_url":"http:\/\/www.fisherwindows.co.nz","yp_url":"https:\/\/yellow.co.nz\/y\/fisher-taranaki-windows?src=name&c=1043","addrInfo":{"lat":-39.0565458,"lng":174.1029293,"street_number":"50","locality":"New Plymouth","administrative_area_level_1":"Taranaki","country_code":"NZ","country":"New Zealand","postal_code":"4312","route":"50 Rimu St","formatted_address":"50 Rimu St, Strandon, New Plymouth 4312, New Zealand"}},{"business_url":"http:\/\/www.beaverkitchens.co.nz","yp_url":"https:\/\/yellow.co.nz\/y\/beaver-kitchens-whakatane?src=name&c=1043","addrInfo":{"lat":-37.9521562,"lng":176.9907769,"street_number":"28","locality":"Whakatane","administrative_area_level_1":"Bay Of Plenty","country_code":"NZ","country":"New Zealand","postal_code":"3120","route":"28 McAlister St","formatted_address":"28 McAlister St, Whakatane 3120, New Zealand"}},{"business_url":"http:\/\/www.mahurangijoinery.co.nz","yp_url":"https:\/\/yellow.co.nz\/y\/mahurangi-joinery-glenmore-drive?src=name&c=1043","addrInfo":{"lat":-36.4083919,"lng":174.6557461,"street_number":"23A","locality":"Warkworth","administrative_area_level_1":"Auckland","country_code":"NZ","country":"New Zealand","postal_code":"0910","route":"23A Glenmore Dr","formatted_address":"23A Glenmore Dr, Warkworth 0910, New Zealand"}},{"business_url":"http:\/\/www.essex-comshape.co.nz","yp_url":"https:\/\/yellow.co.nz\/y\/essex-cabinetmakers-new?src=name&c=1043","addrInfo":{"lat":-36.9047795,"lng":174.6912171,"street_number":"16","locality":"Auckland","administrative_area_level_1":"Auckland","country_code":"NZ","country":"New Zealand","postal_code":"0600","route":"16 Portage Rd","formatted_address":"16 Portage Rd, New Lynn, Auckland 0600, New Zealand"}},{"business_url":"http:\/\/www.essex-comshape.co.nz","yp_url":"https:\/\/yellow.co.nz\/y\/comshape-technology-new?src=name&c=1043","addrInfo":{"lat":-36.9047795,"lng":174.6912171,"street_number":"16","locality":"Auckland","administrative_area_level_1":"Auckland","country_code":"NZ","country":"New Zealand","postal_code":"0600","route":"16 Portage Rd","formatted_address":"16 Portage Rd, New Lynn, Auckland 0600, New Zealand"}}]