[{"business_url":"http:\/\/www.essex-comshape.co.nz","yp_url":"https:\/\/yellow.co.nz\/y\/comshape-technology-new?src=name","addrInfo":{"lat":-36.9047795,"lng":174.6912171,"street_number":"16","locality":"Auckland","administrative_area_level_1":"Auckland","country_code":"NZ","country":"New Zealand","postal_code":"0600","route":"16 Portage Rd","formatted_address":"16 Portage Rd, New Lynn, Auckland 0600, New Zealand"}},{"business_url":"http:\/\/www.essex-comshape.co.nz","yp_url":"https:\/\/yellow.co.nz\/y\/essex-cabinetmakers-new?src=name","addrInfo":{"lat":-36.9047795,"lng":174.6912171,"street_number":"16","locality":"Auckland","administrative_area_level_1":"Auckland","country_code":"NZ","country":"New Zealand","postal_code":"0600","route":"16 Portage Rd","formatted_address":"16 Portage Rd, New Lynn, Auckland 0600, New Zealand"}},{"business_url":"http:\/\/www.hepburnjoinery.co.nz","yp_url":"https:\/\/yellow.co.nz\/y\/hepburn-joinery-1972?src=name","addrInfo":{"lat":-43.5373184,"lng":172.5407763,"street_number":"64","locality":"Christchurch","administrative_area_level_1":"Canterbury","country_code":"NZ","country":"New Zealand","postal_code":"8042","route":"64 Waterloo Rd","formatted_address":"64 Waterloo Rd, Hornby, Christchurch 8042, New Zealand"}},{"business_url":"http:\/\/www.rmsshopfittings.com\/index.html","yp_url":"https:\/\/yellow.co.nz\/y\/rms-christchurch?src=name","addrInfo":{"lat":-43.5404838,"lng":172.5560444,"street_number":"33","locality":"Christchurch","administrative_area_level_1":"Canterbury","country_code":"NZ","country":"New Zealand","postal_code":"8042","route":"33 Nga Mahi Rd","formatted_address":"17\/33 Nga Mahi Rd, Sockburn, Christchurch 8042, New Zealand"}},{"business_url":"http:\/\/www.sydaz.co.nz","yp_url":"https:\/\/yellow.co.nz\/y\/sydaz-joinery?src=name","addrInfo":{"lat":-39.503119,"lng":176.8814527,"street_number":"7","locality":"Napier","administrative_area_level_1":"Hawke's Bay","country_code":"NZ","country":"New Zealand","postal_code":"4110","route":"7 Cadbury Rd","formatted_address":"6\/7 Cadbury Rd, Onekawa, Napier 4110, New Zealand"}},{"business_url":"http:\/\/www.tmkitchens.co.nz","yp_url":"https:\/\/yellow.co.nz\/y\/taylor-made-joinery-south?src=name","addrInfo":{"lat":-45.8901272,"lng":170.5057808,"street_number":"22","locality":"Dunedin","administrative_area_level_1":"Otago","country_code":"NZ","country":"New Zealand","postal_code":"9012","route":"22 Orari St","formatted_address":"22 Orari St, South Dunedin, Dunedin 9012, New Zealand"}},{"business_url":"http:\/\/joinerysolutions.co.nz","yp_url":"https:\/\/yellow.co.nz\/y\/joinery-solutions-plimmerton?src=name","addrInfo":{"lat":-41.0767764,"lng":174.8704488,"street_number":"8","locality":"Porirua","administrative_area_level_1":"Wellington","country_code":"NZ","country":"New Zealand","postal_code":"5026","route":"8 Freshfields Pl","formatted_address":"8 Freshfields Pl, Plimmerton, Porirua 5026, New Zealand"}},{"business_url":"http:\/\/www.thesellersroom.co.nz\/","yp_url":"https:\/\/yellow.co.nz\/y\/sellers-room?src=name","addrInfo":{"lat":-41.3191233,"lng":173.2173312,"street_number":"9","locality":"Nelson","administrative_area_level_1":"Nelson","country_code":"NZ","country":"New Zealand","postal_code":"7011","route":"9 Echodale Pl","formatted_address":"9 Echodale Pl, Stoke, Nelson 7011, New Zealand"}},{"business_url":"http:\/\/www.maxgeorge.com","yp_url":"https:\/\/yellow.co.nz\/y\/max-george-joiners?src=name","addrInfo":{"lat":-41.5182751,"lng":173.967902,"street_number":"15","locality":"Blenheim","administrative_area_level_1":"Marlborough","country_code":"NZ","country":"New Zealand","postal_code":"7201","route":"15 Timandra Pl","formatted_address":"15 Timandra Pl, Blenheim, Blenheim 7201, New Zealand"}},{"business_url":"http:\/\/www.goldmarkgroup.co.nz\/","yp_url":"https:\/\/yellow.co.nz\/y\/goldmark-group?src=name","addrInfo":{"lat":-41.3175308,"lng":174.8062398,"street_number":"11","locality":"Wellington","administrative_area_level_1":"Wellington","country_code":"NZ","country":"New Zealand","postal_code":"6022","route":"11 Jean Batten St","formatted_address":"9\/11 Jean Batten St, Rongotai, Wellington 6022, New Zealand"}},{"business_url":"http:\/\/www.gartshore.co.nz","yp_url":"https:\/\/yellow.co.nz\/y\/gartshore-group-saxon-street-2?src=name","addrInfo":{"lat":-43.5435652,"lng":172.6282837,"street_number":"114","locality":"Christchurch","administrative_area_level_1":"Canterbury","country_code":"NZ","country":"New Zealand","postal_code":"8024","route":"114 Antigua St","formatted_address":"2\/114 Antigua St, Addington, Christchurch 8024, New Zealand"}},{"business_url":"http:\/\/www.yoursolutions.co.nz","yp_url":"https:\/\/yellow.co.nz\/y\/your-solutions?src=name","addrInfo":{"lat":-39.5032252,"lng":176.8864044,"street_number":"82","locality":"Napier","administrative_area_level_1":"Hawke's Bay","country_code":"NZ","country":"New Zealand","postal_code":"4110","route":"82 Taradale Rd","formatted_address":"82 Taradale Rd, Onekawa, Napier 4110, New Zealand"}}]