[{"business_url":"http:\/\/greenbayveterinaryclinic.co.nz","yp_url":"https:\/\/yellow.co.nz\/y\/greenbay-veterinary-clinic?src=name","addrInfo":{"lat":-36.9298394,"lng":174.6852641,"street_number":"2","locality":"Auckland","administrative_area_level_1":"Auckland","country_code":"NZ","country":"New Zealand","postal_code":"0604","route":"2 Bishop St","formatted_address":"2 Bishop St, Green Bay, Auckland 0604, New Zealand"}},{"business_url":"http:\/\/www.barkesvet.co.nz\/","yp_url":"https:\/\/yellow.co.nz\/y\/barkes-corner-vet?src=name","addrInfo":{"lat":-37.7350318,"lng":176.1228931,"street_number":"507","locality":"Tauranga","administrative_area_level_1":"Bay Of Plenty","country_code":"NZ","country":"New Zealand","postal_code":"3171","route":"507 State Highway 29","formatted_address":"507 State Highway 29, Greerton, Tauranga 3171, New Zealand"}},{"business_url":"http:\/\/www.premierequinevets.co.nz","yp_url":"https:\/\/yellow.co.nz\/y\/cg-murfitt-equine-vets?src=name","addrInfo":{"lat":-43.5389574,"lng":172.5876542,"street_number":"243","locality":"Christchurch","administrative_area_level_1":"Canterbury","country_code":"NZ","country":"New Zealand","postal_code":"8041","route":"243 Blenheim Rd","formatted_address":"3\/243 Blenheim Rd, Riccarton, Christchurch 8041, New Zealand"}},{"business_url":"http:\/\/belfastvetclinic.com\/Home.html","yp_url":"https:\/\/yellow.co.nz\/y\/belfast-veterinary-clinic?src=name","addrInfo":{"lat":-43.4434647,"lng":172.6337496,"street_number":"830","locality":"Christchurch","administrative_area_level_1":"Canterbury","country_code":"NZ","country":"New Zealand","postal_code":"8051","route":"830 Main N Rd","formatted_address":"830 Main N Rd, Belfast, Christchurch 8051, New Zealand"}},{"business_url":"http:\/\/www.humanimals.co.nz","yp_url":"https:\/\/yellow.co.nz\/y\/dunedin-south-veterinary?src=name","addrInfo":{"lat":-45.8939089,"lng":170.499638,"street_number":"44","locality":"Dunedin","administrative_area_level_1":"Otago","country_code":"NZ","country":"New Zealand","postal_code":"9012","route":"44 Rankeilor St","formatted_address":"44 Rankeilor St, South Dunedin, Dunedin 9012, New Zealand"}},{"business_url":"http:\/\/www.vetcall.co.nz","yp_url":"https:\/\/yellow.co.nz\/y\/vetcall-animal-hospital?src=name","addrInfo":{"lat":-43.5296305,"lng":172.6784604,"street_number":"78","locality":"Christchurch","administrative_area_level_1":"Canterbury","country_code":"NZ","country":"New Zealand","postal_code":"8062","route":"78 Buckleys Rd","formatted_address":"78 Buckleys Rd, Linwood, Christchurch 8062, New Zealand"}},{"business_url":"http:\/\/www.kelburnvet.co.nz","yp_url":"https:\/\/yellow.co.nz\/y\/pet-doctors-kelburn-kelburn?src=name","addrInfo":{"lat":-41.2876716,"lng":174.7652096,"street_number":"44","locality":"Wellington","administrative_area_level_1":"Wellington","country_code":"NZ","country":"New Zealand","postal_code":"6012","route":"44 Upland Rd","formatted_address":"44 Upland Rd, Kelburn, Wellington 6012, New Zealand"}},{"business_url":"http:\/\/www.humanimals.co.nz","yp_url":"https:\/\/yellow.co.nz\/y\/humanimals?src=name","addrInfo":{"lat":-45.8939089,"lng":170.499638,"street_number":"44","locality":"Dunedin","administrative_area_level_1":"Otago","country_code":"NZ","country":"New Zealand","postal_code":"9012","route":"44 Rankeilor St","formatted_address":"44 Rankeilor St, South Dunedin, Dunedin 9012, New Zealand"}}]