[{"business_url":"http:\/\/www.hbcyouthcentre.org","yp_url":"https:\/\/yellow.co.nz\/y\/hibiscus-coast-youth-orewa?src=name&c=1762","addrInfo":{"lat":-36.5976148,"lng":174.6969967,"street_number":"214D","locality":"Orewa","administrative_area_level_1":"Auckland","country_code":"NZ","country":"New Zealand","postal_code":"0931","route":"214D Hibiscus Coast Hwy","formatted_address":"214D Hibiscus Coast Hwy, Orewa 0931, New Zealand"}},{"business_url":"http:\/\/www.youthtown.org.nz","yp_url":"https:\/\/yellow.co.nz\/y\/youthtown-inc-nelson?src=name&c=1762","addrInfo":{"lat":-36.8520826,"lng":174.7578207,"street_number":"143","locality":"Auckland","administrative_area_level_1":"Auckland","country_code":"NZ","country":"New Zealand","postal_code":"1010","route":"143 Nelson St","formatted_address":"143 Nelson St, Auckland, Auckland 1010, New Zealand"}},{"business_url":"http:\/\/www.pact.org.nz","yp_url":"https:\/\/yellow.co.nz\/y\/papatoetoe-adolescent-christian?src=name&c=1762","addrInfo":{"lat":-36.973217,"lng":174.8635112,"street_number":"311","locality":"Auckland","administrative_area_level_1":"Auckland","country_code":"NZ","country":"New Zealand","postal_code":"2025","route":"311 Great South Rd","formatted_address":"311 Great South Rd, Papatoetoe, Auckland 2025, New Zealand"}},{"business_url":"http:\/\/www.ry.org.nz\/","yp_url":"https:\/\/yellow.co.nz\/y\/rainbow-youth-inc?src=name&c=1762","addrInfo":{"lat":-36.859389,"lng":174.7547644,"street_number":"11","locality":"Auckland","administrative_area_level_1":"Auckland","country_code":"NZ","country":"New Zealand","postal_code":"1010","route":"11 Edinburgh St","formatted_address":"11 Edinburgh St, Auckland, Auckland 1010, New Zealand"}},{"business_url":"http:\/\/www.cadetforces.mil.nz","yp_url":"https:\/\/yellow.co.nz\/y\/air-training-corps-carrington?src=name&c=1762","addrInfo":{"lat":-39.081735,"lng":174.0867221,"street_number":"367A","locality":"New Plymouth","administrative_area_level_1":"Taranaki","country_code":"NZ","country":"New Zealand","postal_code":"4310","route":"367A Carrington St","formatted_address":"367A Carrington St, Vogeltown, New Plymouth 4310, New Zealand"}},{"business_url":"http:\/\/www.youthtown.org.nz","yp_url":"https:\/\/yellow.co.nz\/y\/youthtown-inc-auckland?src=name&c=1762","addrInfo":{"lat":-36.8520826,"lng":174.7578207,"street_number":"143","locality":"Auckland","administrative_area_level_1":"Auckland","country_code":"NZ","country":"New Zealand","postal_code":"1010","route":"143 Nelson St","formatted_address":"143 Nelson St, Auckland, Auckland 1010, New Zealand"}},{"business_url":"http:\/\/www.bb.org.nz","yp_url":"https:\/\/yellow.co.nz\/y\/boys-brigade-in?src=name&c=1762","addrInfo":{"lat":-36.7770798,"lng":174.7346969,"street_number":"81-89","locality":"Auckland","administrative_area_level_1":"Auckland","country_code":"NZ","country":"New Zealand","postal_code":"0627","route":"81-89 Hillside Rd","formatted_address":"5\/81-89 Hillside Rd, Wairau Valley, Auckland 0627, New Zealand"}},{"business_url":"http:\/\/www.hbcyouthcentre.org","yp_url":"https:\/\/yellow.co.nz\/y\/hibiscus-coast-youth-centre?src=name&c=1762","addrInfo":{"lat":-36.5976148,"lng":174.6969967,"street_number":"214D","locality":"Orewa","administrative_area_level_1":"Auckland","country_code":"NZ","country":"New Zealand","postal_code":"0931","route":"214D Hibiscus Coast Hwy","formatted_address":"214D Hibiscus Coast Hwy, Orewa 0931, New Zealand"}},{"business_url":"http:\/\/www.youthtown.org.nz","yp_url":"https:\/\/yellow.co.nz\/y\/youthtown-taupo?src=name&c=1762","addrInfo":{"lat":-38.6786462,"lng":176.0939193,"street_number":"21","locality":"Taupo","administrative_area_level_1":"Waikato","country_code":"NZ","country":"New Zealand","postal_code":"3330","route":"21 A C Baths Ave","formatted_address":"21 A C Baths Ave, Tauhara, Taupo 3330, New Zealand"}},{"business_url":"http:\/\/www.tuiora.co.nz\/","yp_url":"https:\/\/yellow.co.nz\/y\/tui-ora-new-plymouth?src=name&c=1762","addrInfo":{"lat":-39.0582705,"lng":174.0723933,"street_number":"65","locality":"New Plymouth","administrative_area_level_1":"Taranaki","country_code":"NZ","country":"New Zealand","postal_code":"4310","route":"65 Devon St W","formatted_address":"63\/65 Devon St W, New Plymouth 4310, New Zealand"}},{"business_url":"http:\/\/www.youthtown.org.nz","yp_url":"https:\/\/yellow.co.nz\/y\/youthtown-inc-north-shore?src=name&c=1762","addrInfo":{"lat":-36.7844388,"lng":174.7425807,"street_number":"9","locality":"Auckland","administrative_area_level_1":"Auckland","country_code":"NZ","country":"New Zealand","postal_code":"0627","route":"9 Argus Pl","formatted_address":"9 Argus Pl, Hillcrest, Auckland 0627, New Zealand"}},{"business_url":"http:\/\/www.starfishservices.org.nz\/","yp_url":"https:\/\/yellow.co.nz\/y\/starfish-social-services?src=name&c=1762","addrInfo":{"lat":-37.8093893,"lng":175.7789673,"street_number":"58","locality":"Matamata","administrative_area_level_1":"Waikato","country_code":"NZ","country":"New Zealand","postal_code":"3400","route":"58 Rawhiti Ave","formatted_address":"58 Rawhiti Ave, Matamata 3400, New Zealand"}},{"business_url":"http:\/\/www.nzcyt.org.nz","yp_url":"https:\/\/yellow.co.nz\/y\/nz-chinese-youth?src=name&c=1762","addrInfo":{"lat":-36.7295504,"lng":174.7330221,"street_number":"4","locality":"Auckland","administrative_area_level_1":"Auckland","country_code":"NZ","country":"New Zealand","postal_code":"0630","route":"4 Pinehill Cres","formatted_address":"2\/4 Pinehill Cres, Browns Bay, Auckland 0630, New Zealand"}},{"business_url":"http:\/\/www.youthtown.org.nz","yp_url":"https:\/\/yellow.co.nz\/y\/youthtown-inc-tripoli-road?src=name&c=1762","addrInfo":{"lat":-36.8901631,"lng":174.8640963,"street_number":"149","locality":"Auckland","administrative_area_level_1":"Auckland","country_code":"NZ","country":"New Zealand","postal_code":"1072","route":"149 Tripoli Rd","formatted_address":"149 Tripoli Rd, Panmure, Auckland 1072, New Zealand"}}]